{"zoom": 6, "x": 53, "y": 33, "points": [{"lat": -8.2, "lng": 119.07, "id": "264050", "name": "Sangeang Api", "type": "Complex", "elevation": 1912, "lastEruption": "2022 CE", "country": "Indonesia"}, {"lat": -8.7345, "lng": 120.0074, "id": "264060", "name": "Sano, Wai", "type": "Caldera", "elevation": 1319, "lastEruption": "Unknown", "country": "Indonesia"}, {"lat": -8.637, "lng": 120.5302, "id": "264071", "name": "Ranakah", "type": "Lava dome(s)", "elevation": 2288, "lastEruption": "1991 CE", "country": "Indonesia"}, {"lat": -8.875, "lng": 120.95, "id": "264080", "name": "Inierie", "type": "Stratovolcano", "elevation": 2245, "lastEruption": "8050 BCE", "country": "Indonesia"}, {"lat": -8.73, "lng": 120.98, "id": "264090", "name": "Inielika", "type": "Complex", "elevation": 1559, "lastEruption": "2001 CE", "country": "Indonesia"}, {"lat": -8.817, "lng": 121.191, "id": "264100", "name": "Ebulobo", "type": "Stratovolcano", "elevation": 2096, "lastEruption": "1969 CE", "country": "Indonesia"}, {"lat": -8.891, "lng": 121.641, "id": "264110", "name": "Iya", "type": "Stratovolcano", "elevation": 618, "lastEruption": "1969 CE", "country": "Indonesia"}, {"lat": -8.77, "lng": 121.82, "id": "264140", "name": "Kelimutu", "type": "Complex", "elevation": 1639, "lastEruption": "1968 CE", "country": "Indonesia"}, {"lat": -8.32, "lng": 121.708, "id": "264150", "name": "Paluweh", "type": "Stratovolcano", "elevation": 875, "lastEruption": "2013 CE", "country": "Indonesia"}, {"lat": -8.676, "lng": 122.455, "id": "264160", "name": "Egon", "type": "Stratovolcano", "elevation": 1661, "lastEruption": "2008 CE", "country": "Indonesia"}, {"lat": -8.542, "lng": 122.775, "id": "264180", "name": "Lewotobi", "type": "Stratovolcano(es)", "elevation": 1703, "lastEruption": "2025 CE", "country": "Indonesia"}, {"lat": -8.342, "lng": 123.258, "id": "264220", "name": "Iliboleng", "type": "Stratovolcano", "elevation": 1659, "lastEruption": "1993 CE", "country": "Indonesia"}, {"lat": -8.274, "lng": 123.508, "id": "264230", "name": "Lewotolok", "type": "Stratovolcano", "elevation": 1431, "lastEruption": "2025 CE", "country": "Indonesia"}, {"lat": -8.55, "lng": 123.38, "id": "264240", "name": "Ililabalekan", "type": "Stratovolcano", "elevation": 1018, "lastEruption": "Unknown", "country": "Indonesia"}, {"lat": -8.532, "lng": 123.573, "id": "264250", "name": "Iliwerung", "type": "Complex", "elevation": 583, "lastEruption": "2021 CE", "country": "Indonesia"}, {"lat": -7.791, "lng": 123.585, "id": "264260", "name": "Tara, Batu", "type": "Stratovolcano", "elevation": 633, "lastEruption": "2015 CE", "country": "Indonesia"}]}