{"zoom": 5, "x": 18, "y": 8, "points": [{"lat": 64.54, "lng": 29.23, "id": "1501431", "name": "Lagopus lagopus", "era": "Cretaceous", "type": "Theropod", "early_age": 0.0, "late_age": 0.0, "country": "FI"}, {"lat": 64.54, "lng": 29.23, "id": "1501432", "name": "Tetrao urogallus", "era": "Cretaceous", "type": "Theropod", "early_age": 0.0, "late_age": 0.0, "country": "FI"}, {"lat": 64.54, "lng": 29.23, "id": "1501433", "name": "Lyrurus tetrix", "era": "Cretaceous", "type": "Theropod", "early_age": 0.0, "late_age": 0.0, "country": "FI"}, {"lat": 64.54, "lng": 29.23, "id": "1501434", "name": "Tetraoninae", "era": "Cretaceous", "type": "Theropod", "early_age": 0.0, "late_age": 0.0, "country": "FI"}, {"lat": 64.54, "lng": 29.23, "id": "1501435", "name": "Tetraonidae", "era": "Cretaceous", "type": "Theropod", "early_age": 0.0, "late_age": 0.0, "country": "FI"}, {"lat": 62.657, "lng": 31.06, "id": "1501439", "name": "Tetrao urogallus", "era": "Cretaceous", "type": "Theropod", "early_age": 0.0, "late_age": 0.0, "country": "FI"}, {"lat": 63.84, "lng": 23.15, "id": "1501486", "name": "Tetrao urogallus", "era": "Cretaceous", "type": "Theropod", "early_age": 0.0, "late_age": 0.0, "country": "FI"}, {"lat": 65.6, "lng": 25.43, "id": "1501505", "name": "Lagopus lagopus", "era": "Cretaceous", "type": "Theropod", "early_age": 0.0, "late_age": 0.0, "country": "FI"}, {"lat": 65.6, "lng": 25.43, "id": "1501506", "name": "Lyrurus tetrix", "era": "Cretaceous", "type": "Theropod", "early_age": 0.0, "late_age": 0.0, "country": "FI"}, {"lat": 65.6, "lng": 25.43, "id": "1501511", "name": "Lagopus lagopus", "era": "Cretaceous", "type": "Theropod", "early_age": 0.0, "late_age": 0.0, "country": "FI"}, {"lat": 65.6, "lng": 25.43, "id": "1501512", "name": "Tetrao urogallus", "era": "Cretaceous", "type": "Theropod", "early_age": 0.0, "late_age": 0.0, "country": "FI"}, {"lat": 62.71, "lng": 29.125, "id": "1501529", "name": "Tetraonidae", "era": "Cretaceous", "type": "Theropod", "early_age": 0.0, "late_age": 0.0, "country": "FI"}, {"lat": 62.71, "lng": 29.125, "id": "1501531", "name": "Lagopus lagopus", "era": "Cretaceous", "type": "Theropod", "early_age": 0.0, "late_age": 0.0, "country": "FI"}, {"lat": 62.71, "lng": 29.125, "id": "1501532", "name": "Tetrao urogallus", "era": "Cretaceous", "type": "Theropod", "early_age": 0.0, "late_age": 0.0, "country": "FI"}, {"lat": 62.71, "lng": 29.125, "id": "1501533", "name": "Lyrurus tetrix", "era": "Cretaceous", "type": "Theropod", "early_age": 0.0, "late_age": 0.0, "country": "FI"}, {"lat": 62.71, "lng": 29.125, "id": "1501534", "name": "Tetraonidae", "era": "Cretaceous", "type": "Theropod", "early_age": 0.0, "late_age": 0.0, "country": "FI"}, {"lat": 62.71, "lng": 29.125, "id": "1501535", "name": "Tetrao urogallus", "era": "Cretaceous", "type": "Theropod", "early_age": 0.0, "late_age": 0.0, "country": "FI"}, {"lat": 62.37, "lng": 27.185, "id": "1501537", "name": "Lagopus lagopus", "era": "Cretaceous", "type": "Theropod", "early_age": 0.0, "late_age": 0.0, "country": "FI"}, {"lat": 62.37, "lng": 27.185, "id": "1501538", "name": "Tetraonidae", "era": "Cretaceous", "type": "Theropod", "early_age": 0.0, "late_age": 0.0, "country": "FI"}]}