{"zoom": 5, "x": 26, "y": 12, "points": [{"lat": 36.8904, "lng": 120.6637, "id": "255091", "name": "Ovaloolithus chinkangkouensis", "era": "Cretaceous", "type": "Ornithischian", "early_age": 83.6, "late_age": 72.2, "country": "CN"}, {"lat": 36.9204, "lng": 120.6229, "id": "379964", "name": "Pinacosaurus grangeri", "era": "Cretaceous", "type": "Ornithischian", "early_age": 89.8, "late_age": 83.6, "country": "CN"}, {"lat": 36.9204, "lng": 120.6229, "id": "379965", "name": "Sauropoda", "era": "Cretaceous", "type": "Theropod", "early_age": 89.8, "late_age": 83.6, "country": "CN"}, {"lat": 36.9204, "lng": 120.6229, "id": "379966", "name": "Tanius sinensis", "era": "Cretaceous", "type": "Ornithischian", "early_age": 89.8, "late_age": 83.6, "country": "CN"}, {"lat": 33.45, "lng": 118.2, "id": "442321", "name": "Phasianidae", "era": "Cretaceous", "type": "Theropod", "early_age": 20.4, "late_age": 16.0, "country": "CN"}, {"lat": 33.45, "lng": 118.2, "id": "442322", "name": "Phasianidae", "era": "Cretaceous", "type": "Theropod", "early_age": 20.4, "late_age": 16.0, "country": "CN"}, {"lat": 40.19, "lng": 114.0439, "id": "460632", "name": "Theropoda", "era": "Cretaceous", "type": "Theropod", "early_age": 100.5, "late_age": 72.2, "country": "CN"}, {"lat": 40.19, "lng": 114.0439, "id": "460633", "name": "Huabeisaurus allocotus", "era": "Cretaceous", "type": "Theropod", "early_age": 100.5, "late_age": 72.2, "country": "CN"}, {"lat": 40.19, "lng": 114.0439, "id": "460634", "name": "Shantungosaurus", "era": "Cretaceous", "type": "Ornithischian", "early_age": 100.5, "late_age": 72.2, "country": "CN"}, {"lat": 40.19, "lng": 114.0439, "id": "460635", "name": "Nodosauridae", "era": "Cretaceous", "type": "Ornithischian", "early_age": 100.5, "late_age": 72.2, "country": "CN"}, {"lat": 40.19, "lng": 114.0439, "id": "460636", "name": "Saichania chulsanensis", "era": "Cretaceous", "type": "Ornithischian", "early_age": 100.5, "late_age": 72.2, "country": "CN"}, {"lat": 35.8667, "lng": 117.95, "id": "474559", "name": "Euhelopus zdanskyi", "era": "Cretaceous", "type": "Theropod", "early_age": 143.1, "late_age": 132.6, "country": "CN"}, {"lat": 40.8594, "lng": 114.7428, "id": "487436", "name": "Tyrannosauridae", "era": "Cretaceous", "type": "Theropod", "early_age": 143.1, "late_age": 100.5, "country": "CN"}, {"lat": 40.2672, "lng": 114.2489, "id": "513240", "name": "Saichania chulsanensis", "era": "Cretaceous", "type": "Ornithischian", "early_age": 100.5, "late_age": 72.2, "country": "CN"}, {"lat": 40.9161, "lng": 118.1642, "id": "519608", "name": "Grallator ssatoi", "era": "Cretaceous", "type": "Theropod", "early_age": 143.1, "late_age": 137.0, "country": "CN"}, {"lat": 36.8865, "lng": 120.659, "id": "520034", "name": "Tanius", "era": "Cretaceous", "type": "Ornithischian", "early_age": 83.6, "late_age": 72.2, "country": "CN"}, {"lat": 36.8865, "lng": 120.659, "id": "520035", "name": "Tsintaosaurus spinorhinus", "era": "Cretaceous", "type": "Ornithischian", "early_age": 83.6, "late_age": 72.2, "country": "CN"}, {"lat": 40.276, "lng": 113.0985, "id": "534511", "name": "Sauropoda", "era": "Jurassic", "type": "Theropod", "early_age": 161.5, "late_age": 143.1, "country": "CN"}, {"lat": 40.276, "lng": 113.0985, "id": "534512", "name": "Torvosaurus", "era": "Jurassic", "type": "Theropod", "early_age": 161.5, "late_age": 143.1, "country": "CN"}, {"lat": 40.276, "lng": 113.0985, "id": "534513", "name": "Iguanodontidae", "era": "Jurassic", "type": "Ornithischian", "early_age": 161.5, "late_age": 143.1, "country": "CN"}, {"lat": 36.8866, "lng": 120.659, "id": "536204", "name": "Tsintaosaurus spinorhinus", "era": "Cretaceous", "type": "Ornithischian", "early_age": 83.6, "late_age": 72.2, "country": "CN"}, {"lat": 36.8866, "lng": 120.659, "id": "536205", "name": "Tanius chingkankouensis", "era": "Cretaceous", "type": "Ornithischian", "early_age": 83.6, "late_age": 72.2, "country": "CN"}, {"lat": 36.8866, "lng": 120.659, "id": "536206", "name": "Theropoda", "era": "Cretaceous", "type": "Theropod", "early_age": 83.6, "late_age": 72.2, "country": "CN"}, {"lat": 36.8866, "lng": 120.659, "id": "536207", "name": "Lambeosaurinae", "era": "Cretaceous", "type": "Ornithischian", "early_age": 83.6, "late_age": 72.2, "country": "CN"}, {"lat": 36.8866, "lng": 120.659, "id": "536208", "name": "Hadrosauridae", "era": "Cretaceous", "type": "Ornithischian", "early_age": 83.6, "late_age": 72.2, "country": "CN"}, {"lat": 36.8866, "lng": 120.659, "id": "536209", "name": "Tsintaosaurus", "era": "Cretaceous", "type": "Ornithischian", "early_age": 83.6, "late_age": 72.2, "country": "CN"}, {"lat": 36.8866, "lng": 120.659, "id": "536211", "name": "Theropoda", "era": "Cretaceous", "type": "Theropod", "early_age": 83.6, "late_age": 72.2, "country": "CN"}, {"lat": 36.8865, "lng": 120.659, "id": "536212", "name": "Hadrosauridae", "era": "Cretaceous", "type": "Ornithischian", "early_age": 83.6, "late_age": 72.2, "country": "CN"}, {"lat": 36.8865, "lng": 120.659, "id": "536213", "name": "Theropoda", "era": "Cretaceous", "type": "Theropod", "early_age": 83.6, "late_age": 72.2, "country": "CN"}, {"lat": 36.8865, "lng": 120.659, "id": "536214", "name": "Tyrannosauroidea", "era": "Cretaceous", "type": "Theropod", "early_age": 83.6, "late_age": 72.2, "country": "CN"}, {"lat": 36.8865, "lng": 120.659, "id": "536215", "name": "Hadrosauridae", "era": "Cretaceous", "type": "Ornithischian", "early_age": 83.6, "late_age": 72.2, "country": "CN"}, {"lat": 36.8865, "lng": 120.659, "id": "536216", "name": "Sauropoda", "era": "Cretaceous", "type": "Theropod", "early_age": 83.6, "late_age": 72.2, "country": "CN"}, {"lat": 36.8866, "lng": 120.659, "id": "536217", "name": "Tsintaosaurus spinorhinus", "era": "Cretaceous", "type": "Ornithischian", "early_age": 83.6, "late_age": 72.2, "country": "CN"}, {"lat": 36.5978, "lng": 120.7678, "id": "536240", "name": "Tanius sinensis", "era": "Cretaceous", "type": "Ornithischian", "early_age": 83.6, "late_age": 72.2, "country": "CN"}, {"lat": 36.5978, "lng": 120.7678, "id": "536241", "name": "Theropoda", "era": "Cretaceous", "type": "Theropod", "early_age": 83.6, "late_age": 72.2, "country": "CN"}, {"lat": 36.9008, "lng": 120.6601, "id": "536262", "name": "Dinosauria", "era": "Cretaceous", "type": "Marine Reptile", "early_age": 83.6, "late_age": 72.2, "country": "CN"}, {"lat": 37.0667, "lng": 119.6667, "id": "536278", "name": "Psittacosaurus sinensis", "era": "Cretaceous", "type": "Ornithischian", "early_age": 121.4, "late_age": 113.2, "country": "CN"}, {"lat": 36.9758, "lng": 120.7136, "id": "536286", "name": "Psittacosaurus sinensis", "era": "Cretaceous", "type": "Ornithischian", "early_age": 121.4, "late_age": 113.2, "country": "CN"}, {"lat": 36.9758, "lng": 120.7136, "id": "536309", "name": "Psittacosauridae", "era": "Cretaceous", "type": "Ornithischian", "early_age": 121.4, "late_age": 100.5, "country": "CN"}, {"lat": 39.8786, "lng": 123.4389, "id": "537315", "name": "Liaoningosaurus paradoxus", "era": "Cretaceous", "type": "Ornithischian", "early_age": 125.8, "late_age": 119.6, "country": "CN"}, {"lat": 33.4978, "lng": 112.8794, "id": "537341", "name": "Nanyangosaurus zhugeii", "era": "Cretaceous", "type": "Ornithischian", "early_age": 93.9, "late_age": 72.2, "country": "CN"}, {"lat": 33.4978, "lng": 112.8794, "id": "537342", "name": "Youngoolithus xiaguanensis", "era": "Cretaceous", "type": "Marine Reptile", "early_age": 93.9, "late_age": 72.2, "country": "CN"}, {"lat": 35.9561, "lng": 119.3269, "id": "546026", "name": "Shantungosaurus giganteus", "era": "Cretaceous", "type": "Ornithischian", "early_age": 83.6, "late_age": 72.2, "country": "CN"}, {"lat": 35.9561, "lng": 119.3269, "id": "546027", "name": "Tyrannosaurinae", "era": "Cretaceous", "type": "Theropod", "early_age": 83.6, "late_age": 72.2, "country": "CN"}, {"lat": 40.1106, "lng": 114.1589, "id": "565180", "name": "Titanosauriformes", "era": "Cretaceous", "type": "Theropod", "early_age": 100.5, "late_age": 72.2, "country": "CN"}, {"lat": 40.9161, "lng": 118.1642, "id": "568507", "name": "Koreanaornis", "era": "Cretaceous", "type": "Other", "early_age": 143.1, "late_age": 137.0, "country": "CN"}, {"lat": 40.9161, "lng": 118.1642, "id": "568508", "name": "Hypsilophodontidae", "era": "Cretaceous", "type": "Ornithischian", "early_age": 143.1, "late_age": 137.0, "country": "CN"}, {"lat": 40.9081, "lng": 117.2692, "id": "575220", "name": "Caririchnium", "era": "Cretaceous", "type": "Ornithischian", "early_age": 121.4, "late_age": 113.2, "country": "CN"}, {"lat": 40.9081, "lng": 117.2692, "id": "575221", "name": "Jialingpus", "era": "Cretaceous", "type": "Theropod", "early_age": 121.4, "late_age": 113.2, "country": "CN"}, {"lat": 40.9081, "lng": 117.2692, "id": "575222", "name": "Eubrontes", "era": "Cretaceous", "type": "Theropod", "early_age": 121.4, "late_age": 113.2, "country": "CN"}, {"lat": 40.8903, "lng": 117.1322, "id": "575223", "name": "Ornithopoda", "era": "Cretaceous", "type": "Ornithischian", "early_age": 121.4, "late_age": 113.2, "country": "CN"}, {"lat": 40.8903, "lng": 117.1322, "id": "575224", "name": "Theropoda", "era": "Cretaceous", "type": "Theropod", "early_age": 121.4, "late_age": 113.2, "country": "CN"}, {"lat": 40.8903, "lng": 117.1322, "id": "575225", "name": "Aves", "era": "Cretaceous", "type": "Other", "early_age": 121.4, "late_age": 113.2, "country": "CN"}, {"lat": 36.9378, "lng": 120.8114, "id": "575226", "name": "Grallator yangi", "era": "Cretaceous", "type": "Theropod", "early_age": 125.8, "late_age": 121.4, "country": "CN"}, {"lat": 33.4978, "lng": 112.8794, "id": "575543", "name": "Ornithopoda", "era": "Cretaceous", "type": "Ornithischian", "early_age": 93.9, "late_age": 72.2, "country": "CN"}, {"lat": 35.8508, "lng": 117.9514, "id": "590303", "name": "Stegosauria", "era": "Cretaceous", "type": "Ornithischian", "early_age": 143.1, "late_age": 132.6, "country": "CN"}, {"lat": 35.8667, "lng": 117.95, "id": "590313", "name": "Euhelopus zdanskyi", "era": "Cretaceous", "type": "Theropod", "early_age": 143.1, "late_age": 132.6, "country": "CN"}, {"lat": 36.7625, "lng": 120.5539, "id": "590334", "name": "Titanosauria", "era": "Cretaceous", "type": "Theropod", "early_age": 121.4, "late_age": 100.5, "country": "CN"}, {"lat": 36.9204, "lng": 120.6229, "id": "590514", "name": "Tanius sinensis", "era": "Cretaceous", "type": "Ornithischian", "early_age": 89.8, "late_age": 83.6, "country": "CN"}, {"lat": 36.9204, "lng": 120.6229, "id": "590515", "name": "Ornithomimosauria", "era": "Cretaceous", "type": "Theropod", "early_age": 89.8, "late_age": 83.6, "country": "CN"}, {"lat": 36.9314, "lng": 120.6222, "id": "590517", "name": "Theropoda", "era": "Cretaceous", "type": "Theropod", "early_age": 83.6, "late_age": 72.2, "country": "CN"}, {"lat": 36.9314, "lng": 120.6222, "id": "590518", "name": "Sauropoda", "era": "Cretaceous", "type": "Theropod", "early_age": 83.6, "late_age": 72.2, "country": "CN"}, {"lat": 36.8311, "lng": 120.5164, "id": "590521", "name": "Nodosauridae", "era": "Cretaceous", "type": "Ornithischian", "early_age": 83.6, "late_age": 72.2, "country": "CN"}, {"lat": 35.8667, "lng": 117.95, "id": "590522", "name": "Dinosauria", "era": "Cretaceous", "type": "Marine Reptile", "early_age": 143.1, "late_age": 132.6, "country": "CN"}, {"lat": 35.8667, "lng": 117.95, "id": "590523", "name": "Dinosauria", "era": "Cretaceous", "type": "Marine Reptile", "early_age": 143.1, "late_age": 132.6, "country": "CN"}, {"lat": 35.8667, "lng": 117.95, "id": "590524", "name": "Dinosauria", "era": "Cretaceous", "type": "Marine Reptile", "early_age": 143.1, "late_age": 132.6, "country": "CN"}, {"lat": 36.8311, "lng": 120.5164, "id": "590794", "name": "Dinosauria", "era": "Cretaceous", "type": "Marine Reptile", "early_age": 83.6, "late_age": 72.2, "country": "CN"}, {"lat": 36.9204, "lng": 120.6229, "id": "590795", "name": "Sauropoda", "era": "Cretaceous", "type": "Theropod", "early_age": 83.6, "late_age": 72.2, "country": "CN"}, {"lat": 36.9204, "lng": 120.6229, "id": "590800", "name": "Dinosauria", "era": "Cretaceous", "type": "Marine Reptile", "early_age": 83.6, "late_age": 72.2, "country": "CN"}, {"lat": 36.9204, "lng": 120.6229, "id": "590801", "name": "Dinosauria", "era": "Cretaceous", "type": "Marine Reptile", "early_age": 83.6, "late_age": 72.2, "country": "CN"}, {"lat": 36.9204, "lng": 120.6229, "id": "590802", "name": "Sauropoda", "era": "Cretaceous", "type": "Theropod", "early_age": 83.6, "late_age": 72.2, "country": "CN"}, {"lat": 36.9204, "lng": 120.6229, "id": "590803", "name": "Dinosauria", "era": "Cretaceous", "type": "Marine Reptile", "early_age": 83.6, "late_age": 72.2, "country": "CN"}, {"lat": 36.9204, "lng": 120.6229, "id": "590804", "name": "Dinosauria", "era": "Cretaceous", "type": "Marine Reptile", "early_age": 83.6, "late_age": 72.2, "country": "CN"}, {"lat": 36.0992, "lng": 119.8339, "id": "590814", "name": "Dinosauria", "era": "Cretaceous", "type": "Marine Reptile", "early_age": 83.6, "late_age": 72.2, "country": "CN"}, {"lat": 36.0992, "lng": 119.8339, "id": "590815", "name": "Dinosauria", "era": "Cretaceous", "type": "Marine Reptile", "early_age": 83.6, "late_age": 72.2, "country": "CN"}, {"lat": 36.0992, "lng": 119.8339, "id": "590816", "name": "Dinosauria", "era": "Cretaceous", "type": "Marine Reptile", "early_age": 83.6, "late_age": 72.2, "country": "CN"}, {"lat": 35.6408, "lng": 119.3303, "id": "590830", "name": "Dinosauria", "era": "Cretaceous", "type": "Marine Reptile", "early_age": 83.6, "late_age": 72.2, "country": "CN"}, {"lat": 37.1172, "lng": 120.7214, "id": "590832", "name": "Dinosauria", "era": "Cretaceous", "type": "Marine Reptile", "early_age": 121.4, "late_age": 100.5, "country": "CN"}, {"lat": 37.1172, "lng": 120.7214, "id": "590833", "name": "Dinosauria", "era": "Cretaceous", "type": "Marine Reptile", "early_age": 83.6, "late_age": 72.2, "country": "CN"}, {"lat": 37.1172, "lng": 120.7214, "id": "590834", "name": "Dinosauria", "era": "Cretaceous", "type": "Marine Reptile", "early_age": 83.6, "late_age": 72.2, "country": "CN"}, {"lat": 36.5987, "lng": 120.7678, "id": "590835", "name": "Dinosauria", "era": "Cretaceous", "type": "Marine Reptile", "early_age": 83.6, "late_age": 72.2, "country": "CN"}, {"lat": 36.8817, "lng": 120.6792, "id": "658308", "name": "Micropachycephalosaurus hongtuyanensis", "era": "Cretaceous", "type": "Ornithischian", "early_age": 89.8, "late_age": 83.6, "country": "CN"}, {"lat": 36.8866, "lng": 120.659, "id": "667353", "name": "Ovaloolithus chinkangkouensis", "era": "Cretaceous", "type": "Ornithischian", "early_age": 83.6, "late_age": 72.2, "country": "CN"}, {"lat": 36.9307, "lng": 120.7317, "id": "667369", "name": "Spheroolithus chiangchiungtingensis", "era": "Cretaceous", "type": "Ornithischian", "early_age": 83.6, "late_age": 72.2, "country": "CN"}, {"lat": 35.2109, "lng": 118.7182, "id": "707861", "name": "Shandongornipes muxiai", "era": "Cretaceous", "type": "Other", "early_age": 125.8, "late_age": 100.5, "country": "CN"}, {"lat": 35.2109, "lng": 118.7182, "id": "707862", "name": "Minisauripus zhenshuonani", "era": "Cretaceous", "type": "Ornithischian", "early_age": 125.8, "late_age": 100.5, "country": "CN"}, {"lat": 35.2109, "lng": 118.7182, "id": "707863", "name": "Velociraptorichnus sichuanensis", "era": "Cretaceous", "type": "Theropod", "early_age": 125.8, "late_age": 100.5, "country": "CN"}, {"lat": 35.2109, "lng": 118.7182, "id": "707864", "name": "Dromaeopodus shandongensis", "era": "Cretaceous", "type": "Theropod", "early_age": 125.8, "late_age": 100.5, "country": "CN"}, {"lat": 34.0872, "lng": 112.5608, "id": "741048", "name": "Gobisaurus domoculus", "era": "Cretaceous", "type": "Ornithischian", "early_age": 121.4, "late_age": 100.5, "country": "CN"}, {"lat": 36.9307, "lng": 120.7317, "id": "741957", "name": "Paraspheroolithus irenensis", "era": "Cretaceous", "type": "Ornithischian", "early_age": 83.6, "late_age": 72.2, "country": "CN"}, {"lat": 36.9008, "lng": 120.6601, "id": "741958", "name": "Ovaloolithus chinkangkouensis", "era": "Cretaceous", "type": "Ornithischian", "early_age": 83.6, "late_age": 72.2, "country": "CN"}, {"lat": 36.9287, "lng": 120.6636, "id": "741959", "name": "Spheroolithus spheroides", "era": "Cretaceous", "type": "Ornithischian", "early_age": 89.8, "late_age": 83.6, "country": "CN"}, {"lat": 36.8904, "lng": 120.6637, "id": "749062", "name": "Ovaloolithus laminadermus", "era": "Cretaceous", "type": "Ornithischian", "early_age": 83.6, "late_age": 72.2, "country": "CN"}, {"lat": 36.8904, "lng": 120.6637, "id": "749063", "name": "Elongatoolithus elongatus", "era": "Cretaceous", "type": "Theropod", "early_age": 83.6, "late_age": 72.2, "country": "CN"}, {"lat": 36.8904, "lng": 120.6637, "id": "749064", "name": "Elongatoolithus elongatus", "era": "Cretaceous", "type": "Theropod", "early_age": 83.6, "late_age": 72.2, "country": "CN"}, {"lat": 36.9287, "lng": 120.6636, "id": "749066", "name": "Spheroolithus chiangchiungtingensis", "era": "Cretaceous", "type": "Ornithischian", "early_age": 89.8, "late_age": 83.6, "country": "CN"}, {"lat": 36.9287, "lng": 120.6636, "id": "749067", "name": "Paraspheroolithus irenensis", "era": "Cretaceous", "type": "Ornithischian", "early_age": 83.6, "late_age": 72.2, "country": "CN"}, {"lat": 36.8866, "lng": 120.659, "id": "749068", "name": "Ovaloolithus chinkangkouensis", "era": "Cretaceous", "type": "Ornithischian", "early_age": 83.6, "late_age": 72.2, "country": "CN"}, {"lat": 36.8866, "lng": 120.659, "id": "749069", "name": "Elongatoolithus elongatus", "era": "Cretaceous", "type": "Theropod", "early_age": 83.6, "late_age": 72.2, "country": "CN"}, {"lat": 36.8866, "lng": 120.659, "id": "749070", "name": "Elongatoolithus elongatus", "era": "Cretaceous", "type": "Theropod", "early_age": 83.6, "late_age": 72.2, "country": "CN"}, {"lat": 36.8866, "lng": 120.659, "id": "749071", "name": "Paraspheroolithus irenensis", "era": "Cretaceous", "type": "Ornithischian", "early_age": 83.6, "late_age": 72.2, "country": "CN"}, {"lat": 36.8866, "lng": 120.659, "id": "749072", "name": "Ovaloolithus chinkangkouensis", "era": "Cretaceous", "type": "Ornithischian", "early_age": 83.6, "late_age": 72.2, "country": "CN"}, {"lat": 36.8866, "lng": 120.659, "id": "749073", "name": "Elongatoolithus elongatus", "era": "Cretaceous", "type": "Theropod", "early_age": 83.6, "late_age": 72.2, "country": "CN"}, {"lat": 36.8866, "lng": 120.659, "id": "749074", "name": "Ovaloolithus chinkangkouensis", "era": "Cretaceous", "type": "Ornithischian", "early_age": 83.6, "late_age": 72.2, "country": "CN"}, {"lat": 36.8866, "lng": 120.659, "id": "749075", "name": "Ovaloolithus chinkangkouensis", "era": "Cretaceous", "type": "Ornithischian", "early_age": 83.6, "late_age": 72.2, "country": "CN"}, {"lat": 36.9287, "lng": 120.6636, "id": "749076", "name": "Paraspheroolithus irenensis", "era": "Cretaceous", "type": "Ornithischian", "early_age": 83.6, "late_age": 72.2, "country": "CN"}, {"lat": 34.0872, "lng": 112.5608, "id": "781610", "name": "Somphospondyli", "era": "Cretaceous", "type": "Theropod", "early_age": 121.4, "late_age": 100.5, "country": "CN"}, {"lat": 40.8075, "lng": 119.7957, "id": "803157", "name": "Beipiaosaurus", "era": "Cretaceous", "type": "Theropod", "early_age": 125.8, "late_age": 119.6, "country": "CN"}, {"lat": 40.7725, "lng": 117.8697, "id": "811566", "name": "Theropoda", "era": "Jurassic", "type": "Theropod", "early_age": 149.2, "late_age": 137.0, "country": "CN"}, {"lat": 40.2522, "lng": 115.6375, "id": "828527", "name": "Xuanhuaceratops niei", "era": "Jurassic", "type": "Ornithischian", "early_age": 152.2, "late_age": 132.6, "country": "CN"}, {"lat": 35.9956, "lng": 119.4099, "id": "829423", "name": "Shantungosaurus giganteus", "era": "Cretaceous", "type": "Ornithischian", "early_age": 83.6, "late_age": 72.2, "country": "CN"}, {"lat": 40.9167, "lng": 119.65, "id": "829458", "name": "Anchiornis huxleyi", "era": "Jurassic", "type": "Theropod", "early_age": 161.5, "late_age": 154.8, "country": "CN"}, {"lat": 34.112, "lng": 112.5893, "id": "862206", "name": "Ruyangosaurus giganteus", "era": "Cretaceous", "type": "Theropod", "early_age": 121.4, "late_age": 100.5, "country": "CN"}, {"lat": 37.4658, "lng": 120.9847, "id": "873168", "name": "Sinoceratops zhuchengensis", "era": "Cretaceous", "type": "Ornithischian", "early_age": 83.6, "late_age": 72.2, "country": "CN"}, {"lat": 37.4658, "lng": 120.9847, "id": "873169", "name": "Shantungosaurus giganteus", "era": "Cretaceous", "type": "Ornithischian", "early_age": 83.6, "late_age": 72.2, "country": "CN"}, {"lat": 39.8786, "lng": 123.4389, "id": "880423", "name": "Yixianosaurus longimanus", "era": "Cretaceous", "type": "Theropod", "early_age": 125.8, "late_age": 119.6, "country": "CN"}, {"lat": 40.7869, "lng": 115.8925, "id": "881358", "name": "Menglongipus sinensis", "era": "Jurassic", "type": "Theropod", "early_age": 152.2, "late_age": 132.6, "country": "CN"}, {"lat": 40.5883, "lng": 119.5758, "id": "890417", "name": "Confuciusornis sanctus", "era": "Cretaceous", "type": "Other", "early_age": 121.4, "late_age": 113.2, "country": "CN"}, {"lat": 35.9956, "lng": 119.4099, "id": "895799", "name": "Zhuchengceratops inexpectus", "era": "Cretaceous", "type": "Ornithischian", "early_age": 83.6, "late_age": 72.2, "country": "CN"}, {"lat": 40.8681, "lng": 119.9911, "id": "911297", "name": "Tianyulong confuciusi", "era": "Jurassic", "type": "Ornithischian", "early_age": 168.2, "late_age": 152.2, "country": "CN"}, {"lat": 40.655, "lng": 119.69, "id": "923801", "name": "Bohaiornis guoi", "era": "Cretaceous", "type": "Theropod", "early_age": 121.4, "late_age": 113.2, "country": "CN"}, {"lat": 40.5864, "lng": 119.4344, "id": "929493", "name": "Anchiornis huxleyi", "era": "Jurassic", "type": "Theropod", "early_age": 168.2, "late_age": 152.2, "country": "CN"}, {"lat": 37.4658, "lng": 120.9847, "id": "933527", "name": "Zhuchengtyrannus magnus", "era": "Cretaceous", "type": "Theropod", "early_age": 83.6, "late_age": 72.2, "country": "CN"}, {"lat": 34.6069, "lng": 118.4286, "id": "942995", "name": "Parabrontopodus", "era": "Cretaceous", "type": "Theropod", "early_age": 143.1, "late_age": 100.5, "country": "CN"}, {"lat": 34.6072, "lng": 118.4281, "id": "943004", "name": "Parabrontopodus", "era": "Cretaceous", "type": "Theropod", "early_age": 143.1, "late_age": 100.5, "country": "CN"}, {"lat": 34.6053, "lng": 118.4272, "id": "943005", "name": "Theropoda", "era": "Cretaceous", "type": "Theropod", "early_age": 143.1, "late_age": 100.5, "country": "CN"}, {"lat": 34.6053, "lng": 118.4272, "id": "943006", "name": "Parabrontopodus", "era": "Cretaceous", "type": "Theropod", "early_age": 143.1, "late_age": 100.5, "country": "CN"}, {"lat": 34.6053, "lng": 118.4272, "id": "943007", "name": "Parabrontopodus", "era": "Cretaceous", "type": "Theropod", "early_age": 143.1, "late_age": 100.5, "country": "CN"}, {"lat": 40.8681, "lng": 119.9911, "id": "964027", "name": "Xiaotingia zhengi", "era": "Jurassic", "type": "Theropod", "early_age": 168.2, "late_age": 152.2, "country": "CN"}, {"lat": 40.0, "lng": 116.6667, "id": "974873", "name": "Jibeinia luanhera", "era": "Cretaceous", "type": "Other", "early_age": 125.8, "late_age": 119.6, "country": "CN"}, {"lat": 34.112, "lng": 112.5893, "id": "984140", "name": "Sauropoda", "era": "Cretaceous", "type": "Theropod", "early_age": 100.5, "late_age": 89.8, "country": "CN"}, {"lat": 34.112, "lng": 112.5893, "id": "984141", "name": "Sauropoda", "era": "Cretaceous", "type": "Theropod", "early_age": 100.5, "late_age": 89.8, "country": "CN"}, {"lat": 34.112, "lng": 112.5893, "id": "984142", "name": "Sauropoda", "era": "Cretaceous", "type": "Theropod", "early_age": 100.5, "late_age": 89.8, "country": "CN"}, {"lat": 34.112, "lng": 112.5893, "id": "984143", "name": "Luoyanggia liudianensis", "era": "Cretaceous", "type": "Theropod", "early_age": 121.4, "late_age": 100.5, "country": "CN"}, {"lat": 34.112, "lng": 112.5893, "id": "984144", "name": "Ornithomimidae", "era": "Cretaceous", "type": "Theropod", "early_age": 121.4, "late_age": 100.5, "country": "CN"}, {"lat": 34.112, "lng": 112.5893, "id": "984145", "name": "Spinosauridae", "era": "Cretaceous", "type": "Theropod", "early_age": 121.4, "late_age": 100.5, "country": "CN"}, {"lat": 34.112, "lng": 112.5893, "id": "984146", "name": "Neosauropoda", "era": "Cretaceous", "type": "Theropod", "early_age": 121.4, "late_age": 100.5, "country": "CN"}, {"lat": 34.112, "lng": 112.5893, "id": "984149", "name": "Carcharodontosauridae", "era": "Cretaceous", "type": "Theropod", "early_age": 121.4, "late_age": 100.5, "country": "CN"}, {"lat": 34.112, "lng": 112.5893, "id": "984150", "name": "Carcharodontosauridae", "era": "Cretaceous", "type": "Theropod", "early_age": 121.4, "late_age": 100.5, "country": "CN"}, {"lat": 40.8075, "lng": 119.7957, "id": "985494", "name": "Zhongjianornis yangi", "era": "Cretaceous", "type": "Theropod", "early_age": 121.4, "late_age": 113.2, "country": "CN"}, {"lat": 40.8075, "lng": 119.7957, "id": "985495", "name": "Jianchangornis microdonta", "era": "Cretaceous", "type": "Theropod", "early_age": 121.4, "late_age": 113.2, "country": "CN"}, {"lat": 37.0436, "lng": 120.8019, "id": "996732", "name": "Aves", "era": "Cretaceous", "type": "Other", "early_age": 125.8, "late_age": 121.4, "country": "CN"}, {"lat": 37.0436, "lng": 120.8019, "id": "996733", "name": "Theropoda", "era": "Cretaceous", "type": "Theropod", "early_age": 125.8, "late_age": 121.4, "country": "CN"}, {"lat": 35.2109, "lng": 118.7182, "id": "996740", "name": "Koreanaornis", "era": "Cretaceous", "type": "Other", "early_age": 125.8, "late_age": 100.5, "country": "CN"}, {"lat": 35.2109, "lng": 118.7182, "id": "996741", "name": "Iguanodontipodidae", "era": "Cretaceous", "type": "Ornithischian", "early_age": 125.8, "late_age": 100.5, "country": "CN"}, {"lat": 35.8866, "lng": 119.4481, "id": "996742", "name": "Corpulentapus lilasia", "era": "Cretaceous", "type": "Theropod", "early_age": 125.8, "late_age": 121.4, "country": "CN"}, {"lat": 35.8866, "lng": 119.4481, "id": "996743", "name": "Grallator yangi", "era": "Cretaceous", "type": "Theropod", "early_age": 125.8, "late_age": 121.4, "country": "CN"}, {"lat": 35.8866, "lng": 119.4481, "id": "996744", "name": "Grallatoridae", "era": "Cretaceous", "type": "Theropod", "early_age": 125.8, "late_age": 121.4, "country": "CN"}, {"lat": 35.8866, "lng": 119.4481, "id": "996745", "name": "Sauropoda", "era": "Cretaceous", "type": "Theropod", "early_age": 125.8, "late_age": 121.4, "country": "CN"}, {"lat": 40.8075, "lng": 119.7957, "id": "1016155", "name": "Schizooura lii", "era": "Cretaceous", "type": "Theropod", "early_age": 121.4, "late_age": 113.2, "country": "CN"}]}