{"zoom": 4, "x": 7, "y": 5, "points": [{"lat": 51.7833, "lng": -1.7833, "id": "461", "name": "Aldsworth", "fall": "Fell", "recclass": "LL5", "massRange": "100g-1kg"}, {"lat": 47.4667, "lng": -0.55, "id": "2301", "name": "Angers", "fall": "Fell", "recclass": "L6"}, {"lat": 53.5833, "lng": -2.7167, "id": "2318", "name": "Appley Bridge", "fall": "Fell", "recclass": "LL6", "massRange": "10-100kg"}, {"lat": 43.95, "lng": -0.05, "id": "4942", "name": "Barbotan", "fall": "Fell", "recclass": "H5", "massRange": "1-10kg"}, {"lat": 42.3833, "lng": -2.5, "id": "4946", "name": "Barea", "fall": "Fell", "recclass": "Mesosiderite-A1", "massRange": "1-10kg"}, {"lat": 52.5653, "lng": -1.3397, "id": "4954", "name": "Barwell", "fall": "Fell", "recclass": "L5", "massRange": "10-100kg"}, {"lat": 53.0167, "lng": -4.1, "id": "4993", "name": "Beddgelert", "fall": "Fell", "recclass": "H5", "massRange": "100g-1kg"}, {"lat": 41.6833, "lng": -3.8, "id": "5029", "name": "Berlanguillas", "fall": "Fell", "recclass": "L6", "massRange": "1-10kg"}, {"lat": 43.2167, "lng": -0.2333, "id": "5034", "name": "Beuste", "fall": "Fell", "recclass": "L5", "massRange": "1-10kg"}, {"lat": 54.5667, "lng": -6.3333, "id": "5121", "name": "Bovedy", "fall": "Fell", "recclass": "L3", "massRange": "1-10kg"}, {"lat": 43.3833, "lng": -5.15, "id": "5252", "name": "Cangas de Onis", "fall": "Fell", "recclass": "H5", "massRange": "10-100kg"}, {"lat": 41.9333, "lng": -7.4667, "id": "5334", "name": "Chaves", "fall": "Fell", "recclass": "Howardite", "massRange": "1-10kg"}, {"lat": 54.6167, "lng": -6.2167, "id": "5477", "name": "Crumlin", "fall": "Fell", "recclass": "L5", "massRange": "1-10kg"}, {"lat": 52.55, "lng": -8.0333, "id": "7745", "name": "Dundrum", "fall": "Fell", "recclass": "H5", "massRange": "1-10kg"}, {"lat": 46.25, "lng": -1.1, "id": "10051", "name": "Esnandes", "fall": "Fell", "recclass": "L6", "massRange": "1-10kg"}, {"lat": 52.4597, "lng": -0.3, "id": "10930", "name": "Glatton", "fall": "Fell", "recclass": "L6", "massRange": "100g-1kg"}, {"lat": 51.65, "lng": -1.5167, "id": "11855", "name": "Hatford", "fall": "Fell", "recclass": "Stone-uncl", "massRange": "10-100kg"}, {"lat": 45.4333, "lng": -0.45, "id": "12202", "name": "Jonzac", "fall": "Fell", "recclass": "Eucrite-mmict", "massRange": "1-10kg"}, {"lat": 48.4, "lng": -3.3, "id": "12282", "name": "Kerilis", "fall": "Fell", "recclass": "H5", "massRange": "1-10kg"}, {"lat": 48.1167, "lng": -3.0833, "id": "12284", "name": "Kernouve", "fall": "Fell", "recclass": "H6", "massRange": "10-100kg"}, {"lat": 54.6667, "lng": -7.6667, "id": "12309", "name": "Killeter", "fall": "Fell", "recclass": "H6", "massRange": "100g-1kg"}, {"lat": 51.9, "lng": -1.1167, "id": "12740", "name": "Launton", "fall": "Fell", "recclass": "L6", "massRange": "1-10kg"}, {"lat": 48.5333, "lng": -0.8667, "id": "12749", "name": "Le Teilleul", "fall": "Fell", "recclass": "Howardite", "massRange": "100g-1kg"}, {"lat": 52.6667, "lng": -6.9667, "id": "12759", "name": "Leighlinbridge", "fall": "Fell", "recclass": "L6", "massRange": "100g-1kg"}, {"lat": 52.5667, "lng": -8.7833, "id": "14652", "name": "Limerick", "fall": "Fell", "recclass": "H5", "massRange": "10-100kg"}, {"lat": 54.5667, "lng": -1.1667, "id": "16632", "name": "Middlesbrough", "fall": "Fell", "recclass": "L6", "massRange": "1-10kg"}, {"lat": 52.45, "lng": -8.3333, "id": "16737", "name": "Mooresfort", "fall": "Fell", "recclass": "H5", "massRange": "1-10kg"}, {"lat": 49.0333, "lng": -1.4333, "id": "16970", "name": "Nicorps", "fall": "Fell", "recclass": "Stone-uncl"}, {"lat": 43.4, "lng": -5.8667, "id": "18058", "name": "Oviedo", "fall": "Fell", "recclass": "H5", "massRange": "100g-1kg"}, {"lat": 53.5333, "lng": -7.3333, "id": "18804", "name": "Pettiswood", "fall": "Fell", "recclass": "Stone-uncl"}, {"lat": 41.3667, "lng": -6.2333, "id": "18816", "name": "Picote", "fall": "Fell", "recclass": "Stone-uncl"}, {"lat": 53.0364, "lng": -4.3194, "id": "18865", "name": "Pontlyfni", "fall": "Fell", "recclass": "Winonaite", "massRange": "100g-1kg"}, {"lat": 42.475, "lng": -5.3333, "id": "22584", "name": "Reliegos", "fall": "Fell", "recclass": "L5", "massRange": "10-100kg"}, {"lat": 52.7667, "lng": -2.5167, "id": "22773", "name": "Rowton", "fall": "Fell", "recclass": "Iron, IIIAB", "massRange": "1-10kg"}, {"lat": 43.15, "lng": -0.85, "id": "23188", "name": "Sauguis", "fall": "Fell", "recclass": "L6", "massRange": "1-10kg"}, {"lat": 41.7167, "lng": -0.05, "id": "23495", "name": "Sena", "fall": "Fell", "recclass": "H4", "massRange": "1-10kg"}, {"lat": 46.95, "lng": -1.5, "id": "23082", "name": "St. Christophe-la-Chartreuse", "fall": "Fell", "recclass": "L6", "massRange": "1-10kg"}, {"lat": 48.0167, "lng": -1.15, "id": "23087", "name": "St. Germain-du-Pinel", "fall": "Fell", "recclass": "H6", "massRange": "1-10kg"}, {"lat": 50.3833, "lng": -3.95, "id": "23732", "name": "Stretchleigh", "fall": "Fell", "recclass": "Stone-uncl", "massRange": "10-100kg"}, {"lat": 42.8, "lng": -4.6667, "id": "24179", "name": "Villalbeto de la Peña", "fall": "Fell", "recclass": "L6", "massRange": "1-10kg"}, {"lat": 54.1367, "lng": -0.4133, "id": "24325", "name": "Wold Cottage", "fall": "Fell", "recclass": "L6", "massRange": "10-100kg"}, {"lat": 44.0833, "lng": -1.3167, "id": "55768", "name": "Contis-Plage", "fall": "Found", "recclass": "H5", "massRange": "<100g"}, {"lat": 51.1389, "lng": -1.5361, "id": "5512", "name": "Danebury", "fall": "Found", "recclass": "H6", "massRange": "<100g"}, {"lat": 54.2403, "lng": -1.1989, "id": "36590", "name": "Hambleton", "fall": "Found", "recclass": "Pallasite, PMG", "massRange": "10-100kg"}, {"lat": 48.65, "lng": -3.9167, "id": "11874", "name": "Henvic", "fall": "Found", "recclass": "L5", "massRange": "<100g"}, {"lat": 47.65, "lng": -2.7667, "id": "12283", "name": "Kermichel", "fall": "Found", "recclass": "L6", "massRange": "1-10kg"}, {"lat": 41.0, "lng": -8.0, "id": "17005", "name": "North Portugal", "fall": "Found", "recclass": "Iron"}, {"lat": 48.6667, "lng": -4.05, "id": "18845", "name": "Plancy-l'Abbaye", "fall": "Found", "recclass": "H4", "massRange": "100g-1kg"}, {"lat": 41.7661, "lng": -8.5836, "id": "23172", "name": "São Julião de Moreira", "fall": "Found", "recclass": "Iron, IIAB", "massRange": ">100kg"}, {"lat": 51.1497, "lng": -1.81, "id": "56143", "name": "Wiltshire", "fall": "Found", "recclass": "H5", "massRange": "10-100kg"}, {"lat": 41.65, "lng": -0.8667, "id": "48916", "name": "Zaragoza", "fall": "Found", "recclass": "Iron, IVA-an", "massRange": ">100kg"}]}