{"zoom": 4, "x": 12, "y": 4, "clusters": [{"lat": 60.42, "lng": 102.6, "count": 8, "topItems": [{"id": "126505", "name": "Three-spined stickleback", "thumb": "tn_Gaacu_u1.jpg", "sprite": "sp-anchoviella_juruasanga.png", "group": "other"}, {"id": "154316", "name": "Gudgeon", "thumb": "tn_Gogob_u9.jpg", "sprite": "sp-enteromius.png", "group": "carp_minnow"}, {"id": "154375", "name": "Grayling", "thumb": "tn_Ththy_uh.jpg", "sprite": "sp-atlantic_salmon.png", "group": "salmon_trout"}, {"id": "127023", "name": "Atlantic mackerel", "thumb": "tn_Scsco_u4.jpg", "sprite": "sp-bluefin_tuna.png", "group": "tuna_mackerel"}, {"id": "154210", "name": "Northern pike", "thumb": "tn_Esluc_u9.jpg", "sprite": "sp-anchoviella_juruasanga.png", "group": "other"}, {"id": "154285", "name": "Bleak", "thumb": "tn_Alalb_u2.jpg", "sprite": "sp-enteromius.png", "group": "carp_minnow"}, {"id": "154333", "name": "Roach", "thumb": "tn_Rurut_ua.jpg", "sprite": "sp-enteromius.png", "group": "carp_minnow"}, {"id": "405451", "name": "Ruffe", "thumb": "tn_Gycer_u2.jpg", "sprite": "sp-dicentrarchus.png", "group": "bass"}], "filterAggs": {"waterType": {"Brackish": 8}, "bodyGroup": {"fish": 6, "other": 2}}, "groupDistribution": [{"group": "carp_minnow", "count": 3}, {"group": "other", "count": 2}, {"group": "salmon_trout", "count": 1}, {"group": "tuna_mackerel", "count": 1}, {"group": "bass", "count": 1}]}, {"lat": 61.07, "lng": 104.0, "count": 1, "topItems": [{"id": "126444", "name": "Norway pout", "thumb": "tn_Tresm_u0.jpg", "sprite": "sp-arctogadus.png", "group": "cod"}], "filterAggs": {"waterType": {"Saltwater": 1}, "bodyGroup": {"fish": 1}}, "groupDistribution": [{"group": "cod", "count": 1}]}], "points": [{"lat": 60.4322, "lng": 105.4339, "id": "126505", "name": "Three-spined stickleback", "thumb": "tn_Gaacu_u1.jpg", "sprite": "sp-anchoviella_juruasanga.png", "group": "other", "rarity": 1, "waterType": "Brackish"}, {"lat": 56.55, "lng": 96.3858, "id": "270410", "name": "Pimelodella", "sprite": "sp-blue_catfish.png", "group": "catfish", "rarity": 1}, {"lat": 64.8071, "lng": 102.6067, "id": "212601", "name": "Calidris ruficollis", "sprite": "sp-anchoviella_juruasanga.png", "group": "other", "rarity": 1}, {"lat": 61.07, "lng": 104.0, "id": "126444", "name": "Norway pout", "thumb": "tn_Tresm_u0.jpg", "sprite": "sp-arctogadus.png", "group": "cod", "rarity": 1, "waterType": "Saltwater"}, {"lat": 61.07, "lng": 104.0, "id": "101417", "name": "Hyperiidae", "sprite": "sp-american_lobster.png", "group": "crab_lobster", "rarity": 1}, {"lat": 60.0, "lng": 100.0, "id": "154316", "name": "Gudgeon", "thumb": "tn_Gogob_u9.jpg", "sprite": "sp-enteromius.png", "group": "carp_minnow", "rarity": 1, "waterType": "Brackish"}, {"lat": 60.3667, "lng": 102.2667, "id": "154375", "name": "Grayling", "thumb": "tn_Ththy_uh.jpg", "sprite": "sp-atlantic_salmon.png", "group": "salmon_trout", "rarity": 1, "waterType": "Brackish"}, {"lat": 61.07, "lng": 104.0, "id": "106742", "name": "Dromiidae", "sprite": "sp-american_lobster.png", "group": "crab_lobster", "rarity": 1}, {"lat": 60.0, "lng": 100.0, "id": "445754", "name": "Littorina sitkana", "sprite": "sp-cowrie_shell.png", "group": "sea_snail", "rarity": 1}, {"lat": 56.4147, "lng": 110.7174, "id": "159049", "name": "Calidris ferruginea", "sprite": "sp-anchoviella_juruasanga.png", "group": "other", "rarity": 1}, {"lat": 60.0, "lng": 100.0, "id": "445660", "name": "Littorina squalida", "sprite": "sp-cowrie_shell.png", "group": "sea_snail", "rarity": 1}, {"lat": 61.8225, "lng": 104.8961, "id": "232041", "name": "Polysticta stelleri", "sprite": "sp-anchoviella_juruasanga.png", "group": "other", "rarity": 1}, {"lat": 61.07, "lng": 104.0, "id": "127023", "name": "Atlantic mackerel", "thumb": "tn_Scsco_u4.jpg", "sprite": "sp-bluefin_tuna.png", "group": "tuna_mackerel", "rarity": 1, "waterType": "Brackish"}, {"lat": 58.8167, "lng": 109.1333, "id": "1135", "name": "Amphipoda", "sprite": "sp-american_lobster.png", "group": "crab_lobster", "rarity": 1}, {"lat": 56.9115, "lng": 108.8728, "id": "212601", "name": "Calidris ruficollis", "sprite": "sp-anchoviella_juruasanga.png", "group": "other", "rarity": 1}, {"lat": 60.3667, "lng": 102.2667, "id": "154210", "name": "Northern pike", "thumb": "tn_Esluc_u9.jpg", "sprite": "sp-anchoviella_juruasanga.png", "group": "other", "rarity": 1, "waterType": "Brackish"}, {"lat": 61.07, "lng": 104.0, "id": "11707", "name": "Cephalopoda", "sprite": "sp-giant_pacific_octopus.png", "group": "octopus_squid", "rarity": 1}, {"lat": 56.2318, "lng": 101.5229, "id": "212601", "name": "Calidris ruficollis", "sprite": "sp-anchoviella_juruasanga.png", "group": "other", "rarity": 1}, {"lat": 56.1231, "lng": 111.4334, "id": "212601", "name": "Calidris ruficollis", "sprite": "sp-anchoviella_juruasanga.png", "group": "other", "rarity": 1}, {"lat": 61.07, "lng": 104.0, "id": "293496", "name": "Teleostei", "sprite": "sp-anchoviella_juruasanga.png", "group": "other", "rarity": 1}, {"lat": 60.3667, "lng": 102.2667, "id": "154285", "name": "Bleak", "thumb": "tn_Alalb_u2.jpg", "sprite": "sp-enteromius.png", "group": "carp_minnow", "rarity": 1, "waterType": "Brackish"}, {"lat": 60.3667, "lng": 102.2667, "id": "154163", "name": "Cyprinidae", "sprite": "sp-enteromius.png", "group": "carp_minnow", "rarity": 1}, {"lat": 60.3667, "lng": 102.2667, "id": "1506666", "name": "Sorex minutus", "sprite": "sp-anchoviella_juruasanga.png", "group": "other", "rarity": 1}, {"lat": 56.1621, "lng": 100.3802, "id": "212601", "name": "Calidris ruficollis", "sprite": "sp-anchoviella_juruasanga.png", "group": "other", "rarity": 1}, {"lat": 57.8343, "lng": 101.5767, "id": "212601", "name": "Calidris ruficollis", "sprite": "sp-anchoviella_juruasanga.png", "group": "other", "rarity": 1}, {"lat": 60.366, "lng": 97.983, "id": "269313", "name": "Hapalogenys", "sprite": "sp-anchoviella_juruasanga.png", "group": "other", "rarity": 1}, {"lat": 60.0, "lng": 100.0, "id": "422957", "name": "Aethia psittacula", "sprite": "sp-anchoviella_juruasanga.png", "group": "other", "rarity": 1}, {"lat": 64.1649, "lng": 102.7319, "id": "212601", "name": "Calidris ruficollis", "sprite": "sp-anchoviella_juruasanga.png", "group": "other", "rarity": 1}, {"lat": 60.205, "lng": 108.39, "id": "212601", "name": "Calidris ruficollis", "sprite": "sp-anchoviella_juruasanga.png", "group": "other", "rarity": 1}, {"lat": 58.031, "lng": 108.5845, "id": "212601", "name": "Calidris ruficollis", "sprite": "sp-anchoviella_juruasanga.png", "group": "other", "rarity": 1}, {"lat": 59.4059, "lng": 102.4223, "id": "212601", "name": "Calidris ruficollis", "sprite": "sp-anchoviella_juruasanga.png", "group": "other", "rarity": 1}, {"lat": 59.3283, "lng": 111.1323, "id": "212601", "name": "Calidris ruficollis", "sprite": "sp-anchoviella_juruasanga.png", "group": "other", "rarity": 1}, {"lat": 60.3667, "lng": 102.2667, "id": "154333", "name": "Roach", "thumb": "tn_Rurut_ua.jpg", "sprite": "sp-enteromius.png", "group": "carp_minnow", "rarity": 1, "waterType": "Brackish"}, {"lat": 60.3667, "lng": 102.2667, "id": "405451", "name": "Ruffe", "thumb": "tn_Gycer_u2.jpg", "sprite": "sp-dicentrarchus.png", "group": "bass", "rarity": 1, "waterType": "Brackish"}]}