{"zoom": 4, "x": 0, "y": 5, "points": [{"lat": 51.79, "lng": -178.794, "id": "311070", "name": "Gareloi", "type": "Stratovolcano", "elevation": 1573, "lastEruption": "1989 CE", "country": "United States"}, {"lat": 51.885, "lng": -178.146, "id": "311080", "name": "Tanaga", "type": "Stratovolcano(es)", "elevation": 1806, "lastEruption": "1914 CE", "country": "United States"}, {"lat": 51.873, "lng": -178.006, "id": "311090", "name": "Takawangha", "type": "Stratovolcano", "elevation": 1449, "lastEruption": "1550 CE", "country": "United States"}, {"lat": 51.91, "lng": -177.438, "id": "311100", "name": "Bobrof", "type": "Stratovolcano", "elevation": 738, "lastEruption": "Unknown", "country": "United States"}, {"lat": 51.923, "lng": -177.168, "id": "311110", "name": "Kanaga", "type": "Stratovolcano", "elevation": 1307, "lastEruption": "2023 CE", "country": "United States"}, {"lat": 51.944, "lng": -176.747, "id": "311111", "name": "Moffett", "type": "Stratovolcano", "elevation": 1196, "lastEruption": "1600 BCE", "country": "United States"}, {"lat": 52.076, "lng": -176.13, "id": "311120", "name": "Great Sitkin", "type": "Stratovolcano", "elevation": 1740, "lastEruption": "2025 CE", "country": "United States"}, {"lat": 52.177, "lng": -175.508, "id": "311130", "name": "Kasatochi", "type": "Stratovolcano", "elevation": 314, "lastEruption": "2008 CE", "country": "United States"}, {"lat": 52.22, "lng": -175.13, "id": "311140", "name": "Koniuji", "type": "Stratovolcano", "elevation": 273, "lastEruption": "1150 BCE", "country": "United States"}, {"lat": 52.331, "lng": -174.139, "id": "311160", "name": "Atka Volcanic Complex", "type": "Stratovolcano(es)", "elevation": 1518, "lastEruption": "2025 CE", "country": "United States"}, {"lat": 52.315, "lng": -172.51, "id": "311180", "name": "Seguam", "type": "Stratovolcano(es)", "elevation": 1054, "lastEruption": "1993 CE", "country": "United States"}, {"lat": 52.5, "lng": -171.252, "id": "311190", "name": "Amukta", "type": "Stratovolcano", "elevation": 1066, "lastEruption": "1996 CE", "country": "United States"}, {"lat": 52.5716, "lng": -171.1383, "id": "311200", "name": "Chagulak", "type": "Stratovolcano", "elevation": 1028, "lastEruption": "Unknown", "country": "United States"}, {"lat": 52.6394, "lng": -170.6317, "id": "311210", "name": "Yunaska", "type": "Shield", "elevation": 550, "lastEruption": "1937 CE", "country": "United States"}, {"lat": 52.742, "lng": -170.111, "id": "311220", "name": "Herbert", "type": "Stratovolcano", "elevation": 1280, "lastEruption": "Unknown", "country": "United States"}, {"lat": 52.894, "lng": -170.054, "id": "311230", "name": "Carlisle", "type": "Stratovolcano", "elevation": 1620, "lastEruption": "1828 CE", "country": "United States"}, {"lat": 52.825, "lng": -169.944, "id": "311240", "name": "Cleveland", "type": "Stratovolcano", "elevation": 1730, "lastEruption": "2020 CE", "country": "United States"}, {"lat": 52.83, "lng": -169.77, "id": "311241", "name": "Tana", "type": "Stratovolcano(es)", "elevation": 1170, "lastEruption": "Unknown", "country": "United States"}, {"lat": 53.065, "lng": -169.77, "id": "311250", "name": "Uliaga", "type": "Stratovolcano", "elevation": 888, "lastEruption": "Unknown", "country": "United States"}, {"lat": 52.974, "lng": -169.72, "id": "311260", "name": "Kagamil", "type": "Stratovolcano", "elevation": 893, "lastEruption": "1929 CE", "country": "United States"}, {"lat": 53.1264, "lng": -168.6875, "id": "311270", "name": "Vsevidof", "type": "Stratovolcano", "elevation": 2160, "lastEruption": "1878 CE", "country": "United States"}, {"lat": 53.157, "lng": -168.539, "id": "311280", "name": "Recheschnoi", "type": "Stratovolcano", "elevation": 1984, "lastEruption": "Unknown", "country": "United States"}, {"lat": 53.43, "lng": -168.13, "id": "311290", "name": "Okmok", "type": "Shield", "elevation": 1073, "lastEruption": "2008 CE", "country": "United States"}, {"lat": 53.93, "lng": -168.03, "id": "311300", "name": "Bogoslof", "type": "Stratovolcano", "elevation": 150, "lastEruption": "2017 CE", "country": "United States"}, {"lat": 53.891, "lng": -166.923, "id": "311310", "name": "Makushin", "type": "Stratovolcano", "elevation": 1800, "lastEruption": "1995 CE", "country": "United States"}, {"lat": 54.134, "lng": -165.986, "id": "311320", "name": "Akutan", "type": "Stratovolcano", "elevation": 1303, "lastEruption": "1992 CE", "country": "United States"}, {"lat": 54.516, "lng": -164.65, "id": "311340", "name": "Westdahl", "type": "Stratovolcano?", "elevation": 1563, "lastEruption": "1992 CE", "country": "United States"}, {"lat": 54.65, "lng": -164.43, "id": "311350", "name": "Fisher", "type": "Stratovolcano", "elevation": 1112, "lastEruption": "1830 CE", "country": "United States"}, {"lat": 54.756, "lng": -163.97, "id": "311360", "name": "Shishaldin", "type": "Stratovolcano", "elevation": 2857, "lastEruption": "2023 CE", "country": "United States"}, {"lat": 54.8, "lng": -163.589, "id": "311380", "name": "Roundtop", "type": "Stratovolcano", "elevation": 1871, "lastEruption": "7600 BCE", "country": "United States"}, {"lat": 55.4184, "lng": -163.1472, "id": "311390", "name": "Amak", "type": "Stratovolcano", "elevation": 547, "lastEruption": "1796 CE", "country": "United States"}, {"lat": 55.067, "lng": -162.835, "id": "312010", "name": "Frosty", "type": "Stratovolcano(es)", "elevation": 1728, "lastEruption": "Unknown", "country": "United States"}, {"lat": 55.183, "lng": -162.276, "id": "312011", "name": "Dutton", "type": "Stratovolcano", "elevation": 1465, "lastEruption": "Unknown", "country": "United States"}, {"lat": 55.3519, "lng": -162.0445, "id": "312020", "name": "Emmons Lake Volcanic Center", "type": "Caldera", "elevation": 1534, "lastEruption": "Unknown", "country": "United States"}, {"lat": 55.417, "lng": -161.894, "id": "312030", "name": "Pavlof", "type": "Stratovolcano", "elevation": 2493, "lastEruption": "2022 CE", "country": "United States"}, {"lat": 55.457, "lng": -161.854, "id": "312040", "name": "Pavlof Sister", "type": "Stratovolcano", "elevation": 2142, "lastEruption": "Unknown", "country": "United States"}, {"lat": 55.641, "lng": -161.214, "id": "312050", "name": "Dana", "type": "Stratovolcano", "elevation": 1354, "lastEruption": "1890 BCE", "country": "United States"}]}