{"zoom": 4, "x": 14, "y": 7, "points": [{"lat": 21.93, "lng": 143.47, "id": "284133", "name": "Fukujin", "type": "Stratovolcano", "elevation": -217, "lastEruption": "1974 CE", "country": "United States"}, {"lat": 21.765, "lng": 143.71, "id": "284134", "name": "Kasuga 1", "type": "Stratovolcano", "elevation": -598, "lastEruption": "1959 CE", "country": "United States"}, {"lat": 21.6, "lng": 143.637, "id": "284135", "name": "Kasuga 2", "type": "Stratovolcano", "elevation": -274, "lastEruption": "Unknown", "country": "United States"}, {"lat": 21.485, "lng": 144.043, "id": "284136", "name": "NW Eifuku", "type": "Stratovolcano", "elevation": -1535, "lastEruption": "Unknown", "country": "United States"}, {"lat": 21.324, "lng": 144.194, "id": "284137", "name": "Daikoku", "type": "Stratovolcano", "elevation": -323, "lastEruption": "Unknown", "country": "United States"}, {"lat": 20.546, "lng": 144.893, "id": "284140", "name": "Farallon de Pajaros", "type": "Stratovolcano", "elevation": 337, "lastEruption": "1953 CE", "country": "United States"}, {"lat": 20.437, "lng": 145.03, "id": "284141", "name": "Ahyi", "type": "Stratovolcano", "elevation": -50, "lastEruption": "2025 CE", "country": "United States"}, {"lat": 20.13, "lng": 145.1, "id": "284142", "name": "Supply Reef", "type": "Stratovolcano", "elevation": -8, "lastEruption": "Unknown", "country": "United States"}, {"lat": 20.02, "lng": 145.22, "id": "284143", "name": "Maug Islands", "type": "Stratovolcano", "elevation": 227, "lastEruption": "Unknown", "country": "United States"}, {"lat": 19.671, "lng": 145.406, "id": "284150", "name": "Asuncion", "type": "Stratovolcano", "elevation": 857, "lastEruption": "1906 CE", "country": "United States"}, {"lat": 18.77, "lng": 145.67, "id": "284160", "name": "Agrigan", "type": "Stratovolcano", "elevation": 965, "lastEruption": "1917 CE", "country": "United States"}, {"lat": 18.13, "lng": 145.8, "id": "284170", "name": "Pagan", "type": "Stratovolcano(es)", "elevation": 570, "lastEruption": "2021 CE", "country": "United States"}, {"lat": 17.6, "lng": 145.83, "id": "284180", "name": "Alamagan", "type": "Stratovolcano", "elevation": 744, "lastEruption": "870 CE", "country": "United States"}, {"lat": 17.3137, "lng": 145.84, "id": "284190", "name": "Guguan", "type": "Stratovolcano", "elevation": 232, "lastEruption": "1883 CE", "country": "United States"}, {"lat": 16.88, "lng": 145.85, "id": "284191", "name": "Zealandia Bank", "type": "Stratovolcano", "elevation": 0, "lastEruption": "Unknown", "country": "United States"}, {"lat": 16.6991, "lng": 145.7803, "id": "284192", "name": "Sarigan", "type": "Stratovolcano", "elevation": 494, "lastEruption": "Unknown", "country": "United States"}, {"lat": 16.58, "lng": 145.78, "id": "284193", "name": "South Sarigan Seamount", "type": "Stratovolcano", "elevation": -184, "lastEruption": "2010 CE", "country": "United States"}, {"lat": 16.35, "lng": 145.67, "id": "284200", "name": "Anatahan", "type": "Stratovolcano", "elevation": 790, "lastEruption": "2008 CE", "country": "United States"}, {"lat": 15.93, "lng": 145.67, "id": "284201", "name": "East Diamante", "type": "Stratovolcano", "elevation": -127, "lastEruption": "Unknown", "country": "United States"}, {"lat": 15.605, "lng": 145.572, "id": "284202", "name": "Ruby", "type": "Stratovolcano", "elevation": -174, "lastEruption": "2023 CE", "country": "United States"}, {"lat": 14.958, "lng": 145.249, "id": "284210", "name": "Esmeralda Bank", "type": "Stratovolcano", "elevation": -74, "lastEruption": "Unknown", "country": "United States"}, {"lat": 14.601, "lng": 144.775, "id": "284211", "name": "NW Rota-1", "type": "Stratovolcano", "elevation": -455, "lastEruption": "2010 CE", "country": "United States"}, {"lat": 13.4, "lng": 143.92, "id": "284220", "name": "Forecast Seamount", "type": "Stratovolcano", "elevation": -1456, "lastEruption": "Unknown", "country": "United States"}, {"lat": 13.25, "lng": 144.02, "id": "284230", "name": "Seamount X", "type": "Stratovolcano", "elevation": -1230, "lastEruption": "Unknown", "country": "United States"}, {"lat": 15.406, "lng": 144.506, "id": "284305", "name": "Mariana Back-Arc Segment at 15.5°N", "type": "Fissure vent", "elevation": -4100, "lastEruption": "2015 CE", "country": "United States"}]}