{"zoom": 4, "x": 2, "y": 5, "points": [{"lat": 55.25, "lng": -133.3, "id": "315060", "name": "Tlevak Strait-Suemez Island", "type": "Volcanic field", "elevation": 50, "lastEruption": "Unknown", "country": "United States"}, {"lat": 55.35, "lng": -131.0, "id": "315070", "name": "Behm Canal-Rudyerd Bay", "type": "Volcanic field", "elevation": 500, "lastEruption": "Unknown", "country": "United States"}, {"lat": 55.1109, "lng": -128.8991, "id": "320100", "name": "Tseax River Cone", "type": "Pyroclastic cone", "elevation": 612, "lastEruption": "1690 CE", "country": "Canada"}, {"lat": 54.7, "lng": -130.23, "id": "320110", "name": "Crow Lagoon", "type": "Pyroclastic cone", "elevation": 335, "lastEruption": "Unknown", "country": "Canada"}, {"lat": 52.498, "lng": -128.723, "id": "320120", "name": "Milbanke Sound Group", "type": "Pyroclastic cone(s)", "elevation": 233, "lastEruption": "Unknown", "country": "Canada"}, {"lat": 52.928, "lng": -123.732, "id": "320140", "name": "Nazko", "type": "Pyroclastic cone(s)", "elevation": 1238, "lastEruption": "5220 BCE", "country": "Canada"}, {"lat": 52.0306, "lng": -120.1125, "id": "320150", "name": "Wells Gray-Clearwater", "type": "Volcanic field", "elevation": 950, "lastEruption": "1550 CE", "country": "Canada"}, {"lat": 51.5179, "lng": -126.1133, "id": "320160", "name": "Silverthrone", "type": "Caldera", "elevation": 2860, "lastEruption": "Unknown", "country": "Canada"}, {"lat": 50.8, "lng": -123.4, "id": "320170", "name": "Bridge River Cones", "type": "Volcanic field", "elevation": 2500, "lastEruption": "Unknown", "country": "Canada"}, {"lat": 50.63, "lng": -123.5, "id": "320180", "name": "Meager", "type": "Complex", "elevation": 2680, "lastEruption": "410 BCE", "country": "Canada"}, {"lat": 49.933, "lng": -123.0, "id": "320190", "name": "Garibaldi Lake", "type": "Volcanic field", "elevation": 2316, "lastEruption": "Unknown", "country": "Canada"}, {"lat": 49.85, "lng": -123.0, "id": "320200", "name": "Garibaldi", "type": "Stratovolcano", "elevation": 2678, "lastEruption": "8060 BCE", "country": "Canada"}, {"lat": 50.12, "lng": -123.28, "id": "320811", "name": "Cayley Volcanic Field", "type": "Volcanic field", "elevation": 2375, "lastEruption": "Unknown", "country": "Canada"}, {"lat": 48.777, "lng": -121.813, "id": "321010", "name": "Baker", "type": "Stratovolcano(es)", "elevation": 3285, "lastEruption": "1880 CE", "country": "United States"}, {"lat": 48.112, "lng": -121.113, "id": "321020", "name": "Glacier Peak", "type": "Stratovolcano", "elevation": 3213, "lastEruption": "1700 CE", "country": "United States"}, {"lat": 46.853, "lng": -121.76, "id": "321030", "name": "Rainier", "type": "Stratovolcano", "elevation": 4392, "lastEruption": "1450 CE", "country": "United States"}, {"lat": 46.206, "lng": -121.49, "id": "321040", "name": "Adams", "type": "Stratovolcano", "elevation": 3742, "lastEruption": "950 CE", "country": "United States"}, {"lat": 46.2, "lng": -122.18, "id": "321050", "name": "St. Helens", "type": "Stratovolcano", "elevation": 2549, "lastEruption": "2008 CE", "country": "United States"}, {"lat": 45.88, "lng": -122.08, "id": "321060", "name": "West Crater", "type": "Volcanic field", "elevation": 1329, "lastEruption": "5750 BCE", "country": "United States"}, {"lat": 45.93, "lng": -121.82, "id": "321070", "name": "Indian Heaven", "type": "Volcanic field", "elevation": 1806, "lastEruption": "6250 BCE", "country": "United States"}, {"lat": 45.374, "lng": -121.695, "id": "322010", "name": "Hood", "type": "Stratovolcano", "elevation": 3426, "lastEruption": "1866 CE", "country": "United States"}, {"lat": 44.674, "lng": -121.8, "id": "322020", "name": "Jefferson", "type": "Stratovolcano", "elevation": 3199, "lastEruption": "950 CE", "country": "United States"}, {"lat": 44.4125, "lng": -121.7686, "id": "322030", "name": "Blue Lake Crater", "type": "Maar", "elevation": 1136, "lastEruption": "680 CE", "country": "United States"}, {"lat": 44.38, "lng": -121.93, "id": "322040", "name": "Sand Mountain Field", "type": "Volcanic field", "elevation": 1664, "lastEruption": "950 BCE", "country": "United States"}, {"lat": 44.285, "lng": -121.8423, "id": "322060", "name": "Belknap", "type": "Shield(s)", "elevation": 2094, "lastEruption": "475 CE", "country": "United States"}, {"lat": 44.133, "lng": -121.767, "id": "322070", "name": "Three Sisters", "type": "Complex", "elevation": 3159, "lastEruption": "439 CE", "country": "United States"}, {"lat": 43.979, "lng": -121.688, "id": "322090", "name": "Bachelor", "type": "Stratovolcano", "elevation": 2763, "lastEruption": "5800 BCE", "country": "United States"}, {"lat": 43.57, "lng": -121.82, "id": "322100", "name": "Davis Lake", "type": "Volcanic field", "elevation": 2163, "lastEruption": "2790 BCE", "country": "United States"}, {"lat": 43.722, "lng": -121.229, "id": "322110", "name": "Newberry", "type": "Shield", "elevation": 2434, "lastEruption": "690 CE", "country": "United States"}, {"lat": 43.512, "lng": -120.861, "id": "322120", "name": "Devils Garden", "type": "Volcanic field", "elevation": 1698, "lastEruption": "Unknown", "country": "United States"}, {"lat": 43.2411, "lng": -122.1111, "id": "322150", "name": "Cinnamon Butte", "type": "Pyroclastic cone(s)", "elevation": 1958, "lastEruption": "Unknown", "country": "United States"}, {"lat": 42.942, "lng": -122.107, "id": "322160", "name": "Crater Lake", "type": "Caldera", "elevation": 2487, "lastEruption": "2850 BCE", "country": "United States"}, {"lat": 43.1, "lng": -118.75, "id": "322170", "name": "Diamond Craters", "type": "Volcanic field", "elevation": 1435, "lastEruption": "5610 BCE", "country": "United States"}, {"lat": 43.147, "lng": -117.46, "id": "322190", "name": "Jordan Craters", "type": "Volcanic field", "elevation": 1473, "lastEruption": "1250 BCE", "country": "United States"}, {"lat": 41.409, "lng": -122.193, "id": "323010", "name": "Shasta", "type": "Stratovolcano", "elevation": 4317, "lastEruption": "1250 CE", "country": "United States"}, {"lat": 41.611, "lng": -121.554, "id": "323020", "name": "Medicine Lake", "type": "Shield", "elevation": 2412, "lastEruption": "1060 CE", "country": "United States"}, {"lat": 43.183, "lng": -114.352, "id": "324010", "name": "Black Butte Crater Lava Field", "type": "Shield", "elevation": 1478, "lastEruption": "8180 BCE", "country": "United States"}, {"lat": 43.371, "lng": -113.493, "id": "324020", "name": "Craters of the Moon", "type": "Volcanic field", "elevation": 2005, "lastEruption": "130 BCE", "country": "United States"}, {"lat": 42.8859, "lng": -113.2166, "id": "324030", "name": "Wapi Lava Field", "type": "Shield", "elevation": 1597, "lastEruption": "300 BCE", "country": "United States"}, {"lat": 48.78, "lng": -128.64, "id": "331005", "name": "West Valley Segment", "type": "Fissure vent", "elevation": -2550, "lastEruption": "Unknown", "country": "Canada"}, {"lat": 47.95, "lng": -129.1, "id": "331010", "name": "Endeavour Segment", "type": "Fissure vent(s)", "elevation": -2050, "lastEruption": "3490 BCE", "country": "Canada"}, {"lat": 46.88, "lng": -129.33, "id": "331011", "name": "Cobb Segment", "type": "Fissure vent(s)", "elevation": -2100, "lastEruption": "1180 BCE", "country": "Canada"}, {"lat": 46.52, "lng": -129.58, "id": "331020", "name": "CoAxial Segment", "type": "Fissure vent(s)", "elevation": -2400, "lastEruption": "1993 CE", "country": "Undersea Features"}, {"lat": 45.95, "lng": -130.0, "id": "331021", "name": "Axial Seamount", "type": "Fissure vent(s)", "elevation": -1410, "lastEruption": "2015 CE", "country": "Undersea Features"}, {"lat": 44.83, "lng": -130.3, "id": "331030", "name": "Cleft Segment", "type": "Fissure vent(s)", "elevation": -2140, "lastEruption": "1986 CE", "country": "Undersea Features"}, {"lat": 42.67, "lng": -126.78, "id": "331031", "name": "North Gorda Ridge Segment", "type": "Fissure vent(s)", "elevation": -3000, "lastEruption": "1996 CE", "country": "United States"}, {"lat": 42.15, "lng": -127.05, "id": "331032", "name": "Jackson Segment", "type": "Fissure vent(s)", "elevation": -3100, "lastEruption": "Unknown", "country": "United States"}, {"lat": 40.98, "lng": -127.5, "id": "331040", "name": "Escanaba Segment", "type": "Fissure vent(s)", "elevation": -1700, "lastEruption": "2260 BCE", "country": "United States"}, {"lat": 44.267, "lng": -129.879, "id": "331060", "name": "East Blanco Depression", "type": "Fissure vent", "elevation": -3000, "lastEruption": "Unknown", "country": "Undersea Features"}]}