{"zoom": 6, "x": 34, "y": 22, "points": [{"lat": 45.7786, "lng": 13.5886, "id": "149989", "name": "Tethyshadros insularis", "era": "Cretaceous", "type": "Ornithischian", "early_age": 83.6, "late_age": 72.2, "country": "IT"}, {"lat": 45.9919, "lng": 12.4608, "id": "283004", "name": "Carnosauria", "era": "Cretaceous", "type": "Theropod", "early_age": 132.6, "late_age": 121.4, "country": "IT"}, {"lat": 45.9919, "lng": 12.4608, "id": "283742", "name": "Sauropoda", "era": "Cretaceous", "type": "Theropod", "early_age": 132.6, "late_age": 121.4, "country": "IT"}, {"lat": 47.82, "lng": 16.24, "id": "486474", "name": "Rhabdodon suessi", "era": "Cretaceous", "type": "Ornithischian", "early_age": 83.6, "late_age": 72.2, "country": "AT"}, {"lat": 47.82, "lng": 16.24, "id": "486475", "name": "Zalmoxes", "era": "Cretaceous", "type": "Ornithischian", "early_age": 83.6, "late_age": 72.2, "country": "AT"}, {"lat": 47.82, "lng": 16.24, "id": "486476", "name": "Struthiosaurus austriacus", "era": "Cretaceous", "type": "Ornithischian", "early_age": 83.6, "late_age": 72.2, "country": "AT"}, {"lat": 47.82, "lng": 16.24, "id": "486477", "name": "Struthiosaurus austriacus", "era": "Cretaceous", "type": "Ornithischian", "early_age": 83.6, "late_age": 72.2, "country": "AT"}, {"lat": 47.82, "lng": 16.24, "id": "486478", "name": "Dinosauria", "era": "Cretaceous", "type": "Marine Reptile", "early_age": 83.6, "late_age": 72.2, "country": "AT"}, {"lat": 47.82, "lng": 16.24, "id": "486479", "name": "Struthiosaurus austriacus", "era": "Cretaceous", "type": "Ornithischian", "early_age": 83.6, "late_age": 72.2, "country": "AT"}, {"lat": 47.82, "lng": 16.24, "id": "486480", "name": "Struthiosaurus austriacus", "era": "Cretaceous", "type": "Ornithischian", "early_age": 83.6, "late_age": 72.2, "country": "AT"}, {"lat": 47.82, "lng": 16.24, "id": "486481", "name": "Zalmoxes", "era": "Cretaceous", "type": "Ornithischian", "early_age": 83.6, "late_age": 72.2, "country": "AT"}, {"lat": 47.82, "lng": 16.24, "id": "486484", "name": "Struthiosaurus austriacus", "era": "Cretaceous", "type": "Ornithischian", "early_age": 83.6, "late_age": 72.2, "country": "AT"}, {"lat": 47.82, "lng": 16.24, "id": "486489", "name": "Rhabdodon priscus", "era": "Cretaceous", "type": "Ornithischian", "early_age": 83.6, "late_age": 72.2, "country": "AT"}, {"lat": 47.82, "lng": 16.24, "id": "486490", "name": "Ankylosauria", "era": "Cretaceous", "type": "Ornithischian", "early_age": 83.6, "late_age": 72.2, "country": "AT"}, {"lat": 47.82, "lng": 16.24, "id": "486491", "name": "Tetanurae", "era": "Cretaceous", "type": "Theropod", "early_age": 83.6, "late_age": 72.2, "country": "AT"}, {"lat": 47.82, "lng": 16.24, "id": "486492", "name": "Rhabdodon priscus", "era": "Cretaceous", "type": "Ornithischian", "early_age": 83.6, "late_age": 72.2, "country": "AT"}, {"lat": 46.3096, "lng": 12.4546, "id": "534998", "name": "Prosauropoda", "era": "Triassic", "type": "Theropod", "early_age": 227.3, "late_age": 205.7, "country": "IT"}, {"lat": 46.3274, "lng": 12.4833, "id": "534999", "name": "Theropoda", "era": "Triassic", "type": "Theropod", "early_age": 227.3, "late_age": 205.7, "country": "IT"}, {"lat": 46.3071, "lng": 12.6011, "id": "535000", "name": "Theropoda", "era": "Triassic", "type": "Theropod", "early_age": 227.3, "late_age": 205.7, "country": "IT"}, {"lat": 48.9, "lng": 11.9, "id": "538533", "name": "Archaeopteryx lithographica", "era": "Jurassic", "type": "Theropod", "early_age": 149.2, "late_age": 145.1, "country": "DE"}, {"lat": 48.9183, "lng": 11.5847, "id": "565780", "name": "Juravenator starki", "era": "Jurassic", "type": "Theropod", "early_age": 152.2, "late_age": 149.2, "country": "DE"}, {"lat": 47.8667, "lng": 16.1333, "id": "577926", "name": "Struthiosaurus austriacus", "era": "Cretaceous", "type": "Ornithischian", "early_age": 83.6, "late_age": 72.2, "country": "AT"}, {"lat": 47.8333, "lng": 16.1, "id": "577927", "name": "Struthiosaurus austriacus", "era": "Cretaceous", "type": "Ornithischian", "early_age": 83.6, "late_age": 72.2, "country": "AT"}, {"lat": 46.2386, "lng": 13.2789, "id": "584205", "name": "Dinosauria", "era": "Cretaceous", "type": "Marine Reptile", "early_age": 121.4, "late_age": 113.2, "country": "IT"}, {"lat": 45.2981, "lng": 13.5694, "id": "586621", "name": "Titanosaurimanus nana", "era": "Cretaceous", "type": "Theropod", "early_age": 106.3, "late_age": 100.5, "country": "HR"}, {"lat": 45.2981, "lng": 13.5694, "id": "586622", "name": "Theropoda", "era": "Cretaceous", "type": "Theropod", "early_age": 106.3, "late_age": 100.5, "country": "HR"}, {"lat": 45.2981, "lng": 13.5694, "id": "586623", "name": "Ornithopoda", "era": "Cretaceous", "type": "Ornithischian", "early_age": 106.3, "late_age": 100.5, "country": "HR"}, {"lat": 45.2939, "lng": 13.5747, "id": "586624", "name": "Sauropoda", "era": "Cretaceous", "type": "Theropod", "early_age": 106.3, "late_age": 100.5, "country": "HR"}, {"lat": 45.2939, "lng": 13.5747, "id": "586625", "name": "Theropoda", "era": "Cretaceous", "type": "Theropod", "early_age": 106.3, "late_age": 100.5, "country": "HR"}, {"lat": 45.3111, "lng": 13.6092, "id": "586626", "name": "Carnosauria", "era": "Cretaceous", "type": "Theropod", "early_age": 106.3, "late_age": 100.5, "country": "HR"}, {"lat": 47.8112, "lng": 12.614, "id": "624153", "name": "Hadrosauroidea", "era": "Cretaceous", "type": "Ornithischian", "early_age": 72.2, "late_age": 66.0, "country": "DE"}, {"lat": 45.6134, "lng": 13.9352, "id": "624154", "name": "Hadrosauroidea", "era": "Cretaceous", "type": "Ornithischian", "early_age": 72.2, "late_age": 61.7, "country": "SI"}, {"lat": 45.6134, "lng": 13.9352, "id": "624155", "name": "Ornithopoda", "era": "Cretaceous", "type": "Ornithischian", "early_age": 72.2, "late_age": 61.7, "country": "SI"}, {"lat": 45.6134, "lng": 13.9352, "id": "624156", "name": "Iguanodontidae", "era": "Cretaceous", "type": "Ornithischian", "early_age": 72.2, "late_age": 61.7, "country": "SI"}, {"lat": 45.6134, "lng": 13.9352, "id": "624166", "name": "Dromaeosauridae", "era": "Cretaceous", "type": "Theropod", "early_age": 72.2, "late_age": 61.7, "country": "SI"}, {"lat": 45.6134, "lng": 13.9352, "id": "624167", "name": "Troodontidae", "era": "Cretaceous", "type": "Theropod", "early_age": 72.2, "late_age": 61.7, "country": "SI"}, {"lat": 45.3636, "lng": 13.5425, "id": "632853", "name": "Sauropoda", "era": "Cretaceous", "type": "Theropod", "early_age": 100.5, "late_age": 93.9, "country": "HR"}, {"lat": 45.3819, "lng": 13.5406, "id": "632855", "name": "Theropoda", "era": "Cretaceous", "type": "Theropod", "early_age": 100.5, "late_age": 93.9, "country": "HR"}, {"lat": 46.421, "lng": 12.1056, "id": "639429", "name": "Theropoda", "era": "Triassic", "type": "Theropod", "early_age": 233.6, "late_age": 215.4, "country": "IT"}, {"lat": 46.421, "lng": 12.1056, "id": "639430", "name": "Prosauropoda", "era": "Triassic", "type": "Theropod", "early_age": 233.6, "late_age": 215.4, "country": "IT"}, {"lat": 46.421, "lng": 12.1056, "id": "639431", "name": "Ornithopoda", "era": "Triassic", "type": "Ornithischian", "early_age": 233.6, "late_age": 215.4, "country": "IT"}, {"lat": 46.5661, "lng": 12.3099, "id": "639662", "name": "Theropoda", "era": "Triassic", "type": "Theropod", "early_age": 233.6, "late_age": 227.3, "country": "IT"}, {"lat": 46.5641, "lng": 11.7515, "id": "639663", "name": "Theropoda", "era": "Triassic", "type": "Theropod", "early_age": 227.3, "late_age": 205.7, "country": "IT"}, {"lat": 46.5055, "lng": 12.0185, "id": "639664", "name": "Prosauropoda", "era": "Triassic", "type": "Theropod", "early_age": 237.0, "late_age": 205.7, "country": "IT"}, {"lat": 46.33, "lng": 12.48, "id": "643849", "name": "Theropoda", "era": "Triassic", "type": "Theropod", "early_age": 227.3, "late_age": 205.7, "country": "IT"}, {"lat": 46.3071, "lng": 12.6011, "id": "643850", "name": "Prosauropoda", "era": "Triassic", "type": "Theropod", "early_age": 227.3, "late_age": 205.7, "country": "IT"}, {"lat": 46.2106, "lng": 12.6211, "id": "643851", "name": "Theropoda", "era": "Triassic", "type": "Theropod", "early_age": 227.3, "late_age": 205.7, "country": "IT"}, {"lat": 46.2714, "lng": 12.6089, "id": "643853", "name": "Theropoda", "era": "Triassic", "type": "Theropod", "early_age": 227.3, "late_age": 205.7, "country": "IT"}, {"lat": 46.3071, "lng": 12.6011, "id": "643854", "name": "Prosauropoda", "era": "Triassic", "type": "Theropod", "early_age": 227.3, "late_age": 205.7, "country": "IT"}, {"lat": 45.1828, "lng": 13.6941, "id": "645883", "name": "Parabrontopodus", "era": "Jurassic", "type": "Theropod", "early_age": 145.1, "late_age": 143.1, "country": "HR"}, {"lat": 46.3833, "lng": 12.05, "id": "646251", "name": "Dinosauria", "era": "Triassic", "type": "Marine Reptile", "early_age": 237.0, "late_age": 201.4, "country": "IT"}, {"lat": 45.9789, "lng": 11.3433, "id": "809380", "name": "Kayentapus", "era": "Triassic", "type": "Theropod", "early_age": 201.4, "late_age": 199.5, "country": "IT"}, {"lat": 45.7558, "lng": 13.8531, "id": "979830", "name": "Coelurosauria", "era": "Cretaceous", "type": "Theropod", "early_age": 85.7, "late_age": 72.2, "country": "SI"}, {"lat": 48.6267, "lng": 11.8028, "id": "1091329", "name": "Palaeortyx intermedia", "era": "Cretaceous", "type": "Theropod", "early_age": 16.0, "late_age": 13.8, "country": "DE"}, {"lat": 45.9575, "lng": 14.0923, "id": "1254838", "name": "Prosauropoda", "era": "Triassic", "type": "Theropod", "early_age": 227.3, "late_age": 201.4, "country": "SI"}, {"lat": 45.7786, "lng": 13.5886, "id": "1327501", "name": "Theropoda", "era": "Cretaceous", "type": "Theropod", "early_age": 83.6, "late_age": 72.2, "country": "IT"}, {"lat": 45.3111, "lng": 13.6092, "id": "1405286", "name": "Iguanodontidae", "era": "Cretaceous", "type": "Ornithischian", "early_age": 106.3, "late_age": 100.5, "country": "HR"}, {"lat": 45.3111, "lng": 13.6092, "id": "1405287", "name": "Coelurosauria", "era": "Cretaceous", "type": "Theropod", "early_age": 106.3, "late_age": 100.5, "country": "HR"}, {"lat": 46.2907, "lng": 12.5074, "id": "1409299", "name": "Theropoda", "era": "Triassic", "type": "Theropod", "early_age": 227.3, "late_age": 205.7, "country": "IT"}, {"lat": 46.29, "lng": 12.61, "id": "1409300", "name": "Theropoda", "era": "Triassic", "type": "Theropod", "early_age": 227.3, "late_age": 205.7, "country": "IT"}, {"lat": 45.458, "lng": 11.576, "id": "1424244", "name": "Coturnix coturnix", "era": "Cretaceous", "type": "Theropod", "early_age": 0.1, "late_age": 0.0, "country": "IT"}, {"lat": 45.458, "lng": 11.576, "id": "1424245", "name": "Perdix perdix", "era": "Cretaceous", "type": "Theropod", "early_age": 0.1, "late_age": 0.0, "country": "IT"}, {"lat": 45.458, "lng": 11.576, "id": "1424246", "name": "Lagopus", "era": "Cretaceous", "type": "Theropod", "early_age": 0.1, "late_age": 0.0, "country": "IT"}, {"lat": 45.458, "lng": 11.576, "id": "1424247", "name": "Tetrao urogallus", "era": "Cretaceous", "type": "Theropod", "early_age": 0.1, "late_age": 0.0, "country": "IT"}, {"lat": 45.458, "lng": 11.576, "id": "1424248", "name": "Phasianidae", "era": "Cretaceous", "type": "Theropod", "early_age": 0.1, "late_age": 0.0, "country": "IT"}, {"lat": 45.458, "lng": 11.576, "id": "1424249", "name": "Lyrurus tetrix", "era": "Cretaceous", "type": "Theropod", "early_age": 0.1, "late_age": 0.0, "country": "IT"}, {"lat": 45.458, "lng": 11.576, "id": "1424250", "name": "Galliformes", "era": "Cretaceous", "type": "Theropod", "early_age": 0.1, "late_age": 0.0, "country": "IT"}, {"lat": 45.458, "lng": 11.576, "id": "1424304", "name": "Lyrurus tetrix", "era": "Cretaceous", "type": "Theropod", "early_age": 0.1, "late_age": 0.0, "country": "IT"}, {"lat": 45.458, "lng": 11.576, "id": "1424305", "name": "Galliformes", "era": "Cretaceous", "type": "Theropod", "early_age": 0.1, "late_age": 0.0, "country": "IT"}, {"lat": 45.458, "lng": 11.576, "id": "1424312", "name": "Tetrao urogallus", "era": "Cretaceous", "type": "Theropod", "early_age": 0.1, "late_age": 0.0, "country": "IT"}, {"lat": 45.458, "lng": 11.576, "id": "1424313", "name": "Lyrurus tetrix", "era": "Cretaceous", "type": "Theropod", "early_age": 0.1, "late_age": 0.0, "country": "IT"}, {"lat": 45.458, "lng": 11.576, "id": "1424314", "name": "Galliformes", "era": "Cretaceous", "type": "Theropod", "early_age": 0.1, "late_age": 0.0, "country": "IT"}, {"lat": 45.458, "lng": 11.576, "id": "1424327", "name": "Coturnix coturnix", "era": "Cretaceous", "type": "Theropod", "early_age": 0.1, "late_age": 0.0, "country": "IT"}, {"lat": 45.458, "lng": 11.576, "id": "1424328", "name": "Lyrurus tetrix", "era": "Cretaceous", "type": "Theropod", "early_age": 0.1, "late_age": 0.0, "country": "IT"}, {"lat": 45.458, "lng": 11.576, "id": "1424329", "name": "Galliformes", "era": "Cretaceous", "type": "Theropod", "early_age": 0.1, "late_age": 0.0, "country": "IT"}, {"lat": 45.458, "lng": 11.576, "id": "1424336", "name": "Coturnix coturnix", "era": "Cretaceous", "type": "Theropod", "early_age": 0.1, "late_age": 0.0, "country": "IT"}, {"lat": 45.458, "lng": 11.576, "id": "1424337", "name": "Phasianidae", "era": "Cretaceous", "type": "Theropod", "early_age": 0.1, "late_age": 0.0, "country": "IT"}, {"lat": 45.458, "lng": 11.576, "id": "1424338", "name": "Lyrurus tetrix", "era": "Cretaceous", "type": "Theropod", "early_age": 0.1, "late_age": 0.0, "country": "IT"}, {"lat": 45.458, "lng": 11.576, "id": "1424339", "name": "Galliformes", "era": "Cretaceous", "type": "Theropod", "early_age": 0.1, "late_age": 0.0, "country": "IT"}, {"lat": 45.458, "lng": 11.576, "id": "1424354", "name": "Phasianidae", "era": "Cretaceous", "type": "Theropod", "early_age": 0.1, "late_age": 0.0, "country": "IT"}, {"lat": 45.458, "lng": 11.576, "id": "1424355", "name": "Lyrurus tetrix", "era": "Cretaceous", "type": "Theropod", "early_age": 0.1, "late_age": 0.0, "country": "IT"}, {"lat": 45.458, "lng": 11.576, "id": "1424356", "name": "Galliformes", "era": "Cretaceous", "type": "Theropod", "early_age": 0.1, "late_age": 0.0, "country": "IT"}, {"lat": 46.25, "lng": 12.975, "id": "1424437", "name": "Coturnix coturnix", "era": "Cretaceous", "type": "Theropod", "early_age": 0.1, "late_age": 0.0, "country": "IT"}, {"lat": 46.25, "lng": 12.975, "id": "1424438", "name": "Perdix perdix", "era": "Cretaceous", "type": "Theropod", "early_age": 0.1, "late_age": 0.0, "country": "IT"}, {"lat": 46.25, "lng": 12.975, "id": "1424439", "name": "Lagopus muta", "era": "Cretaceous", "type": "Theropod", "early_age": 0.1, "late_age": 0.0, "country": "IT"}, {"lat": 46.25, "lng": 12.975, "id": "1424440", "name": "Tetrao urogallus", "era": "Cretaceous", "type": "Theropod", "early_age": 0.1, "late_age": 0.0, "country": "IT"}, {"lat": 46.25, "lng": 12.975, "id": "1424441", "name": "Lyrurus tetrix", "era": "Cretaceous", "type": "Theropod", "early_age": 0.1, "late_age": 0.0, "country": "IT"}, {"lat": 46.25, "lng": 12.975, "id": "1424442", "name": "Phasianidae", "era": "Cretaceous", "type": "Theropod", "early_age": 0.1, "late_age": 0.0, "country": "IT"}, {"lat": 46.25, "lng": 12.975, "id": "1424443", "name": "Galliformes", "era": "Cretaceous", "type": "Theropod", "early_age": 0.1, "late_age": 0.0, "country": "IT"}, {"lat": 46.25, "lng": 12.975, "id": "1424463", "name": "Perdix perdix", "era": "Cretaceous", "type": "Theropod", "early_age": 0.1, "late_age": 0.0, "country": "IT"}, {"lat": 46.25, "lng": 12.975, "id": "1424464", "name": "Lagopus muta", "era": "Cretaceous", "type": "Theropod", "early_age": 0.1, "late_age": 0.0, "country": "IT"}, {"lat": 46.25, "lng": 12.975, "id": "1424465", "name": "Tetrao urogallus", "era": "Cretaceous", "type": "Theropod", "early_age": 0.1, "late_age": 0.0, "country": "IT"}, {"lat": 46.25, "lng": 12.975, "id": "1424466", "name": "Lyrurus tetrix", "era": "Cretaceous", "type": "Theropod", "early_age": 0.1, "late_age": 0.0, "country": "IT"}, {"lat": 46.25, "lng": 12.975, "id": "1424467", "name": "Phasianidae", "era": "Cretaceous", "type": "Theropod", "early_age": 0.1, "late_age": 0.0, "country": "IT"}, {"lat": 46.25, "lng": 12.975, "id": "1424468", "name": "Galliformes", "era": "Cretaceous", "type": "Theropod", "early_age": 0.1, "late_age": 0.0, "country": "IT"}, {"lat": 45.1828, "lng": 13.6941, "id": "1474039", "name": "Parabrontopodus", "era": "Jurassic", "type": "Theropod", "early_age": 145.1, "late_age": 143.1, "country": "HR"}, {"lat": 46.3397, "lng": 12.0527, "id": "1559667", "name": "Dinosauria", "era": "Triassic", "type": "Marine Reptile", "early_age": 233.6, "late_age": 215.4, "country": "IT"}, {"lat": 46.2907, "lng": 12.5074, "id": "1580213", "name": "Anchisauripus", "era": "Triassic", "type": "Theropod", "early_age": 227.3, "late_age": 205.7, "country": "IT"}, {"lat": 46.2907, "lng": 12.5074, "id": "1580214", "name": "Eubrontes", "era": "Triassic", "type": "Theropod", "early_age": 227.3, "late_age": 205.7, "country": "IT"}, {"lat": 46.29, "lng": 12.61, "id": "1580215", "name": "Theropoda", "era": "Triassic", "type": "Theropod", "early_age": 227.3, "late_age": 205.7, "country": "IT"}, {"lat": 47.6688, "lng": 14.7964, "id": "1588391", "name": "Paronychodon", "era": "Cretaceous", "type": "Theropod", "early_age": 93.9, "late_age": 89.8, "country": "AT"}, {"lat": 47.6688, "lng": 14.7964, "id": "1588392", "name": "Theropoda", "era": "Cretaceous", "type": "Theropod", "early_age": 93.9, "late_age": 89.8, "country": "AT"}, {"lat": 47.7353, "lng": 13.48, "id": "1588422", "name": "Tetanurae", "era": "Cretaceous", "type": "Theropod", "early_age": 89.8, "late_age": 85.7, "country": "AT"}, {"lat": 47.7353, "lng": 13.48, "id": "1588423", "name": "Maniraptora", "era": "Cretaceous", "type": "Theropod", "early_age": 89.8, "late_age": 85.7, "country": "AT"}, {"lat": 47.7353, "lng": 13.48, "id": "1588424", "name": "Maniraptora", "era": "Cretaceous", "type": "Theropod", "early_age": 89.8, "late_age": 85.7, "country": "AT"}]}