{"zoom": 6, "x": 47, "y": 22, "points": [{"lat": 46.1, "lng": 85.6667, "id": "300497", "name": "Theropoda", "era": "Cretaceous", "type": "Theropod", "early_age": 137.0, "late_age": 100.5, "country": "CN"}, {"lat": 46.1, "lng": 85.6667, "id": "300498", "name": "Psittacosaurus mongoliensis", "era": "Cretaceous", "type": "Ornithischian", "early_age": 137.0, "late_age": 100.5, "country": "CN"}, {"lat": 45.1333, "lng": 88.95, "id": "472567", "name": "Sauropoda", "era": "Jurassic", "type": "Theropod", "early_age": 161.5, "late_age": 154.8, "country": "CN"}, {"lat": 45.1333, "lng": 88.95, "id": "472571", "name": "Theropoda", "era": "Jurassic", "type": "Theropod", "early_age": 161.5, "late_age": 154.8, "country": "CN"}, {"lat": 46.0439, "lng": 85.792, "id": "487792", "name": "Tetanurae", "era": "Cretaceous", "type": "Theropod", "early_age": 137.0, "late_age": 100.5, "country": "CN"}, {"lat": 46.0439, "lng": 85.792, "id": "487793", "name": "Tugulusaurus faciles", "era": "Cretaceous", "type": "Theropod", "early_age": 137.0, "late_age": 100.5, "country": "CN"}, {"lat": 46.0439, "lng": 85.792, "id": "487796", "name": "Sauropoda", "era": "Cretaceous", "type": "Theropod", "early_age": 137.0, "late_age": 100.5, "country": "CN"}, {"lat": 46.1, "lng": 85.6667, "id": "487798", "name": "Xinjiangovenator parvus", "era": "Cretaceous", "type": "Theropod", "early_age": 137.0, "late_age": 100.5, "country": "CN"}, {"lat": 46.1, "lng": 85.6667, "id": "493055", "name": "Hadrosauridae", "era": "Cretaceous", "type": "Ornithischian", "early_age": 100.5, "late_age": 85.7, "country": "CN"}, {"lat": 46.0439, "lng": 85.792, "id": "493179", "name": "Camarasauridae", "era": "Cretaceous", "type": "Theropod", "early_age": 137.0, "late_age": 100.5, "country": "CN"}, {"lat": 46.0439, "lng": 85.792, "id": "493180", "name": "Wuerhosaurus homheni", "era": "Cretaceous", "type": "Ornithischian", "early_age": 137.0, "late_age": 100.5, "country": "CN"}, {"lat": 46.1, "lng": 85.6667, "id": "493233", "name": "Kelmayisaurus petrolicus", "era": "Cretaceous", "type": "Theropod", "early_age": 137.0, "late_age": 100.5, "country": "CN"}, {"lat": 46.1, "lng": 85.6667, "id": "493234", "name": "Wuerhosaurus homheni", "era": "Cretaceous", "type": "Ornithischian", "early_age": 137.0, "late_age": 100.5, "country": "CN"}, {"lat": 46.1333, "lng": 86.3167, "id": "515117", "name": "Psittacosaurus xinjiangensis", "era": "Cretaceous", "type": "Ornithischian", "early_age": 137.0, "late_age": 100.5, "country": "CN"}, {"lat": 45.265, "lng": 89.496, "id": "522040", "name": "Tienshanosaurus", "era": "Jurassic", "type": "Theropod", "early_age": 161.5, "late_age": 154.8, "country": "CN"}, {"lat": 45.1712, "lng": 88.9217, "id": "560918", "name": "Guanlong wucaii", "era": "Jurassic", "type": "Theropod", "early_age": 161.5, "late_age": 154.8, "country": "CN"}, {"lat": 46.1, "lng": 85.6667, "id": "574092", "name": "Psittacosaurus xinjiangensis", "era": "Cretaceous", "type": "Ornithischian", "early_age": 137.0, "late_age": 100.5, "country": "CN"}, {"lat": 45.1333, "lng": 88.95, "id": "635863", "name": "Ornithopoda", "era": "Jurassic", "type": "Ornithischian", "early_age": 161.5, "late_age": 154.8, "country": "CN"}, {"lat": 45.1333, "lng": 88.95, "id": "635864", "name": "Euhelopus", "era": "Cretaceous", "type": "Theropod", "early_age": 137.0, "late_age": 100.5, "country": "CN"}, {"lat": 45.1913, "lng": 88.9199, "id": "658311", "name": "Tienshanosaurus", "era": "Jurassic", "type": "Theropod", "early_age": 161.5, "late_age": 154.8, "country": "CN"}, {"lat": 45.1913, "lng": 88.9199, "id": "668657", "name": "Yinlong downsi", "era": "Jurassic", "type": "Ornithischian", "early_age": 161.5, "late_age": 154.8, "country": "CN"}, {"lat": 45.1913, "lng": 88.9199, "id": "780403", "name": "Sauropoda", "era": "Jurassic", "type": "Theropod", "early_age": 161.5, "late_age": 154.8, "country": "CN"}, {"lat": 45.1913, "lng": 88.9199, "id": "780404", "name": "Metriacanthosauridae", "era": "Jurassic", "type": "Theropod", "early_age": 161.5, "late_age": 154.8, "country": "CN"}, {"lat": 45.1478, "lng": 88.9006, "id": "819582", "name": "Limusaurus inextricabilis", "era": "Jurassic", "type": "Theropod", "early_age": 161.5, "late_age": 154.8, "country": "CN"}, {"lat": 45.1913, "lng": 88.9199, "id": "840219", "name": "Gongbusaurus wucaiwanensis", "era": "Jurassic", "type": "Ornithischian", "early_age": 165.3, "late_age": 154.8, "country": "CN"}, {"lat": 45.1913, "lng": 88.9199, "id": "840220", "name": "Gongbusaurus wucaiwanensis", "era": "Jurassic", "type": "Ornithischian", "early_age": 165.3, "late_age": 154.8, "country": "CN"}, {"lat": 45.1913, "lng": 88.9199, "id": "840222", "name": "Gongbusaurus wucaiwanensis", "era": "Jurassic", "type": "Ornithischian", "early_age": 165.3, "late_age": 154.8, "country": "CN"}, {"lat": 45.1913, "lng": 88.9199, "id": "840224", "name": "Gongbusaurus wucaiwanensis", "era": "Jurassic", "type": "Ornithischian", "early_age": 165.3, "late_age": 154.8, "country": "CN"}, {"lat": 46.4, "lng": 88.7, "id": "880108", "name": "Jaxartosaurus", "era": "Cretaceous", "type": "Ornithischian", "early_age": 100.5, "late_age": 66.0, "country": "CN"}, {"lat": 46.4, "lng": 88.7, "id": "880109", "name": "Tyrannosauridae", "era": "Cretaceous", "type": "Theropod", "early_age": 100.5, "late_age": 66.0, "country": "CN"}, {"lat": 45.5936, "lng": 87.835, "id": "880110", "name": "Pinnatoolithus sangequanensis", "era": "Cretaceous", "type": "Theropod", "early_age": 100.5, "late_age": 66.0, "country": "CN"}, {"lat": 45.5936, "lng": 87.835, "id": "880111", "name": "Hadrosauridae", "era": "Cretaceous", "type": "Ornithischian", "early_age": 100.5, "late_age": 66.0, "country": "CN"}, {"lat": 45.5936, "lng": 87.835, "id": "880112", "name": "Tyrannosauridae", "era": "Cretaceous", "type": "Theropod", "early_age": 100.5, "late_age": 66.0, "country": "CN"}, {"lat": 45.1478, "lng": 88.9006, "id": "935634", "name": "Ornithischia", "era": "Jurassic", "type": "Ornithischian", "early_age": 161.5, "late_age": 154.8, "country": "CN"}, {"lat": 45.1712, "lng": 88.9217, "id": "935638", "name": "Limusaurus inextricabilis", "era": "Jurassic", "type": "Theropod", "early_age": 161.5, "late_age": 154.8, "country": "CN"}, {"lat": 45.1712, "lng": 88.9217, "id": "935639", "name": "Theropoda", "era": "Jurassic", "type": "Theropod", "early_age": 161.5, "late_age": 154.8, "country": "CN"}, {"lat": 45.1712, "lng": 88.9217, "id": "935640", "name": "Limusaurus inextricabilis", "era": "Jurassic", "type": "Theropod", "early_age": 161.5, "late_age": 154.8, "country": "CN"}, {"lat": 45.1913, "lng": 88.9199, "id": "1093821", "name": "Zuolong salleei", "era": "Jurassic", "type": "Theropod", "early_age": 161.5, "late_age": 154.8, "country": "CN"}, {"lat": 45.1913, "lng": 88.9199, "id": "1093827", "name": "Haplocheirus sollers", "era": "Jurassic", "type": "Theropod", "early_age": 161.5, "late_age": 154.8, "country": "CN"}, {"lat": 45.1913, "lng": 88.9199, "id": "1134243", "name": "Aorun zhaoi", "era": "Jurassic", "type": "Theropod", "early_age": 165.3, "late_age": 161.5, "country": "CN"}, {"lat": 45.1712, "lng": 88.9217, "id": "1196607", "name": "Allosauroidea", "era": "Jurassic", "type": "Theropod", "early_age": 161.5, "late_age": 154.8, "country": "CN"}, {"lat": 46.0736, "lng": 85.5825, "id": "1205137", "name": "Deltapodus curriei", "era": "Cretaceous", "type": "Ornithischian", "early_age": 143.1, "late_age": 132.6, "country": "CN"}, {"lat": 46.0736, "lng": 85.5825, "id": "1205138", "name": "Theropoda", "era": "Cretaceous", "type": "Theropod", "early_age": 143.1, "late_age": 132.6, "country": "CN"}, {"lat": 45.1913, "lng": 88.9199, "id": "1307887", "name": "Hualianceratops wucaiwanensis", "era": "Jurassic", "type": "Ornithischian", "early_age": 161.5, "late_age": 154.8, "country": "CN"}, {"lat": 46.0736, "lng": 85.5825, "id": "1446277", "name": "Koreanaornis dodsoni", "era": "Cretaceous", "type": "Other", "early_age": 143.1, "late_age": 132.6, "country": "CN"}, {"lat": 46.0736, "lng": 85.5825, "id": "1446278", "name": "Goseongornipes", "era": "Cretaceous", "type": "Other", "early_age": 143.1, "late_age": 132.6, "country": "CN"}, {"lat": 46.0736, "lng": 85.5825, "id": "1446279", "name": "Aquatilavipes", "era": "Cretaceous", "type": "Other", "early_age": 143.1, "late_age": 132.6, "country": "CN"}, {"lat": 46.0736, "lng": 85.5825, "id": "1446280", "name": "Moguiornipes robusta", "era": "Cretaceous", "type": "Other", "early_age": 143.1, "late_age": 132.6, "country": "CN"}, {"lat": 46.0736, "lng": 85.5825, "id": "1446281", "name": "Jialingpus", "era": "Cretaceous", "type": "Theropod", "early_age": 143.1, "late_age": 132.6, "country": "CN"}, {"lat": 46.0736, "lng": 85.5825, "id": "1446282", "name": "Asianopodus", "era": "Cretaceous", "type": "Theropod", "early_age": 143.1, "late_age": 132.6, "country": "CN"}, {"lat": 46.0736, "lng": 85.5825, "id": "1446283", "name": "Kayentapus", "era": "Cretaceous", "type": "Theropod", "early_age": 143.1, "late_age": 132.6, "country": "CN"}, {"lat": 45.1712, "lng": 88.9217, "id": "1456454", "name": "Xiyunykus pengi", "era": "Cretaceous", "type": "Theropod", "early_age": 137.0, "late_age": 132.6, "country": "CN"}, {"lat": 45.1712, "lng": 88.9217, "id": "1519629", "name": "Shishugounykus inexpectus", "era": "Jurassic", "type": "Theropod", "early_age": 161.5, "late_age": 154.8, "country": "CN"}, {"lat": 46.0765, "lng": 85.5791, "id": "1561601", "name": "Theropoda", "era": "Cretaceous", "type": "Theropod", "early_age": 143.1, "late_age": 132.6, "country": "CN"}, {"lat": 46.0882, "lng": 85.5681, "id": "1561604", "name": "Theropoda", "era": "Cretaceous", "type": "Theropod", "early_age": 143.1, "late_age": 132.6, "country": "CN"}, {"lat": 46.0882, "lng": 85.5681, "id": "1561605", "name": "Deltapodus curriei", "era": "Cretaceous", "type": "Ornithischian", "early_age": 143.1, "late_age": 132.6, "country": "CN"}, {"lat": 46.0882, "lng": 85.5681, "id": "1561606", "name": "Aves", "era": "Cretaceous", "type": "Other", "early_age": 143.1, "late_age": 132.6, "country": "CN"}, {"lat": 46.0859, "lng": 85.5662, "id": "1561608", "name": "Theropoda", "era": "Cretaceous", "type": "Theropod", "early_age": 137.0, "late_age": 132.6, "country": "CN"}, {"lat": 46.0859, "lng": 85.5662, "id": "1561609", "name": "Aves", "era": "Cretaceous", "type": "Other", "early_age": 137.0, "late_age": 132.6, "country": "CN"}, {"lat": 46.0859, "lng": 85.5662, "id": "1561612", "name": "Theropoda", "era": "Cretaceous", "type": "Theropod", "early_age": 137.0, "late_age": 132.6, "country": "CN"}, {"lat": 46.075, "lng": 85.5512, "id": "1561613", "name": "Theropoda", "era": "Cretaceous", "type": "Theropod", "early_age": 137.0, "late_age": 132.6, "country": "CN"}, {"lat": 46.0697, "lng": 85.5574, "id": "1561614", "name": "Theropoda", "era": "Cretaceous", "type": "Theropod", "early_age": 137.0, "late_age": 132.6, "country": "CN"}, {"lat": 46.0697, "lng": 85.5574, "id": "1561616", "name": "Theropoda", "era": "Cretaceous", "type": "Theropod", "early_age": 137.0, "late_age": 132.6, "country": "CN"}, {"lat": 46.0697, "lng": 85.5574, "id": "1561617", "name": "Aves", "era": "Cretaceous", "type": "Other", "early_age": 137.0, "late_age": 132.6, "country": "CN"}, {"lat": 46.0653, "lng": 85.5665, "id": "1561619", "name": "Theropoda", "era": "Cretaceous", "type": "Theropod", "early_age": 137.0, "late_age": 132.6, "country": "CN"}, {"lat": 46.0653, "lng": 85.5665, "id": "1561620", "name": "Aves", "era": "Cretaceous", "type": "Other", "early_age": 137.0, "late_age": 132.6, "country": "CN"}, {"lat": 46.075, "lng": 85.5512, "id": "1561621", "name": "Theropoda", "era": "Cretaceous", "type": "Theropod", "early_age": 137.0, "late_age": 132.6, "country": "CN"}, {"lat": 46.0882, "lng": 85.5681, "id": "1561624", "name": "Aves", "era": "Cretaceous", "type": "Other", "early_age": 143.1, "late_age": 132.6, "country": "CN"}, {"lat": 46.0882, "lng": 85.5681, "id": "1561625", "name": "Theropoda", "era": "Cretaceous", "type": "Theropod", "early_age": 143.1, "late_age": 132.6, "country": "CN"}, {"lat": 46.0882, "lng": 85.5681, "id": "1561626", "name": "Jialingpus", "era": "Cretaceous", "type": "Theropod", "early_age": 143.1, "late_age": 132.6, "country": "CN"}, {"lat": 46.0697, "lng": 85.5574, "id": "1561627", "name": "Jialingpus", "era": "Cretaceous", "type": "Theropod", "early_age": 137.0, "late_age": 132.6, "country": "CN"}, {"lat": 46.0859, "lng": 85.5662, "id": "1561628", "name": "Theropoda", "era": "Cretaceous", "type": "Theropod", "early_age": 137.0, "late_age": 132.6, "country": "CN"}, {"lat": 46.075, "lng": 85.5512, "id": "1561629", "name": "Theropoda", "era": "Cretaceous", "type": "Theropod", "early_age": 137.0, "late_age": 132.6, "country": "CN"}, {"lat": 46.0882, "lng": 85.5681, "id": "1561630", "name": "Theropoda", "era": "Cretaceous", "type": "Theropod", "early_age": 143.1, "late_age": 132.6, "country": "CN"}, {"lat": 46.0859, "lng": 85.5662, "id": "1561631", "name": "Theropoda", "era": "Cretaceous", "type": "Theropod", "early_age": 137.0, "late_age": 132.6, "country": "CN"}, {"lat": 46.0859, "lng": 85.5662, "id": "1561632", "name": "Ignotornis", "era": "Cretaceous", "type": "Other", "early_age": 137.0, "late_age": 132.6, "country": "CN"}, {"lat": 46.0882, "lng": 85.5681, "id": "1587625", "name": "Asianopodus", "era": "Cretaceous", "type": "Theropod", "early_age": 137.0, "late_age": 132.6, "country": "CN"}, {"lat": 46.0882, "lng": 85.5681, "id": "1587626", "name": "Asianopodus pulvinicalx", "era": "Cretaceous", "type": "Theropod", "early_age": 137.0, "late_age": 132.6, "country": "CN"}, {"lat": 46.0797, "lng": 85.7669, "id": "1587723", "name": "Aves", "era": "Cretaceous", "type": "Other", "early_age": 137.0, "late_age": 100.5, "country": "CN"}, {"lat": 46.0797, "lng": 85.7669, "id": "1587724", "name": "Jialingpus", "era": "Cretaceous", "type": "Theropod", "early_age": 137.0, "late_age": 100.5, "country": "CN"}, {"lat": 46.0797, "lng": 85.7669, "id": "1587725", "name": "Theropoda", "era": "Cretaceous", "type": "Theropod", "early_age": 137.0, "late_age": 100.5, "country": "CN"}, {"lat": 46.0736, "lng": 85.5825, "id": "2041327", "name": "Titanosauria", "era": "Cretaceous", "type": "Theropod", "early_age": 125.8, "late_age": 121.4, "country": "CN"}, {"lat": 46.0736, "lng": 85.5825, "id": "2041328", "name": "Ornithomimosauria", "era": "Cretaceous", "type": "Theropod", "early_age": 125.8, "late_age": 121.4, "country": "CN"}]}