{"zoom": 7, "x": 115, "y": 58, "points": [{"lat": 16.58, "lng": 145.78, "id": "284193", "name": "South Sarigan Seamount", "type": "Stratovolcano", "elevation": -184, "lastEruption": "2010 CE", "country": "United States"}, {"lat": 16.35, "lng": 145.67, "id": "284200", "name": "Anatahan", "type": "Stratovolcano", "elevation": 790, "lastEruption": "2008 CE", "country": "United States"}, {"lat": 15.93, "lng": 145.67, "id": "284201", "name": "East Diamante", "type": "Stratovolcano", "elevation": -127, "lastEruption": "Unknown", "country": "United States"}, {"lat": 15.605, "lng": 145.572, "id": "284202", "name": "Ruby", "type": "Stratovolcano", "elevation": -174, "lastEruption": "2023 CE", "country": "United States"}, {"lat": 14.958, "lng": 145.249, "id": "284210", "name": "Esmeralda Bank", "type": "Stratovolcano", "elevation": -74, "lastEruption": "Unknown", "country": "United States"}, {"lat": 14.601, "lng": 144.775, "id": "284211", "name": "NW Rota-1", "type": "Stratovolcano", "elevation": -455, "lastEruption": "2010 CE", "country": "United States"}, {"lat": 15.406, "lng": 144.506, "id": "284305", "name": "Mariana Back-Arc Segment at 15.5°N", "type": "Fissure vent", "elevation": -4100, "lastEruption": "2015 CE", "country": "United States"}]}