{"zoom": 7, "x": 119, "y": 43, "points": [{"lat": 49.34, "lng": 154.725, "id": "290310", "name": "Tao-Rusyr Caldera", "type": "Stratovolcano", "elevation": 1272, "lastEruption": "1952 CE", "country": "Russia"}, {"lat": 49.57, "lng": 154.808, "id": "290320", "name": "Nemo Peak", "type": "Caldera", "elevation": 1018, "lastEruption": "1938 CE", "country": "Russia"}, {"lat": 50.2, "lng": 154.98, "id": "290331", "name": "Shirinki", "type": "Stratovolcano", "elevation": 761, "lastEruption": "Unknown", "country": "Russia"}, {"lat": 50.267, "lng": 155.246, "id": "290340", "name": "Fuss Peak", "type": "Stratovolcano", "elevation": 1742, "lastEruption": "1854 CE", "country": "Russia"}, {"lat": 50.148, "lng": 155.373, "id": "290350", "name": "Karpinsky Group", "type": "Complex", "elevation": 1326, "lastEruption": "1952 CE", "country": "Russia"}, {"lat": 50.324, "lng": 155.461, "id": "290360", "name": "Chikurachki", "type": "Stratovolcano(es)", "elevation": 1781, "lastEruption": "2023 CE", "country": "Russia"}, {"lat": 50.55, "lng": 155.97, "id": "290370", "name": "Vernadskii Ridge", "type": "Pyroclastic cone(s)", "elevation": 1183, "lastEruption": "Unknown", "country": "Russia"}, {"lat": 50.686, "lng": 156.014, "id": "290380", "name": "Ebeko", "type": "Stratovolcano", "elevation": 1103, "lastEruption": "2024 CE", "country": "Russia"}]}