{"zoom": 7, "x": 36, "y": 64, "points": [{"lat": -0.077, "lng": -77.656, "id": "352010", "name": "Reventador", "type": "Stratovolcano", "elevation": 3562, "lastEruption": "2025 CE", "country": "Ecuador"}, {"lat": -0.171, "lng": -78.598, "id": "352020", "name": "Guagua Pichincha", "type": "Stratovolcano", "elevation": 4784, "lastEruption": "2002 CE", "country": "Ecuador"}, {"lat": -0.353, "lng": -78.617, "id": "352021", "name": "Atacazo", "type": "Stratovolcano", "elevation": 4463, "lastEruption": "320 BCE", "country": "Ecuador"}, {"lat": -0.375, "lng": -78.25, "id": "352022", "name": "Chacana", "type": "Caldera", "elevation": 4643, "lastEruption": "1773 CE", "country": "Ecuador"}, {"lat": -0.481, "lng": -78.141, "id": "352030", "name": "Antisana", "type": "Stratovolcano", "elevation": 5753, "lastEruption": "1802 CE", "country": "Ecuador"}, {"lat": -0.53, "lng": -78.0, "id": "352031", "name": "Aliso", "type": "Stratovolcano", "elevation": 4267, "lastEruption": "2450 BCE", "country": "Ecuador"}, {"lat": -0.538, "lng": -77.626, "id": "352040", "name": "Sumaco", "type": "Stratovolcano", "elevation": 3990, "lastEruption": "1895 CE", "country": "Ecuador"}, {"lat": -0.662, "lng": -78.716, "id": "352041", "name": "Iliniza", "type": "Stratovolcano", "elevation": 5162, "lastEruption": "Unknown", "country": "Ecuador"}, {"lat": -0.677, "lng": -78.436, "id": "352050", "name": "Cotopaxi", "type": "Stratovolcano", "elevation": 5911, "lastEruption": "2023 CE", "country": "Ecuador"}, {"lat": -1.467, "lng": -78.442, "id": "352080", "name": "Tungurahua", "type": "Stratovolcano", "elevation": 5023, "lastEruption": "2016 CE", "country": "Ecuador"}, {"lat": -1.786, "lng": -78.614, "id": "352081", "name": "Licto", "type": "Pyroclastic cone(s)", "elevation": 3322, "lastEruption": "Unknown", "country": "Ecuador"}, {"lat": -2.005, "lng": -78.341, "id": "352090", "name": "Sangay", "type": "Stratovolcano", "elevation": 5286, "lastEruption": "2025 CE", "country": "Ecuador"}]}