{"zoom": 7, "x": 39, "y": 72, "points": [{"lat": -22.557, "lng": -67.853, "id": "355090", "name": "Putana", "type": "Stratovolcano", "elevation": 5884, "lastEruption": "1810 CE", "country": "Chile"}, {"lat": -22.719, "lng": -67.891, "id": "355091", "name": "Sairecabur", "type": "Stratovolcano(es)", "elevation": 5961, "lastEruption": "Unknown", "country": "Chile-Bolivia"}, {"lat": -22.83, "lng": -67.88, "id": "355092", "name": "Licancabur", "type": "Stratovolcano", "elevation": 5916, "lastEruption": "Unknown", "country": "Chile-Bolivia"}, {"lat": -22.895, "lng": -67.566, "id": "355093", "name": "Guayaques", "type": "Lava dome(s)", "elevation": 5598, "lastEruption": "Unknown", "country": "Chile-Bolivia"}, {"lat": -23.0, "lng": -67.75, "id": "355094", "name": "Purico Complex", "type": "Shield(pyroclastic)", "elevation": 5703, "lastEruption": "Unknown", "country": "Chile"}, {"lat": -23.236, "lng": -67.645, "id": "355095", "name": "Colachi", "type": "Stratovolcano", "elevation": 5631, "lastEruption": "Unknown", "country": "Chile"}, {"lat": -23.292, "lng": -67.618, "id": "355096", "name": "Acamarachi", "type": "Stratovolcano", "elevation": 6023, "lastEruption": "Unknown", "country": "Chile"}, {"lat": -23.58, "lng": -67.7, "id": "355098", "name": "Chiliques", "type": "Stratovolcano", "elevation": 5778, "lastEruption": "Unknown", "country": "Chile"}, {"lat": -23.37, "lng": -67.73, "id": "355100", "name": "Lascar", "type": "Stratovolcano(es)", "elevation": 5592, "lastEruption": "2023 CE", "country": "Chile"}, {"lat": -23.743, "lng": -67.534, "id": "355101", "name": "Cordon de Puntas Negras", "type": "Stratovolcano(es)", "elevation": 5852, "lastEruption": "Unknown", "country": "Chile"}, {"lat": -23.82, "lng": -67.77, "id": "355102", "name": "Miniques", "type": "Stratovolcano(es)", "elevation": 5910, "lastEruption": "Unknown", "country": "Chile"}, {"lat": -23.83, "lng": -67.95, "id": "355103", "name": "Tujle, Cerro", "type": "Maar", "elevation": 3550, "lastEruption": "Unknown", "country": "Chile"}, {"lat": -23.949, "lng": -67.74, "id": "355104", "name": "Caichinque", "type": "Stratovolcano(es)", "elevation": 4458, "lastEruption": "Unknown", "country": "Chile"}, {"lat": -23.97, "lng": -68.13, "id": "355105", "name": "Tilocalar", "type": "Lava cone(es)", "elevation": 3109, "lastEruption": "Unknown", "country": "Chile"}, {"lat": -24.188, "lng": -68.054, "id": "355107", "name": "Pular", "type": "Stratovolcano(es)", "elevation": 6233, "lastEruption": "Unknown", "country": "Chile"}, {"lat": -24.319, "lng": -68.59, "id": "355108", "name": "Negrillar, La", "type": "Pyroclastic cone(s)", "elevation": 4220, "lastEruption": "Unknown", "country": "Chile"}, {"lat": -24.396, "lng": -68.246, "id": "355109", "name": "Socompa", "type": "Stratovolcano", "elevation": 6031, "lastEruption": "5250 BCE", "country": "Chile-Argentina"}, {"lat": -24.29, "lng": -67.783, "id": "355160", "name": "Aracar", "type": "Stratovolcano", "elevation": 6095, "lastEruption": "Unknown", "country": "Argentina"}]}