{"zoom": 5, "x": 11, "y": 22, "clusters": [{"lat": -60.41, "lng": -46.05, "count": 8, "topItems": [{"id": "234797", "name": "Mackerel icefish", "thumb": "tn_Chgun_u0.jpg", "sprite": "sp-anchoviella_juruasanga.png", "group": "other"}, {"id": "219693", "name": "Slender escolar", "thumb": "tn_Pagra_u3.jpg", "sprite": "sp-anchoviella_juruasanga.png", "group": "other"}, {"id": "234710", "name": "Stocky rockcod", "thumb": "tn_Pabra_u5.gif", "sprite": "sp-anchoviella_juruasanga.png", "group": "other"}, {"id": "234740", "name": "Yellowbelly rockcod", "sprite": "sp-anchoviella_juruasanga.png", "group": "other"}, {"id": "234628", "name": "Dusky rockcod", "thumb": "tn_Trnew_u0.jpg", "sprite": "sp-anchoviella_juruasanga.png", "group": "other"}, {"id": "318861", "name": "Yellowfin notie", "thumb": "tn_Lenud_u0.gif", "sprite": "sp-anchoviella_juruasanga.png", "group": "other"}, {"id": "234813", "name": "Eaton's skate", "thumb": "tn_Baeat_u0.gif", "sprite": "sp-himantura_australis.png", "group": "ray"}, {"id": "126356", "name": "Macroparalepis affinis", "thumb": "tn_Maaff_u1.jpg", "sprite": "sp-anchoviella_juruasanga.png", "group": "other"}], "filterAggs": {"waterType": {"Saltwater": 8}, "bodyGroup": {"other": 7, "fish": 1}}, "groupDistribution": [{"group": "other", "count": 7}, {"group": "ray", "count": 1}]}, {"lat": -60.3, "lng": -46.33, "count": 9, "topItems": [{"id": "234685", "name": "Jonah's icefish", "thumb": "tn_Neion_u0.jpg", "sprite": "sp-anchoviella_juruasanga.png", "group": "other"}, {"id": "234742", "name": "Smalleye moray cod", "thumb": "tn_Mumic_u0.gif", "sprite": "sp-anchoviella_juruasanga.png", "group": "other"}, {"id": "234821", "name": "Nichol's lanternfish", "thumb": "tn_Gynic_u0.jpg", "sprite": "sp-anchoviella_juruasanga.png", "group": "other"}, {"id": "234725", "name": "Blackfin icefish", "thumb": "tn_Chace_u3.jpg", "sprite": "sp-anchoviella_juruasanga.png", "group": "other"}, {"id": "234840", "name": "Marbled rockcod", "thumb": "tn_Noros_u1.jpg", "sprite": "sp-anchoviella_juruasanga.png", "group": "other"}, {"id": "234641", "name": "Rhombic lanternfish", "thumb": "tn_Krand_u1.gif", "sprite": "sp-anchoviella_juruasanga.png", "group": "other"}, {"id": "1526062", "name": "Antarctic jonasfish", "thumb": "tn_Nocoa_u0.gif", "sprite": "sp-anchoviella_juruasanga.png", "group": "other"}, {"id": "234720", "name": "Long-fingered icefish", "thumb": "tn_Crant_f0.jpg", "sprite": "sp-anchoviella_juruasanga.png", "group": "other"}], "filterAggs": {"waterType": {"Saltwater": 9}, "bodyGroup": {"other": 9}}, "groupDistribution": [{"group": "other", "count": 9}]}, {"lat": -60.79, "lng": -45.9, "count": 8, "topItems": [{"id": "234772", "name": "Striped rockcod", "thumb": "tn_Trhan_u0.jpg", "sprite": "sp-anchoviella_juruasanga.png", "group": "other"}, {"id": "234663", "name": "Gaptooth lanternfish", "thumb": "tn_Prcho_u1.gif", "sprite": "sp-anchoviella_juruasanga.png", "group": "other"}, {"id": "234802", "name": "Emerald rockcod", "thumb": "tn_Trber_u0.jpg", "sprite": "sp-anchoviella_juruasanga.png", "group": "other"}, {"id": "234644", "name": "Spotted notothen", "thumb": "tn_Trnic_j0.gif", "sprite": "sp-anchoviella_juruasanga.png", "group": "other"}, {"id": "234825", "name": "Antarctic spiny plunderfish", "thumb": "tn_Haant_u0.jpg", "sprite": "sp-anchoviella_juruasanga.png", "group": "other"}, {"id": "234837", "name": "Saddleback plunderfish", "thumb": "tn_Posco_m0.gif", "sprite": "sp-anchoviella_juruasanga.png", "group": "other"}, {"id": "313346", "name": "Marbled moray cod", "thumb": "tn_Mumar_u0.gif", "sprite": "sp-anchoviella_juruasanga.png", "group": "other"}, {"id": "234679", "name": "Black rockcod", "thumb": "tn_Nocor_u0.jpg", "sprite": "sp-anchoviella_juruasanga.png", "group": "other"}], "filterAggs": {"waterType": {"Saltwater": 8}, "bodyGroup": {"other": 8}}, "groupDistribution": [{"group": "other", "count": 8}]}, {"lat": -60.81, "lng": -46.25, "count": 9, "topItems": [{"id": "234777", "name": "Prionodraco evansii", "thumb": "tn_Preva_u0.gif", "sprite": "sp-anchoviella_juruasanga.png", "group": "other"}, {"id": "234799", "name": "Racovitzia glacialis", "thumb": "tn_Ragla_u0.gif", "sprite": "sp-anchoviella_juruasanga.png", "group": "other"}, {"id": "234687", "name": "Parachaenichthys charcoti", "thumb": "tn_Pacha_u1.jpg", "sprite": "sp-anchoviella_juruasanga.png", "group": "other"}, {"id": "234800", "name": "Ploughfish", "thumb": "tn_Gyacu_e0.jpg", "sprite": "sp-anchoviella_juruasanga.png", "group": "other"}, {"id": "234725", "name": "Blackfin icefish", "thumb": "tn_Chace_u3.jpg", "sprite": "sp-anchoviella_juruasanga.png", "group": "other"}, {"id": "234665", "name": "Crowned rockcod", "thumb": "tn_Trsco_u0.gif", "sprite": "sp-anchoviella_juruasanga.png", "group": "other"}, {"id": "313400", "name": "Painted notie", "thumb": "tn_Lelar_u0.jpg", "sprite": "sp-anchoviella_juruasanga.png", "group": "other"}, {"id": "234667", "name": "South Georgia icefish", "thumb": "tn_Psgeo_u0.jpg", "sprite": "sp-anchoviella_juruasanga.png", "group": "other"}, {"id": "234709", "name": "Sharp-spined notothenia", "thumb": "tn_Trpen_u0.jpg", "sprite": "sp-anchoviella_juruasanga.png", "group": "other"}], "filterAggs": {"waterType": {"Saltwater": 9}, "bodyGroup": {"other": 9}}, "groupDistribution": [{"group": "other", "count": 9}]}, {"lat": -60.44, "lng": -46.47, "count": 8, "topItems": [{"id": "234836", "name": "Antarctic toothfish", "thumb": "tn_Dimaw_u1.jpg", "sprite": "sp-anchoviella_juruasanga.png", "group": "other"}, {"id": "217697", "name": "Electrona antarctica", "thumb": "tn_Elant_u0.gif", "sprite": "sp-anchoviella_juruasanga.png", "group": "other"}, {"id": "234675", "name": "McCain's skate", "thumb": "tn_Bamac_j0.jpg", "sprite": "sp-himantura_australis.png", "group": "ray"}, {"id": "234840", "name": "Marbled rockcod", "thumb": "tn_Noros_u1.jpg", "sprite": "sp-anchoviella_juruasanga.png", "group": "other"}, {"id": "219693", "name": "Slender escolar", "thumb": "tn_Pagra_u3.jpg", "sprite": "sp-anchoviella_juruasanga.png", "group": "other"}, {"id": "234704", "name": "Humped rockcod", "thumb": "tn_Gogib_u0.jpg", "sprite": "sp-anchoviella_juruasanga.png", "group": "other"}, {"id": "234685", "name": "Jonah's icefish", "thumb": "tn_Neion_u0.jpg", "sprite": "sp-anchoviella_juruasanga.png", "group": "other"}, {"id": "234797", "name": "Mackerel icefish", "thumb": "tn_Chgun_u0.jpg", "sprite": "sp-anchoviella_juruasanga.png", "group": "other"}], "filterAggs": {"waterType": {"Saltwater": 8}, "bodyGroup": {"other": 7, "fish": 1}}, "groupDistribution": [{"group": "other", "count": 7}, {"group": "ray", "count": 1}]}, {"lat": -60.35, "lng": -46.79, "count": 9, "topItems": [{"id": "1526062", "name": "Antarctic jonasfish", "thumb": "tn_Nocoa_u0.gif", "sprite": "sp-anchoviella_juruasanga.png", "group": "other"}, {"id": "234641", "name": "Rhombic lanternfish", "thumb": "tn_Krand_u1.gif", "sprite": "sp-anchoviella_juruasanga.png", "group": "other"}, {"id": "279364", "name": "Paranotothenia dewitti", "sprite": "sp-anchoviella_juruasanga.png", "group": "other"}, {"id": "234795", "name": "Chionodraco hamatus", "thumb": "tn_Chham_u0.jpg", "sprite": "sp-anchoviella_juruasanga.png", "group": "other"}, {"id": "234638", "name": "Electron subantarctic", "thumb": "tn_Elcar_u0.jpg", "sprite": "sp-anchoviella_juruasanga.png", "group": "other"}, {"id": "234730", "name": "Marbled plunderfish", "thumb": "tn_Pomar_f0.gif", "sprite": "sp-anchoviella_juruasanga.png", "group": "other"}, {"id": "217697", "name": "Electrona antarctica", "thumb": "tn_Elant_u0.gif", "sprite": "sp-anchoviella_juruasanga.png", "group": "other"}, {"id": "234788", "name": "Grey rockcod", "thumb": "tn_Lesqu_u1.jpg", "sprite": "sp-anchoviella_juruasanga.png", "group": "other"}], "filterAggs": {"waterType": {"Saltwater": 9}, "bodyGroup": {"other": 9}}, "groupDistribution": [{"group": "other", "count": 9}]}, {"lat": -60.66, "lng": -46.66, "count": 9, "topItems": [{"id": "126334", "name": "Daggertooth", "thumb": "tn_Anpha_u1.jpg", "sprite": "sp-anchoviella_juruasanga.png", "group": "other"}, {"id": "234788", "name": "Grey rockcod", "thumb": "tn_Lesqu_u1.jpg", "sprite": "sp-anchoviella_juruasanga.png", "group": "other"}, {"id": "234678", "name": "Ocellated icefish", "thumb": "tn_Chras_u0.gif", "sprite": "sp-anchoviella_juruasanga.png", "group": "other"}, {"id": "234722", "name": "Parachaenichthys georgianus", "thumb": "tn_Pageo_u0.jpg", "sprite": "sp-anchoviella_juruasanga.png", "group": "other"}, {"id": "234770", "name": "Slender scalyhead", "thumb": "tn_Trlep_f0.jpg", "sprite": "sp-anchoviella_juruasanga.png", "group": "other"}, {"id": "234627", "name": "Ringed barracudina", "thumb": "tn_Noann_u0.gif", "sprite": "sp-anchoviella_juruasanga.png", "group": "other"}, {"id": "234754", "name": "Blunt scalyhead", "thumb": "tn_Treul_u2.jpg", "sprite": "sp-anchoviella_juruasanga.png", "group": "other"}, {"id": "234617", "name": "Ophthalmolycus amberensis", "sprite": "sp-anchoviella_juruasanga.png", "group": "other"}, {"id": "234609", "name": "Spiny icefish", "thumb": "tn_Chwil_u0.jpg", "sprite": "sp-anchoviella_juruasanga.png", "group": "other"}], "filterAggs": {"waterType": {"Saltwater": 9}, "bodyGroup": {"other": 9}}, "groupDistribution": [{"group": "other", "count": 9}]}, {"lat": -61.14, "lng": -46.8, "count": 9, "topItems": [{"id": "234689", "name": "Bigeye notothen", "thumb": "tn_Trtok_u0.gif", "sprite": "sp-anchoviella_juruasanga.png", "group": "other"}, {"id": "234826", "name": "Stubbeard plunderfish", "thumb": "tn_Pobar_f0.gif", "sprite": "sp-anchoviella_juruasanga.png", "group": "other"}, {"id": "234750", "name": "Vomeridens infuscipinnis", "thumb": "tn_Voinf_u0.gif", "sprite": "sp-anchoviella_juruasanga.png", "group": "other"}, {"id": "234769", "name": "Slit branchial paraliparis", "sprite": "sp-anchoviella_juruasanga.png", "group": "other"}, {"id": "234660", "name": "Longfin icedevil", "thumb": "tn_Aemit_u0.gif", "sprite": "sp-anchoviella_juruasanga.png", "group": "other"}, {"id": "234591", "name": "Southern barracudina", "thumb": "tn_Mapri_u1.gif", "sprite": "sp-anchoviella_juruasanga.png", "group": "other"}, {"id": "234621", "name": "Artedidraco skottsbergi", "thumb": "tn_Arsko_u0.jpg", "sprite": "sp-anchoviella_juruasanga.png", "group": "other"}, {"id": "234649", "name": "Pithead", "thumb": "tn_Crpen_u0.gif", "sprite": "sp-anchoviella_juruasanga.png", "group": "other"}, {"id": "234816", "name": "Deep-water dragon", "thumb": "tn_Bamar_u4.gif", "sprite": "sp-anchoviella_juruasanga.png", "group": "other"}], "filterAggs": {"waterType": {"Saltwater": 9}, "bodyGroup": {"other": 9}}, "groupDistribution": [{"group": "other", "count": 9}]}, {"lat": -57.32, "lng": -50.27, "count": 7, "topItems": [{"id": "234641", "name": "Rhombic lanternfish", "thumb": "tn_Krand_u1.gif", "sprite": "sp-anchoviella_juruasanga.png", "group": "other"}, {"id": "234638", "name": "Electron subantarctic", "thumb": "tn_Elcar_u0.jpg", "sprite": "sp-anchoviella_juruasanga.png", "group": "other"}, {"id": "234642", "name": "Brauer’s lanternfish", "thumb": "tn_Gybra_u0.gif", "sprite": "sp-anchoviella_juruasanga.png", "group": "other"}, {"id": "234714", "name": "Bolin’s lanternfish", "thumb": "tn_Prbol_u1.gif", "sprite": "sp-anchoviella_juruasanga.png", "group": "other"}, {"id": "234767", "name": "Tenison’s lanternfish", "thumb": "tn_Prten_u0.jpg", "sprite": "sp-anchoviella_juruasanga.png", "group": "other"}, {"id": "234823", "name": "Dogtooth grenadier", "thumb": "tn_Cypir_u0.gif", "sprite": "sp-anchoviella_juruasanga.png", "group": "other"}], "filterAggs": {"waterType": {"Saltwater": 7}, "bodyGroup": {"other": 7}}, "groupDistribution": [{"group": "other", "count": 7}]}, {"lat": -57.7, "lng": -50.49, "count": 7, "topItems": [{"id": "127273", "name": "Crested bigscale", "thumb": "tn_Pocra_u0.gif", "sprite": "sp-anchoviella_juruasanga.png", "group": "other"}, {"id": "234839", "name": "Parallel lanternfish", "thumb": "tn_Prpar_u1.gif", "sprite": "sp-anchoviella_juruasanga.png", "group": "other"}, {"id": "234757", "name": "Damsel lanternfish", "thumb": "tn_Prluc_u1.gif", "sprite": "sp-anchoviella_juruasanga.png", "group": "other"}, {"id": "234673", "name": "Bathylagus tenuis", "sprite": "sp-anchoviella_juruasanga.png", "group": "other"}, {"id": "234651", "name": "Nansenia antarctica", "sprite": "sp-anchoviella_juruasanga.png", "group": "other"}, {"id": "127334", "name": "Snaggletooth", "thumb": "tn_Boant_u3.jpg", "sprite": "sp-anchoviella_juruasanga.png", "group": "other"}, {"id": "217707", "name": "Lantern fish", "thumb": "tn_Naach_u0.jpg", "sprite": "sp-anchoviella_juruasanga.png", "group": "other"}], "filterAggs": {"waterType": {"Saltwater": 7}, "bodyGroup": {"other": 7}}, "groupDistribution": [{"group": "other", "count": 7}]}, {"lat": -55.93, "lng": -51.69, "count": 7, "topItems": [{"id": "217707", "name": "Lantern fish", "thumb": "tn_Naach_u0.jpg", "sprite": "sp-anchoviella_juruasanga.png", "group": "other"}, {"id": "234840", "name": "Marbled rockcod", "thumb": "tn_Noros_u1.jpg", "sprite": "sp-anchoviella_juruasanga.png", "group": "other"}, {"id": "234714", "name": "Bolin’s lanternfish", "thumb": "tn_Prbol_u1.gif", "sprite": "sp-anchoviella_juruasanga.png", "group": "other"}, {"id": "234839", "name": "Parallel lanternfish", "thumb": "tn_Prpar_u1.gif", "sprite": "sp-anchoviella_juruasanga.png", "group": "other"}, {"id": "234641", "name": "Rhombic lanternfish", "thumb": "tn_Krand_u1.gif", "sprite": "sp-anchoviella_juruasanga.png", "group": "other"}, {"id": "234657", "name": "Fraser’s lanternfish", "thumb": "tn_Gyfra_u1.gif", "sprite": "sp-anchoviella_juruasanga.png", "group": "other"}, {"id": "234749", "name": "Gymnoscopelus opisthopterus", "thumb": "tn_Gyopi_u0.jpg", "sprite": "sp-anchoviella_juruasanga.png", "group": "other"}], "filterAggs": {"waterType": {"Saltwater": 7}, "bodyGroup": {"other": 7}}, "groupDistribution": [{"group": "other", "count": 7}]}, {"lat": -57.74, "lng": -50.84, "count": 8, "topItems": [{"id": "234642", "name": "Brauer’s lanternfish", "thumb": "tn_Gybra_u0.gif", "sprite": "sp-anchoviella_juruasanga.png", "group": "other"}, {"id": "217697", "name": "Electrona antarctica", "thumb": "tn_Elant_u0.gif", "sprite": "sp-anchoviella_juruasanga.png", "group": "other"}, {"id": "217707", "name": "Lantern fish", "thumb": "tn_Naach_u0.jpg", "sprite": "sp-anchoviella_juruasanga.png", "group": "other"}, {"id": "234714", "name": "Bolin’s lanternfish", "thumb": "tn_Prbol_u1.gif", "sprite": "sp-anchoviella_juruasanga.png", "group": "other"}, {"id": "1524555", "name": "Lagiacrusichthys macropinna", "thumb": "tn_Bemac_u0.jpg", "sprite": "sp-anchoviella_juruasanga.png", "group": "other"}, {"id": "127334", "name": "Snaggletooth", "thumb": "tn_Boant_u3.jpg", "sprite": "sp-anchoviella_juruasanga.png", "group": "other"}, {"id": "234631", "name": "Antarctic deepsea smelt", "thumb": "tn_Baant_u0.gif", "sprite": "sp-anchoviella_juruasanga.png", "group": "other"}], "filterAggs": {"waterType": {"Saltwater": 8}, "bodyGroup": {"other": 8}}, "groupDistribution": [{"group": "other", "count": 8}]}, {"lat": -60.57, "lng": -47.49, "count": 6, "topItems": [{"id": "234627", "name": "Ringed barracudina", "thumb": "tn_Noann_u0.gif", "sprite": "sp-anchoviella_juruasanga.png", "group": "other"}, {"id": "234831", "name": "Bigeye grenadier", "thumb": "tn_Mahol_u0.jpg", "sprite": "sp-anchoviella_juruasanga.png", "group": "other"}, {"id": "158915", "name": "Notoscopelus elongatus", "thumb": "tn_Noelo_u0.jpg", "sprite": "sp-anchoviella_juruasanga.png", "group": "other"}, {"id": "234827", "name": "Southern ocean daggertooth", "thumb": "tn_Anvor_u0.jpg", "sprite": "sp-anchoviella_juruasanga.png", "group": "other"}, {"id": "234606", "name": "Whitson's grenadier", "thumb": "tn_Mawhi_u0.jpg", "sprite": "sp-anchoviella_juruasanga.png", "group": "other"}, {"id": "234714", "name": "Bolin’s lanternfish", "thumb": "tn_Prbol_u1.gif", "sprite": "sp-anchoviella_juruasanga.png", "group": "other"}], "filterAggs": {"waterType": {"Saltwater": 6}, "bodyGroup": {"other": 6}}, "groupDistribution": [{"group": "other", "count": 6}]}, {"lat": -60.49, "lng": -48.37, "count": 7, "topItems": [{"id": "234657", "name": "Fraser’s lanternfish", "thumb": "tn_Gyfra_u1.gif", "sprite": "sp-anchoviella_juruasanga.png", "group": "other"}, {"id": "234642", "name": "Brauer’s lanternfish", "thumb": "tn_Gybra_u0.gif", "sprite": "sp-anchoviella_juruasanga.png", "group": "other"}, {"id": "234749", "name": "Gymnoscopelus opisthopterus", "thumb": "tn_Gyopi_u0.jpg", "sprite": "sp-anchoviella_juruasanga.png", "group": "other"}, {"id": "219693", "name": "Slender escolar", "thumb": "tn_Pagra_u3.jpg", "sprite": "sp-anchoviella_juruasanga.png", "group": "other"}, {"id": "234655", "name": "Benthalbella elongata", "sprite": "sp-anchoviella_juruasanga.png", "group": "other"}, {"id": "234663", "name": "Gaptooth lanternfish", "thumb": "tn_Prcho_u1.gif", "sprite": "sp-anchoviella_juruasanga.png", "group": "other"}, {"id": "1526062", "name": "Antarctic jonasfish", "thumb": "tn_Nocoa_u0.gif", "sprite": "sp-anchoviella_juruasanga.png", "group": "other"}], "filterAggs": {"waterType": {"Saltwater": 7}, "bodyGroup": {"other": 7}}, "groupDistribution": [{"group": "other", "count": 7}]}, {"lat": -60.76, "lng": -48.23, "count": 7, "topItems": [{"id": "234688", "name": "Pachycara brachycephalum", "sprite": "sp-anchoviella_juruasanga.png", "group": "other"}, {"id": "234625", "name": "Lycenchelys antarctica", "thumb": "tn_Lyant_u1.gif", "sprite": "sp-anchoviella_juruasanga.png", "group": "other"}, {"id": "234724", "name": "Dieidolycus leptodermatus", "sprite": "sp-anchoviella_juruasanga.png", "group": "other"}, {"id": "234587", "name": "Lycenchelys argentina", "sprite": "sp-anchoviella_juruasanga.png", "group": "other"}, {"id": "234771", "name": "Oidiphorus mcallisteri", "sprite": "sp-anchoviella_juruasanga.png", "group": "other"}, {"id": "234814", "name": "Spotless plunderfish", "thumb": "tn_Poimm_f0.jpg", "sprite": "sp-anchoviella_juruasanga.png", "group": "other"}, {"id": "234692", "name": "Nordenskjold's bigscale", "thumb": "tn_Sinor_u0.gif", "sprite": "sp-anchoviella_juruasanga.png", "group": "other"}], "filterAggs": {"waterType": {"Saltwater": 7}, "bodyGroup": {"other": 7}}, "groupDistribution": [{"group": "other", "count": 7}]}, {"lat": -59.92, "lng": -49.01, "count": 10, "topItems": [{"id": "234788", "name": "Grey rockcod", "thumb": "tn_Lesqu_u1.jpg", "sprite": "sp-anchoviella_juruasanga.png", "group": "other"}, {"id": "274405", "name": "Careproctus acifer", "sprite": "sp-anchoviella_juruasanga.png", "group": "other"}, {"id": "217697", "name": "Electrona antarctica", "thumb": "tn_Elant_u0.gif", "sprite": "sp-anchoviella_juruasanga.png", "group": "other"}, {"id": "234821", "name": "Nichol's lanternfish", "thumb": "tn_Gynic_u0.jpg", "sprite": "sp-anchoviella_juruasanga.png", "group": "other"}, {"id": "234596", "name": "Coryphaenoides lecointei", "sprite": "sp-anchoviella_juruasanga.png", "group": "other"}, {"id": "234642", "name": "Brauer’s lanternfish", "thumb": "tn_Gybra_u0.gif", "sprite": "sp-anchoviella_juruasanga.png", "group": "other"}, {"id": "234627", "name": "Ringed barracudina", "thumb": "tn_Noann_u0.gif", "sprite": "sp-anchoviella_juruasanga.png", "group": "other"}, {"id": "234631", "name": "Antarctic deepsea smelt", "thumb": "tn_Baant_u0.gif", "sprite": "sp-anchoviella_juruasanga.png", "group": "other"}], "filterAggs": {"waterType": {"Saltwater": 10}, "bodyGroup": {"other": 10}}, "groupDistribution": [{"group": "other", "count": 10}]}, {"lat": -58.52, "lng": -50.82, "count": 10, "topItems": [{"id": "234638", "name": "Electron subantarctic", "thumb": "tn_Elcar_u0.jpg", "sprite": "sp-anchoviella_juruasanga.png", "group": "other"}, {"id": "234767", "name": "Tenison’s lanternfish", "thumb": "tn_Prten_u0.jpg", "sprite": "sp-anchoviella_juruasanga.png", "group": "other"}, {"id": "127286", "name": "Veiled anglemouth", "thumb": "tn_Cymic_u5.jpg", "sprite": "sp-anchoviella_juruasanga.png", "group": "other"}, {"id": "126719", "name": "Goiter blacksmelt", "thumb": "tn_Baeur_u1.jpg", "sprite": "sp-anchoviella_juruasanga.png", "group": "other"}, {"id": "234641", "name": "Rhombic lanternfish", "thumb": "tn_Krand_u1.gif", "sprite": "sp-anchoviella_juruasanga.png", "group": "other"}, {"id": "234821", "name": "Nichol's lanternfish", "thumb": "tn_Gynic_u0.jpg", "sprite": "sp-anchoviella_juruasanga.png", "group": "other"}, {"id": "234647", "name": "Bathylagus gracilis", "thumb": "tn_Bagra_j0.gif", "sprite": "sp-anchoviella_juruasanga.png", "group": "other"}, {"id": "234631", "name": "Antarctic deepsea smelt", "thumb": "tn_Baant_u0.gif", "sprite": "sp-anchoviella_juruasanga.png", "group": "other"}, {"id": "217697", "name": "Electrona antarctica", "thumb": "tn_Elant_u0.gif", "sprite": "sp-anchoviella_juruasanga.png", "group": "other"}, {"id": "217699", "name": "Southern blacktip lanternfish", "thumb": "tn_Gypia_u0.gif", "sprite": "sp-anchoviella_juruasanga.png", "group": "other"}], "filterAggs": {"waterType": {"Saltwater": 10}, "bodyGroup": {"other": 10}}, "groupDistribution": [{"group": "other", "count": 10}]}, {"lat": -56.43, "lng": -52.94, "count": 7, "topItems": [{"id": "234767", "name": "Tenison’s lanternfish", "thumb": "tn_Prten_u0.jpg", "sprite": "sp-anchoviella_juruasanga.png", "group": "other"}, {"id": "398363", "name": "Spark anglemouth", "thumb": "tn_Gobat_u2.jpg", "sprite": "sp-anchoviella_juruasanga.png", "group": "other"}, {"id": "234638", "name": "Electron subantarctic", "thumb": "tn_Elcar_u0.jpg", "sprite": "sp-anchoviella_juruasanga.png", "group": "other"}, {"id": "234714", "name": "Bolin’s lanternfish", "thumb": "tn_Prbol_u1.gif", "sprite": "sp-anchoviella_juruasanga.png", "group": "other"}, {"id": "234729", "name": "Grand lanternfish", "thumb": "tn_Gybol_u0.gif", "sprite": "sp-anchoviella_juruasanga.png", "group": "other"}, {"id": "234655", "name": "Benthalbella elongata", "sprite": "sp-anchoviella_juruasanga.png", "group": "other"}, {"id": "127374", "name": "Boa dragonfish", "thumb": "tn_Stboa_u1.jpg", "sprite": "sp-anchoviella_juruasanga.png", "group": "other"}], "filterAggs": {"waterType": {"Saltwater": 7}, "bodyGroup": {"other": 7}}, "groupDistribution": [{"group": "other", "count": 7}]}, {"lat": -57.11, "lng": -55.27, "count": 7, "topItems": [{"id": "234638", "name": "Electron subantarctic", "thumb": "tn_Elcar_u0.jpg", "sprite": "sp-anchoviella_juruasanga.png", "group": "other"}, {"id": "217697", "name": "Electrona antarctica", "thumb": "tn_Elant_u0.gif", "sprite": "sp-anchoviella_juruasanga.png", "group": "other"}, {"id": "234642", "name": "Brauer’s lanternfish", "thumb": "tn_Gybra_u0.gif", "sprite": "sp-anchoviella_juruasanga.png", "group": "other"}, {"id": "234641", "name": "Rhombic lanternfish", "thumb": "tn_Krand_u1.gif", "sprite": "sp-anchoviella_juruasanga.png", "group": "other"}, {"id": "126305", "name": "Pale threadtail snipe eel", "thumb": "tn_Necur_f1.gif", "sprite": "sp-electric_eel.png", "group": "eel"}, {"id": "234732", "name": "Jewelled lanternfish", "thumb": "tn_Prgem_u0.jpg", "sprite": "sp-anchoviella_juruasanga.png", "group": "other"}, {"id": "234651", "name": "Nansenia antarctica", "sprite": "sp-anchoviella_juruasanga.png", "group": "other"}], "filterAggs": {"waterType": {"Saltwater": 7}, "bodyGroup": {"other": 6, "fish": 1}}, "groupDistribution": [{"group": "other", "count": 6}, {"group": "eel", "count": 1}]}, {"lat": -57.11, "lng": -55.33, "count": 7, "topItems": [{"id": "234631", "name": "Antarctic deepsea smelt", "thumb": "tn_Baant_u0.gif", "sprite": "sp-anchoviella_juruasanga.png", "group": "other"}, {"id": "234657", "name": "Fraser’s lanternfish", "thumb": "tn_Gyfra_u1.gif", "sprite": "sp-anchoviella_juruasanga.png", "group": "other"}, {"id": "127273", "name": "Crested bigscale", "thumb": "tn_Pocra_u0.gif", "sprite": "sp-anchoviella_juruasanga.png", "group": "other"}, {"id": "127334", "name": "Snaggletooth", "thumb": "tn_Boant_u3.jpg", "sprite": "sp-anchoviella_juruasanga.png", "group": "other"}, {"id": "158916", "name": "Patchwork lampfish", "thumb": "tn_Nores_u0.jpg", "sprite": "sp-anchoviella_juruasanga.png", "group": "other"}, {"id": "127288", "name": "Tan bristlemouth", "thumb": "tn_Cypal_u0.gif", "sprite": "sp-anchoviella_juruasanga.png", "group": "other"}, {"id": "127286", "name": "Veiled anglemouth", "thumb": "tn_Cymic_u5.jpg", "sprite": "sp-anchoviella_juruasanga.png", "group": "other"}], "filterAggs": {"waterType": {"Saltwater": 7}, "bodyGroup": {"other": 7}}, "groupDistribution": [{"group": "other", "count": 7}]}, {"lat": -57.07, "lng": -55.83, "count": 7, "topItems": [{"id": "234767", "name": "Tenison’s lanternfish", "thumb": "tn_Prten_u0.jpg", "sprite": "sp-anchoviella_juruasanga.png", "group": "other"}, {"id": "217707", "name": "Lantern fish", "thumb": "tn_Naach_u0.jpg", "sprite": "sp-anchoviella_juruasanga.png", "group": "other"}, {"id": "234839", "name": "Parallel lanternfish", "thumb": "tn_Prpar_u1.gif", "sprite": "sp-anchoviella_juruasanga.png", "group": "other"}, {"id": "234749", "name": "Gymnoscopelus opisthopterus", "thumb": "tn_Gyopi_u0.jpg", "sprite": "sp-anchoviella_juruasanga.png", "group": "other"}, {"id": "234655", "name": "Benthalbella elongata", "sprite": "sp-anchoviella_juruasanga.png", "group": "other"}, {"id": "234823", "name": "Dogtooth grenadier", "thumb": "tn_Cypir_u0.gif", "sprite": "sp-anchoviella_juruasanga.png", "group": "other"}, {"id": "234821", "name": "Nichol's lanternfish", "thumb": "tn_Gynic_u0.jpg", "sprite": "sp-anchoviella_juruasanga.png", "group": "other"}], "filterAggs": {"waterType": {"Saltwater": 7}, "bodyGroup": {"other": 7}}, "groupDistribution": [{"group": "other", "count": 7}]}, {"lat": -57.65, "lng": -55.86, "count": 9, "topItems": [{"id": "234641", "name": "Rhombic lanternfish", "thumb": "tn_Krand_u1.gif", "sprite": "sp-anchoviella_juruasanga.png", "group": "other"}, {"id": "234737", "name": "Andriashev’s lanternfish", "thumb": "tn_Prand_u1.gif", "sprite": "sp-anchoviella_juruasanga.png", "group": "other"}, {"id": "234638", "name": "Electron subantarctic", "thumb": "tn_Elcar_u0.jpg", "sprite": "sp-anchoviella_juruasanga.png", "group": "other"}, {"id": "234642", "name": "Brauer’s lanternfish", "thumb": "tn_Gybra_u0.gif", "sprite": "sp-anchoviella_juruasanga.png", "group": "other"}, {"id": "234823", "name": "Dogtooth grenadier", "thumb": "tn_Cypir_u0.gif", "sprite": "sp-anchoviella_juruasanga.png", "group": "other"}, {"id": "217707", "name": "Lantern fish", "thumb": "tn_Naach_u0.jpg", "sprite": "sp-anchoviella_juruasanga.png", "group": "other"}, {"id": "234714", "name": "Bolin’s lanternfish", "thumb": "tn_Prbol_u1.gif", "sprite": "sp-anchoviella_juruasanga.png", "group": "other"}, {"id": "234821", "name": "Nichol's lanternfish", "thumb": "tn_Gynic_u0.jpg", "sprite": "sp-anchoviella_juruasanga.png", "group": "other"}, {"id": "127289", "name": "Slender bristlemouth", "thumb": "tn_Cypse_u1.gif", "sprite": "sp-anchoviella_juruasanga.png", "group": "other"}], "filterAggs": {"waterType": {"Saltwater": 9}, "bodyGroup": {"other": 9}}, "groupDistribution": [{"group": "other", "count": 9}]}, {"lat": -59.53, "lng": -54.28, "count": 5, "topItems": [{"id": "234821", "name": "Nichol's lanternfish", "thumb": "tn_Gynic_u0.jpg", "sprite": "sp-anchoviella_juruasanga.png", "group": "other"}, {"id": "234627", "name": "Ringed barracudina", "thumb": "tn_Noann_u0.gif", "sprite": "sp-anchoviella_juruasanga.png", "group": "other"}, {"id": "234749", "name": "Gymnoscopelus opisthopterus", "thumb": "tn_Gyopi_u0.jpg", "sprite": "sp-anchoviella_juruasanga.png", "group": "other"}, {"id": "127334", "name": "Snaggletooth", "thumb": "tn_Boant_u3.jpg", "sprite": "sp-anchoviella_juruasanga.png", "group": "other"}, {"id": "217707", "name": "Lantern fish", "thumb": "tn_Naach_u0.jpg", "sprite": "sp-anchoviella_juruasanga.png", "group": "other"}], "filterAggs": {"waterType": {"Saltwater": 5}, "bodyGroup": {"other": 5}}, "groupDistribution": [{"group": "other", "count": 5}]}, {"lat": -59.7, "lng": -55.1, "count": 6, "topItems": [{"id": "1524555", "name": "Lagiacrusichthys macropinna", "thumb": "tn_Bemac_u0.jpg", "sprite": "sp-anchoviella_juruasanga.png", "group": "other"}, {"id": "234836", "name": "Antarctic toothfish", "thumb": "tn_Dimaw_u1.jpg", "sprite": "sp-anchoviella_juruasanga.png", "group": "other"}, {"id": "234642", "name": "Brauer’s lanternfish", "thumb": "tn_Gybra_u0.gif", "sprite": "sp-anchoviella_juruasanga.png", "group": "other"}, {"id": "221398", "name": "Flabby whalefish", "sprite": "sp-anchoviella_juruasanga.png", "group": "other"}, {"id": "234641", "name": "Rhombic lanternfish", "thumb": "tn_Krand_u1.gif", "sprite": "sp-anchoviella_juruasanga.png", "group": "other"}, {"id": "217697", "name": "Electrona antarctica", "thumb": "tn_Elant_u0.gif", "sprite": "sp-anchoviella_juruasanga.png", "group": "other"}], "filterAggs": {"waterType": {"Saltwater": 6}, "bodyGroup": {"other": 6}}, "groupDistribution": [{"group": "other", "count": 6}]}, {"lat": -60.07, "lng": -54.1, "count": 10, "topItems": [{"id": "234679", "name": "Black rockcod", "thumb": "tn_Nocor_u0.jpg", "sprite": "sp-anchoviella_juruasanga.png", "group": "other"}, {"id": "1526062", "name": "Antarctic jonasfish", "thumb": "tn_Nocoa_u0.gif", "sprite": "sp-anchoviella_juruasanga.png", "group": "other"}, {"id": "318861", "name": "Yellowfin notie", "thumb": "tn_Lenud_u0.gif", "sprite": "sp-anchoviella_juruasanga.png", "group": "other"}, {"id": "234642", "name": "Brauer’s lanternfish", "thumb": "tn_Gybra_u0.gif", "sprite": "sp-anchoviella_juruasanga.png", "group": "other"}, {"id": "234788", "name": "Grey rockcod", "thumb": "tn_Lesqu_u1.jpg", "sprite": "sp-anchoviella_juruasanga.png", "group": "other"}, {"id": "234638", "name": "Electron subantarctic", "thumb": "tn_Elcar_u0.jpg", "sprite": "sp-anchoviella_juruasanga.png", "group": "other"}, {"id": "234631", "name": "Antarctic deepsea smelt", "thumb": "tn_Baant_u0.gif", "sprite": "sp-anchoviella_juruasanga.png", "group": "other"}, {"id": "234710", "name": "Stocky rockcod", "thumb": "tn_Pabra_u5.gif", "sprite": "sp-anchoviella_juruasanga.png", "group": "other"}, {"id": "234825", "name": "Antarctic spiny plunderfish", "thumb": "tn_Haant_u0.jpg", "sprite": "sp-anchoviella_juruasanga.png", "group": "other"}, {"id": "126334", "name": "Daggertooth", "thumb": "tn_Anpha_u1.jpg", "sprite": "sp-anchoviella_juruasanga.png", "group": "other"}], "filterAggs": {"waterType": {"Saltwater": 10}, "bodyGroup": {"other": 10}}, "groupDistribution": [{"group": "other", "count": 10}]}, {"lat": -60.36, "lng": -54.82, "count": 5, "topItems": [{"id": "127424", "name": "Smooth oreo dory", "thumb": "tn_Psmac_u3.jpg", "sprite": "sp-anchoviella_juruasanga.png", "group": "other"}, {"id": "234638", "name": "Electron subantarctic", "thumb": "tn_Elcar_u0.jpg", "sprite": "sp-anchoviella_juruasanga.png", "group": "other"}, {"id": "313400", "name": "Painted notie", "thumb": "tn_Lelar_u0.jpg", "sprite": "sp-anchoviella_juruasanga.png", "group": "other"}, {"id": "234625", "name": "Lycenchelys antarctica", "thumb": "tn_Lyant_u1.gif", "sprite": "sp-anchoviella_juruasanga.png", "group": "other"}, {"id": "234740", "name": "Yellowbelly rockcod", "sprite": "sp-anchoviella_juruasanga.png", "group": "other"}], "filterAggs": {"waterType": {"Saltwater": 5}, "bodyGroup": {"other": 5}}, "groupDistribution": [{"group": "other", "count": 5}]}, {"lat": -60.25, "lng": -55.67, "count": 6, "topItems": [{"id": "126334", "name": "Daggertooth", "thumb": "tn_Anpha_u1.jpg", "sprite": "sp-anchoviella_juruasanga.png", "group": "other"}, {"id": "234740", "name": "Yellowbelly rockcod", "sprite": "sp-anchoviella_juruasanga.png", "group": "other"}, {"id": "234714", "name": "Bolin’s lanternfish", "thumb": "tn_Prbol_u1.gif", "sprite": "sp-anchoviella_juruasanga.png", "group": "other"}, {"id": "234791", "name": "Rough lanternfish", "thumb": "tn_Elsub_u0.gif", "sprite": "sp-anchoviella_juruasanga.png", "group": "other"}, {"id": "234667", "name": "South Georgia icefish", "thumb": "tn_Psgeo_u0.jpg", "sprite": "sp-anchoviella_juruasanga.png", "group": "other"}], "filterAggs": {"waterType": {"Saltwater": 6}, "bodyGroup": {"other": 6}}, "groupDistribution": [{"group": "other", "count": 6}]}, {"lat": -61.15, "lng": -53.31, "count": 8, "topItems": [{"id": "158837", "name": "Sladen's hatchet fish", "thumb": "tn_Arsla_u0.jpg", "sprite": "sp-anchoviella_juruasanga.png", "group": "other"}, {"id": "217697", "name": "Electrona antarctica", "thumb": "tn_Elant_u0.gif", "sprite": "sp-anchoviella_juruasanga.png", "group": "other"}, {"id": "234638", "name": "Electron subantarctic", "thumb": "tn_Elcar_u0.jpg", "sprite": "sp-anchoviella_juruasanga.png", "group": "other"}, {"id": "234663", "name": "Gaptooth lanternfish", "thumb": "tn_Prcho_u1.gif", "sprite": "sp-anchoviella_juruasanga.png", "group": "other"}, {"id": "234788", "name": "Grey rockcod", "thumb": "tn_Lesqu_u1.jpg", "sprite": "sp-anchoviella_juruasanga.png", "group": "other"}, {"id": "234720", "name": "Long-fingered icefish", "thumb": "tn_Crant_f0.jpg", "sprite": "sp-anchoviella_juruasanga.png", "group": "other"}, {"id": "234730", "name": "Marbled plunderfish", "thumb": "tn_Pomar_f0.gif", "sprite": "sp-anchoviella_juruasanga.png", "group": "other"}, {"id": "234678", "name": "Ocellated icefish", "thumb": "tn_Chras_u0.gif", "sprite": "sp-anchoviella_juruasanga.png", "group": "other"}], "filterAggs": {"waterType": {"Saltwater": 8}, "bodyGroup": {"other": 8}}, "groupDistribution": [{"group": "other", "count": 8}]}, {"lat": -61.18, "lng": -54.34, "count": 9, "topItems": [{"id": "234709", "name": "Sharp-spined notothenia", "thumb": "tn_Trpen_u0.jpg", "sprite": "sp-anchoviella_juruasanga.png", "group": "other"}, {"id": "234756", "name": "Greatbeard plunderfish", "thumb": "tn_Pomac_u7.gif", "sprite": "sp-anchoviella_juruasanga.png", "group": "other"}, {"id": "234665", "name": "Crowned rockcod", "thumb": "tn_Trsco_u0.gif", "sprite": "sp-anchoviella_juruasanga.png", "group": "other"}, {"id": "234710", "name": "Stocky rockcod", "thumb": "tn_Pabra_u5.gif", "sprite": "sp-anchoviella_juruasanga.png", "group": "other"}, {"id": "234605", "name": "Genioliparis lindbergi", "sprite": "sp-anchoviella_juruasanga.png", "group": "other"}, {"id": "234609", "name": "Spiny icefish", "thumb": "tn_Chwil_u0.jpg", "sprite": "sp-anchoviella_juruasanga.png", "group": "other"}, {"id": "234729", "name": "Grand lanternfish", "thumb": "tn_Gybol_u0.gif", "sprite": "sp-anchoviella_juruasanga.png", "group": "other"}, {"id": "234734", "name": "Artedidraco mirus", "thumb": "tn_Armir_u3.jpg", "sprite": "sp-anchoviella_juruasanga.png", "group": "other"}, {"id": "1526062", "name": "Antarctic jonasfish", "thumb": "tn_Nocoa_u0.gif", "sprite": "sp-anchoviella_juruasanga.png", "group": "other"}], "filterAggs": {"waterType": {"Saltwater": 9}, "bodyGroup": {"other": 9}}, "groupDistribution": [{"group": "other", "count": 9}]}, {"lat": -60.92, "lng": -54.83, "count": 9, "topItems": [{"id": "234749", "name": "Gymnoscopelus opisthopterus", "thumb": "tn_Gyopi_u0.jpg", "sprite": "sp-anchoviella_juruasanga.png", "group": "other"}, {"id": "234787", "name": "Careproctus steini", "sprite": "sp-anchoviella_juruasanga.png", "group": "other"}, {"id": "217697", "name": "Electrona antarctica", "thumb": "tn_Elant_u0.gif", "sprite": "sp-anchoviella_juruasanga.png", "group": "other"}, {"id": "234788", "name": "Grey rockcod", "thumb": "tn_Lesqu_u1.jpg", "sprite": "sp-anchoviella_juruasanga.png", "group": "other"}, {"id": "219693", "name": "Slender escolar", "thumb": "tn_Pagra_u3.jpg", "sprite": "sp-anchoviella_juruasanga.png", "group": "other"}, {"id": "234825", "name": "Antarctic spiny plunderfish", "thumb": "tn_Haant_u0.jpg", "sprite": "sp-anchoviella_juruasanga.png", "group": "other"}, {"id": "234631", "name": "Antarctic deepsea smelt", "thumb": "tn_Baant_u0.gif", "sprite": "sp-anchoviella_juruasanga.png", "group": "other"}, {"id": "234679", "name": "Black rockcod", "thumb": "tn_Nocor_u0.jpg", "sprite": "sp-anchoviella_juruasanga.png", "group": "other"}, {"id": "234714", "name": "Bolin’s lanternfish", "thumb": "tn_Prbol_u1.gif", "sprite": "sp-anchoviella_juruasanga.png", "group": "other"}], "filterAggs": {"waterType": {"Saltwater": 9}, "bodyGroup": {"other": 9}}, "groupDistribution": [{"group": "other", "count": 9}]}, {"lat": -61.11, "lng": -54.82, "count": 9, "topItems": [{"id": "234688", "name": "Pachycara brachycephalum", "sprite": "sp-anchoviella_juruasanga.png", "group": "other"}, {"id": "234707", "name": "Pagetopsis macropterus", "thumb": "tn_Pamac_uf.jpg", "sprite": "sp-anchoviella_juruasanga.png", "group": "other"}, {"id": "234730", "name": "Marbled plunderfish", "thumb": "tn_Pomar_f0.gif", "sprite": "sp-anchoviella_juruasanga.png", "group": "other"}, {"id": "234586", "name": "Graytail skate", "thumb": "tn_Bagri_u0.gif", "sprite": "sp-himantura_australis.png", "group": "ray"}, {"id": "234669", "name": "Lycenchelys aratrirostris", "sprite": "sp-anchoviella_juruasanga.png", "group": "other"}, {"id": "234627", "name": "Ringed barracudina", "thumb": "tn_Noann_u0.gif", "sprite": "sp-anchoviella_juruasanga.png", "group": "other"}, {"id": "234594", "name": "Nototheniops nybelini", "sprite": "sp-anchoviella_juruasanga.png", "group": "other"}, {"id": "234821", "name": "Nichol's lanternfish", "thumb": "tn_Gynic_u0.jpg", "sprite": "sp-anchoviella_juruasanga.png", "group": "other"}, {"id": "313400", "name": "Painted notie", "thumb": "tn_Lelar_u0.jpg", "sprite": "sp-anchoviella_juruasanga.png", "group": "other"}], "filterAggs": {"waterType": {"Saltwater": 9}, "bodyGroup": {"other": 8, "fish": 1}}, "groupDistribution": [{"group": "other", "count": 8}, {"group": "ray", "count": 1}]}, {"lat": -60.92, "lng": -55.37, "count": 8, "topItems": [{"id": "234606", "name": "Whitson's grenadier", "thumb": "tn_Mawhi_u0.jpg", "sprite": "sp-anchoviella_juruasanga.png", "group": "other"}, {"id": "234770", "name": "Slender scalyhead", "thumb": "tn_Trlep_f0.jpg", "sprite": "sp-anchoviella_juruasanga.png", "group": "other"}, {"id": "234626", "name": "Magellan plunderfish", "thumb": "tn_Habis_u0.gif", "sprite": "sp-anchoviella_juruasanga.png", "group": "other"}, {"id": "234628", "name": "Dusky rockcod", "thumb": "tn_Trnew_u0.jpg", "sprite": "sp-anchoviella_juruasanga.png", "group": "other"}, {"id": "234685", "name": "Jonah's icefish", "thumb": "tn_Neion_u0.jpg", "sprite": "sp-anchoviella_juruasanga.png", "group": "other"}, {"id": "234742", "name": "Smalleye moray cod", "thumb": "tn_Mumic_u0.gif", "sprite": "sp-anchoviella_juruasanga.png", "group": "other"}, {"id": "234617", "name": "Ophthalmolycus amberensis", "sprite": "sp-anchoviella_juruasanga.png", "group": "other"}, {"id": "234651", "name": "Nansenia antarctica", "sprite": "sp-anchoviella_juruasanga.png", "group": "other"}], "filterAggs": {"waterType": {"Saltwater": 8}, "bodyGroup": {"other": 8}}, "groupDistribution": [{"group": "other", "count": 8}]}, {"lat": -61.12, "lng": -55.27, "count": 9, "topItems": [{"id": "234797", "name": "Mackerel icefish", "thumb": "tn_Chgun_u0.jpg", "sprite": "sp-anchoviella_juruasanga.png", "group": "other"}, {"id": "234687", "name": "Parachaenichthys charcoti", "thumb": "tn_Pacha_u1.jpg", "sprite": "sp-anchoviella_juruasanga.png", "group": "other"}, {"id": "234772", "name": "Striped rockcod", "thumb": "tn_Trhan_u0.jpg", "sprite": "sp-anchoviella_juruasanga.png", "group": "other"}, {"id": "234611", "name": "Finespotted plunderfish", "thumb": "tn_Poper_u3.gif", "sprite": "sp-anchoviella_juruasanga.png", "group": "other"}, {"id": "234678", "name": "Ocellated icefish", "thumb": "tn_Chras_u0.gif", "sprite": "sp-anchoviella_juruasanga.png", "group": "other"}, {"id": "234808", "name": "Gerlachea australis", "thumb": "tn_Geaus_u0.gif", "sprite": "sp-anchoviella_juruasanga.png", "group": "other"}, {"id": "234802", "name": "Emerald rockcod", "thumb": "tn_Trber_u0.jpg", "sprite": "sp-anchoviella_juruasanga.png", "group": "other"}, {"id": "318861", "name": "Yellowfin notie", "thumb": "tn_Lenud_u0.gif", "sprite": "sp-anchoviella_juruasanga.png", "group": "other"}, {"id": "234621", "name": "Artedidraco skottsbergi", "thumb": "tn_Arsko_u0.jpg", "sprite": "sp-anchoviella_juruasanga.png", "group": "other"}], "filterAggs": {"waterType": {"Saltwater": 9}, "bodyGroup": {"other": 9}}, "groupDistribution": [{"group": "other", "count": 9}]}, {"lat": -60.87, "lng": -55.66, "count": 9, "topItems": [{"id": "234641", "name": "Rhombic lanternfish", "thumb": "tn_Krand_u1.gif", "sprite": "sp-anchoviella_juruasanga.png", "group": "other"}, {"id": "234759", "name": "Lycodichthys antarcticus", "thumb": "tn_Lyant_u2.gif", "sprite": "sp-anchoviella_juruasanga.png", "group": "other"}, {"id": "234731", "name": "Smallscale waryfish", "thumb": "tn_Scham_u0.jpg", "sprite": "sp-anchoviella_juruasanga.png", "group": "other"}, {"id": "234720", "name": "Long-fingered icefish", "thumb": "tn_Crant_f0.jpg", "sprite": "sp-anchoviella_juruasanga.png", "group": "other"}, {"id": "234826", "name": "Stubbeard plunderfish", "thumb": "tn_Pobar_f0.gif", "sprite": "sp-anchoviella_juruasanga.png", "group": "other"}, {"id": "234723", "name": "Southern driftfish", "thumb": "tn_Icaus_u0.jpg", "sprite": "sp-anchoviella_juruasanga.png", "group": "other"}, {"id": "234800", "name": "Ploughfish", "thumb": "tn_Gyacu_e0.jpg", "sprite": "sp-anchoviella_juruasanga.png", "group": "other"}, {"id": "234650", "name": "Chionobathyscus dewitti", "thumb": "tn_Chdew_f0.jpg", "sprite": "sp-anchoviella_juruasanga.png", "group": "other"}, {"id": "234799", "name": "Racovitzia glacialis", "thumb": "tn_Ragla_u0.gif", "sprite": "sp-anchoviella_juruasanga.png", "group": "other"}], "filterAggs": {"waterType": {"Saltwater": 9}, "bodyGroup": {"other": 9}}, "groupDistribution": [{"group": "other", "count": 9}]}, {"lat": -61.09, "lng": -55.68, "count": 9, "topItems": [{"id": "234725", "name": "Blackfin icefish", "thumb": "tn_Chace_u3.jpg", "sprite": "sp-anchoviella_juruasanga.png", "group": "other"}, {"id": "234675", "name": "McCain's skate", "thumb": "tn_Bamac_j0.jpg", "sprite": "sp-himantura_australis.png", "group": "ray"}, {"id": "234667", "name": "South Georgia icefish", "thumb": "tn_Psgeo_u0.jpg", "sprite": "sp-anchoviella_juruasanga.png", "group": "other"}, {"id": "234837", "name": "Saddleback plunderfish", "thumb": "tn_Posco_m0.gif", "sprite": "sp-anchoviella_juruasanga.png", "group": "other"}, {"id": "234754", "name": "Blunt scalyhead", "thumb": "tn_Treul_u2.jpg", "sprite": "sp-anchoviella_juruasanga.png", "group": "other"}, {"id": "234704", "name": "Humped rockcod", "thumb": "tn_Gogib_u0.jpg", "sprite": "sp-anchoviella_juruasanga.png", "group": "other"}, {"id": "234795", "name": "Chionodraco hamatus", "thumb": "tn_Chham_u0.jpg", "sprite": "sp-anchoviella_juruasanga.png", "group": "other"}, {"id": "234840", "name": "Marbled rockcod", "thumb": "tn_Noros_u1.jpg", "sprite": "sp-anchoviella_juruasanga.png", "group": "other"}, {"id": "234836", "name": "Antarctic toothfish", "thumb": "tn_Dimaw_u1.jpg", "sprite": "sp-anchoviella_juruasanga.png", "group": "other"}], "filterAggs": {"waterType": {"Saltwater": 9}, "bodyGroup": {"other": 8, "fish": 1}}, "groupDistribution": [{"group": "other", "count": 8}, {"group": "ray", "count": 1}]}], "points": [{"lat": -57.825, "lng": -56.025, "id": "104157", "name": "Candacia", "sprite": "sp-anchoviella_juruasanga.png", "group": "other", "rarity": 1}, {"lat": -60.6366, "lng": -53.9574, "id": "344983", "name": "Haploniscus cassilatus", "sprite": "sp-american_lobster.png", "group": "crab_lobster", "rarity": 1}, {"lat": -56.755, "lng": -51.7783, "id": "248006", "name": "Anasterias pedicellaris", "sprite": "sp-sea_cucumber.png", "group": "starfish", "rarity": 1}, {"lat": -57.33, "lng": -51.23, "id": "178251", "name": "Cheiraster (Luidiaster) planeta", "sprite": "sp-sea_cucumber.png", "group": "starfish", "rarity": 1}, {"lat": -60.8417, "lng": -46.25, "id": "417765", "name": "Tubinella funalis", "sprite": "sp-anchoviella_juruasanga.png", "group": "other", "rarity": 1}, {"lat": -61.2438, "lng": -45.669, "id": "129329", "name": "Pelagobia", "sprite": "sp-anchoviella_juruasanga.png", "group": "other", "rarity": 1}, {"lat": -61.2877, "lng": -56.1686, "id": "197251", "name": "Lyonsia arcaeformis", "sprite": "sp-blue_mussel.png", "group": "clam_mussel", "rarity": 1}, {"lat": -59.4251, "lng": -55.1253, "id": "137233", "name": "Salpa", "sprite": "sp-anchoviella_juruasanga.png", "group": "other", "rarity": 1}, {"lat": -61.0157, "lng": -55.591, "id": "181999", "name": "Diastylopsis annulata", "sprite": "sp-american_lobster.png", "group": "crab_lobster", "rarity": 1}, {"lat": -60.833, "lng": -49.05, "id": "172456", "name": "Alacia hettacra", "sprite": "sp-anchoviella_juruasanga.png", "group": "other", "rarity": 1}, {"lat": -61.1528, "lng": -55.8731, "id": "160736", "name": "Amphipneustes", "sprite": "sp-sea_cucumber.png", "group": "starfish", "rarity": 1}, {"lat": -61.1273, "lng": -55.1724, "id": "160799", "name": "Ctenocidaris speciosa", "sprite": "sp-sea_cucumber.png", "group": "starfish", "rarity": 1}, {"lat": -59.017, "lng": -51.667, "id": "325301", "name": "Alluroteuthis", "sprite": "sp-giant_pacific_octopus.png", "group": "octopus_squid", "rarity": 1}, {"lat": -56.5417, "lng": -54.375, "id": "149168", "name": "Proboscia alata", "sprite": "sp-anchoviella_juruasanga.png", "group": "other", "rarity": 1}, {"lat": -61.425, "lng": -53.7667, "id": "114213", "name": "Thurammina compressa", "sprite": "sp-anchoviella_juruasanga.png", "group": "other", "rarity": 1}, {"lat": -59.9078, "lng": -52.1739, "id": "236217", "name": "Euphausia superba", "sprite": "sp-antarctic_krill.png", "group": "shrimp", "rarity": 1}, {"lat": -57.6835, "lng": -52.0455, "id": "289710", "name": "Convexella magelhaenica", "sprite": "sp-actiniidae.png", "group": "coral", "rarity": 1}, {"lat": -61.0008, "lng": -54.1738, "id": "173340", "name": "Primnoisis", "sprite": "sp-actiniidae.png", "group": "coral", "rarity": 1}, {"lat": -60.4367, "lng": -46.4317, "id": "490889", "name": "Cavineptunea monstrosa", "sprite": "sp-cowrie_shell.png", "group": "sea_snail", "rarity": 1}, {"lat": -59.0833, "lng": -46.5333, "id": "335010", "name": "Vanadis antarctica", "sprite": "sp-anchoviella_juruasanga.png", "group": "other", "rarity": 1}, {"lat": -61.1293, "lng": -55.6182, "id": "325325", "name": "Pareledone aequipapillae", "sprite": "sp-giant_pacific_octopus.png", "group": "octopus_squid", "rarity": 1}, {"lat": -60.5, "lng": -47.11, "id": "5", "name": "Protozoa", "sprite": "sp-anchoviella_juruasanga.png", "group": "other", "rarity": 1}, {"lat": -60.033, "lng": -53.5002, "id": "234679", "name": "Black rockcod", "thumb": "tn_Nocor_u0.jpg", "sprite": "sp-anchoviella_juruasanga.png", "group": "other", "rarity": 1, "waterType": "Saltwater"}, {"lat": -60.69, "lng": -45.92, "id": "2688", "name": "Cetacea", "sprite": "sp-anchoviella_juruasanga.png", "group": "other", "rarity": 1}, {"lat": -61.1333, "lng": -55.1167, "id": "136851", "name": "Hyalosphenia minuta", "sprite": "sp-anchoviella_juruasanga.png", "group": "other", "rarity": 1}, {"lat": -58.2394, "lng": -49.344, "id": "149168", "name": "Proboscia alata", "sprite": "sp-anchoviella_juruasanga.png", "group": "other", "rarity": 1}, {"lat": -57.0, "lng": -55.0, "id": "341479", "name": "Chaetoceros neglectus", "sprite": "sp-anchoviella_juruasanga.png", "group": "other", "rarity": 1}, {"lat": -60.5733, "lng": -48.4445, "id": "341238", "name": "Aetideus australis", "sprite": "sp-anchoviella_juruasanga.png", "group": "other", "rarity": 1}, {"lat": -60.933, "lng": -48.3, "id": "137222", "name": "Doliolum", "sprite": "sp-anchoviella_juruasanga.png", "group": "other", "rarity": 1}, {"lat": -60.8, "lng": -53.4875, "id": "231630", "name": "Conopora verrucosa", "sprite": "sp-anchoviella_juruasanga.png", "group": "other", "rarity": 1}, {"lat": -56.7777, "lng": -45.6731, "id": "325345", "name": "Pteropoda", "sprite": "sp-cowrie_shell.png", "group": "sea_snail", "rarity": 1}, {"lat": -61.425, "lng": -53.7667, "id": "480156", "name": "Triloculinella sublineata", "sprite": "sp-anchoviella_juruasanga.png", "group": "other", "rarity": 1}, {"lat": -59.025, "lng": -51.875, "id": "123932", "name": "Hyphalaster inermis", "sprite": "sp-sea_cucumber.png", "group": "starfish", "rarity": 1}, {"lat": -60.4275, "lng": -46.4957, "id": "151404", "name": "Nototheniidae", "sprite": "sp-anchoviella_juruasanga.png", "group": "other", "rarity": 1}, {"lat": -56.6045, "lng": -56.0545, "id": "104139", "name": "Euaugaptilus", "sprite": "sp-anchoviella_juruasanga.png", "group": "other", "rarity": 1}, {"lat": -57.527, "lng": -50.703, "id": "149142", "name": "Navicula", "sprite": "sp-anchoviella_juruasanga.png", "group": "other", "rarity": 1}, {"lat": -56.45, "lng": -54.3667, "id": "254689", "name": "Lagenammina tubulata", "sprite": "sp-anchoviella_juruasanga.png", "group": "other", "rarity": 1}, {"lat": -60.8728, "lng": -55.4967, "id": "101365", "name": "Amphilochidae", "sprite": "sp-american_lobster.png", "group": "crab_lobster", "rarity": 1}, {"lat": -61.317, "lng": -56.158, "id": "129455", "name": "Phyllodoce", "sprite": "sp-anchoviella_juruasanga.png", "group": "other", "rarity": 1}, {"lat": -61.0, "lng": -55.0, "id": "172688", "name": "Neosmilaster steineni", "sprite": "sp-sea_cucumber.png", "group": "starfish", "rarity": 1}, {"lat": -57.118, "lng": -55.2757, "id": "126220", "name": "Stomias", "sprite": "sp-anchoviella_juruasanga.png", "group": "other", "rarity": 1}, {"lat": -61.1213, "lng": -55.4782, "id": "160793", "name": "Ctenocidaris geliberti", "sprite": "sp-sea_cucumber.png", "group": "starfish", "rarity": 1}, {"lat": -60.6019, "lng": -48.3858, "id": "1371", "name": "Siphonophorae", "sprite": "sp-anchoviella_juruasanga.png", "group": "other", "rarity": 1}, {"lat": -59.9293, "lng": -46.1033, "id": "114215", "name": "Thurammina papillata", "sprite": "sp-anchoviella_juruasanga.png", "group": "other", "rarity": 1}, {"lat": -60.6957, "lng": -45.6078, "id": "467476", "name": "Antarctothoa dictyota", "sprite": "sp-anchoviella_juruasanga.png", "group": "other", "rarity": 1}, {"lat": -60.4508, "lng": -56.0795, "id": "125741", "name": "Ciliata", "sprite": "sp-anchoviella_juruasanga.png", "group": "other", "rarity": 1}, {"lat": -61.0067, "lng": -54.2383, "id": "127814", "name": "Metaconchoecia skogsbergi", "sprite": "sp-anchoviella_juruasanga.png", "group": "other", "rarity": 1}, {"lat": -56.2406, "lng": -49.3128, "id": "178251", "name": "Cheiraster (Luidiaster) planeta", "sprite": "sp-sea_cucumber.png", "group": "starfish", "rarity": 1}, {"lat": -60.8139, "lng": -51.0056, "id": "114306", "name": "Lepidodeuterammina ochracea", "sprite": "sp-anchoviella_juruasanga.png", "group": "other", "rarity": 1}, {"lat": -61.425, "lng": -53.7667, "id": "417583", "name": "Veleroninoides scitulus", "sprite": "sp-anchoviella_juruasanga.png", "group": "other", "rarity": 1}, {"lat": -60.3667, "lng": -46.8333, "id": "172983", "name": "Laetmonice producta producta", "sprite": "sp-anchoviella_juruasanga.png", "group": "other", "rarity": 1}, {"lat": -58.2884, "lng": -50.9688, "id": "1410", "name": "Foraminifera", "sprite": "sp-anchoviella_juruasanga.png", "group": "other", "rarity": 1}, {"lat": -60.7966, "lng": -55.397, "id": "197541", "name": "Yoldiella valettei", "sprite": "sp-blue_mussel.png", "group": "clam_mussel", "rarity": 1}, {"lat": -57.3556, "lng": -46.725, "id": "325408", "name": "Vibilia antarctica", "sprite": "sp-american_lobster.png", "group": "crab_lobster", "rarity": 1}, {"lat": -60.4825, "lng": -46.5492, "id": "173332", "name": "Paracellaria wandeli", "sprite": "sp-anchoviella_juruasanga.png", "group": "other", "rarity": 1}, {"lat": -60.8563, "lng": -51.6, "id": "573621", "name": "Terebraria kerguelensis", "sprite": "sp-anchoviella_juruasanga.png", "group": "other", "rarity": 1}, {"lat": -61.58, "lng": -48.06, "id": "137165", "name": "Sterna paradisaea", "sprite": "sp-anchoviella_juruasanga.png", "group": "other", "rarity": 1}, {"lat": -60.854, "lng": -55.7037, "id": "234641", "name": "Rhombic lanternfish", "thumb": "tn_Krand_u1.gif", "sprite": "sp-anchoviella_juruasanga.png", "group": "other", "rarity": 1, "waterType": "Saltwater"}, {"lat": -60.8193, "lng": -46.488, "id": "433123", "name": "Belaturricula ergata", "sprite": "sp-cowrie_shell.png", "group": "sea_snail", "rarity": 1}, {"lat": -57.205, "lng": -50.603, "id": "162254", "name": "Asteromphalus", "sprite": "sp-anchoviella_juruasanga.png", "group": "other", "rarity": 1}, {"lat": -60.6935, "lng": -45.6065, "id": "174199", "name": "Inversiula nutrix", "sprite": "sp-anchoviella_juruasanga.png", "group": "other", "rarity": 1}, {"lat": -55.933, "lng": -45.025, "id": "205", "name": "Nuculanidae", "sprite": "sp-blue_mussel.png", "group": "clam_mussel", "rarity": 1}, {"lat": -56.7777, "lng": -45.6731, "id": "103358", "name": "Fritillaria", "sprite": "sp-anchoviella_juruasanga.png", "group": "other", "rarity": 1}, {"lat": -59.371, "lng": -56.079, "id": "104204", "name": "Xanthocalanus", "sprite": "sp-anchoviella_juruasanga.png", "group": "other", "rarity": 1}, {"lat": -56.9833, "lng": -50.0667, "id": "104802", "name": "Scaphocalanus subbrevicornis", "sprite": "sp-anchoviella_juruasanga.png", "group": "other", "rarity": 1}, {"lat": -56.7777, "lng": -45.6731, "id": "104162", "name": "Ctenocalanus", "sprite": "sp-anchoviella_juruasanga.png", "group": "other", "rarity": 1}, {"lat": -61.425, "lng": -53.7667, "id": "114194", "name": "Sorosphaera confusa", "sprite": "sp-anchoviella_juruasanga.png", "group": "other", "rarity": 1}, {"lat": -60.3667, "lng": -45.6667, "id": "573590", "name": "Rhizosolenia truncata", "sprite": "sp-anchoviella_juruasanga.png", "group": "other", "rarity": 1}, {"lat": -56.45, "lng": -54.3667, "id": "466078", "name": "Spirosigmoilina tenuis", "sprite": "sp-anchoviella_juruasanga.png", "group": "other", "rarity": 1}, {"lat": -61.425, "lng": -53.7667, "id": "113988", "name": "Nodulina dentaliniformis", "sprite": "sp-anchoviella_juruasanga.png", "group": "other", "rarity": 1}, {"lat": -61.3467, "lng": -54.07, "id": "173740", "name": "Exochella umbonata", "sprite": "sp-anchoviella_juruasanga.png", "group": "other", "rarity": 1}, {"lat": -60.0, "lng": -49.509, "id": "234788", "name": "Grey rockcod", "thumb": "tn_Lesqu_u1.jpg", "sprite": "sp-anchoviella_juruasanga.png", "group": "other", "rarity": 1, "waterType": "Saltwater"}, {"lat": -60.71, "lng": -45.6, "id": "1390868", "name": "Mniobia burgeri", "sprite": "sp-anchoviella_juruasanga.png", "group": "other", "rarity": 1}, {"lat": -60.4756, "lng": -54.2425, "id": "225749", "name": "Pelecanoides", "sprite": "sp-anchoviella_juruasanga.png", "group": "other", "rarity": 1}, {"lat": -60.2146, "lng": -46.7282, "id": "197119", "name": "Conorbela antarctica", "sprite": "sp-cowrie_shell.png", "group": "sea_snail", "rarity": 1}, {"lat": -57.5908, "lng": -52.9215, "id": "113957", "name": "Labrospira crassimargo", "sprite": "sp-anchoviella_juruasanga.png", "group": "other", "rarity": 1}, {"lat": -61.167, "lng": -55.233, "id": "110398", "name": "Diastylis", "sprite": "sp-american_lobster.png", "group": "crab_lobster", "rarity": 1}, {"lat": -56.5624, "lng": -50.0392, "id": "342443", "name": "Clausocalanus brevipes", "sprite": "sp-anchoviella_juruasanga.png", "group": "other", "rarity": 1}, {"lat": -61.4194, "lng": -53.7667, "id": "237024", "name": "Megamphopus elephantis", "sprite": "sp-american_lobster.png", "group": "crab_lobster", "rarity": 1}, {"lat": -57.142, "lng": -56.017, "id": "104138", "name": "Centraugaptilus", "sprite": "sp-anchoviella_juruasanga.png", "group": "other", "rarity": 1}, {"lat": -56.8517, "lng": -50.8667, "id": "172695", "name": "Psalidaster mordax", "sprite": "sp-sea_cucumber.png", "group": "starfish", "rarity": 1}, {"lat": -60.6917, "lng": -54.8033, "id": "918", "name": "Chaetopteridae", "sprite": "sp-anchoviella_juruasanga.png", "group": "other", "rarity": 1}, {"lat": -60.6889, "lng": -45.6, "id": "130390", "name": "Neanthes kerguelensis", "sprite": "sp-anchoviella_juruasanga.png", "group": "other", "rarity": 1}, {"lat": -61.5768, "lng": -46.0793, "id": "103367", "name": "Oikopleura", "sprite": "sp-anchoviella_juruasanga.png", "group": "other", "rarity": 1}, {"lat": -60.4412, "lng": -46.7394, "id": "1268", "name": "Sipuncula", "sprite": "sp-anchoviella_juruasanga.png", "group": "other", "rarity": 1}, {"lat": -57.527, "lng": -50.703, "id": "104152", "name": "Calanus", "sprite": "sp-anchoviella_juruasanga.png", "group": "other", "rarity": 1}, {"lat": -60.3833, "lng": -52.8667, "id": "113852", "name": "Bathysiphon flexibilis", "sprite": "sp-anchoviella_juruasanga.png", "group": "other", "rarity": 1}, {"lat": -61.1332, "lng": -48.7, "id": "197492", "name": "Tractolira germonae", "sprite": "sp-cowrie_shell.png", "group": "sea_snail", "rarity": 1}, {"lat": -60.5333, "lng": -45.5167, "id": "101830", "name": "Caprella equilibra", "sprite": "sp-american_lobster.png", "group": "crab_lobster", "rarity": 1}, {"lat": -60.0013, "lng": -55.1247, "id": "125821", "name": "Electrona", "sprite": "sp-anchoviella_juruasanga.png", "group": "other", "rarity": 1}, {"lat": -60.692, "lng": -45.62, "id": "1657844", "name": "Grevenius laevis", "sprite": "sp-anchoviella_juruasanga.png", "group": "other", "rarity": 1}, {"lat": -57.798, "lng": -50.1539, "id": "1100", "name": "Calanoida", "sprite": "sp-anchoviella_juruasanga.png", "group": "other", "rarity": 1}, {"lat": -59.5718, "lng": -55.7, "id": "104227", "name": "Racovitzanus", "sprite": "sp-anchoviella_juruasanga.png", "group": "other", "rarity": 1}, {"lat": -61.1339, "lng": -55.4036, "id": "234797", "name": "Mackerel icefish", "thumb": "tn_Chgun_u0.jpg", "sprite": "sp-anchoviella_juruasanga.png", "group": "other", "rarity": 1, "waterType": "Saltwater"}, {"lat": -60.65, "lng": -53.95, "id": "390765", "name": "Macropyxis", "sprite": "sp-anchoviella_juruasanga.png", "group": "other", "rarity": 1}, {"lat": -56.2473, "lng": -51.0418, "id": "344974", "name": "Paraeuchaeta antarctica", "sprite": "sp-anchoviella_juruasanga.png", "group": "other", "rarity": 1}, {"lat": -61.3633, "lng": -56.01, "id": "130311", "name": "Nicomache lumbricalis", "sprite": "sp-anchoviella_juruasanga.png", "group": "other", "rarity": 1}, {"lat": -60.77, "lng": -48.0, "id": "817507", "name": "Ammoflintina argentea", "sprite": "sp-anchoviella_juruasanga.png", "group": "other", "rarity": 1}, {"lat": -60.8417, "lng": -46.25, "id": "417607", "name": "Adercotryma glomeratum", "sprite": "sp-anchoviella_juruasanga.png", "group": "other", "rarity": 1}, {"lat": -60.5379, "lng": -46.0702, "id": "391242", "name": "Copytus elongatus", "sprite": "sp-anchoviella_juruasanga.png", "group": "other", "rarity": 1}, {"lat": -60.3705, "lng": -46.842, "id": "2545", "name": "Deontostoma", "sprite": "sp-anchoviella_juruasanga.png", "group": "other", "rarity": 1}, {"lat": -57.7434, "lng": -50.4138, "id": "104120", "name": "Euchirella", "sprite": "sp-anchoviella_juruasanga.png", "group": "other", "rarity": 1}, {"lat": -60.016, "lng": -54.7138, "id": "843664", "name": "Actinopteri", "sprite": "sp-anchoviella_juruasanga.png", "group": "other", "rarity": 1}, {"lat": -60.0332, "lng": -49.1668, "id": "886741", "name": "Aricidea (Strelzovia) belgicae", "sprite": "sp-anchoviella_juruasanga.png", "group": "other", "rarity": 1}, {"lat": -61.3361, "lng": -54.2556, "id": "1287846", "name": "Charcotia obesa", "sprite": "sp-american_lobster.png", "group": "crab_lobster", "rarity": 1}, {"lat": -60.672, "lng": -45.6, "id": "1045210", "name": "Belorussiella textilarioides", "sprite": "sp-anchoviella_juruasanga.png", "group": "other", "rarity": 1}, {"lat": -61.3, "lng": -56.15, "id": "523841", "name": "Epitonium eltanini", "sprite": "sp-cowrie_shell.png", "group": "sea_snail", "rarity": 1}, {"lat": -61.1665, "lng": -55.5177, "id": "160813", "name": "Notocidaris mortenseni", "sprite": "sp-sea_cucumber.png", "group": "starfish", "rarity": 1}, {"lat": -61.2177, "lng": -55.2026, "id": "146780", "name": "Osthimosia bicornis", "sprite": "sp-anchoviella_juruasanga.png", "group": "other", "rarity": 1}, {"lat": -57.6016, "lng": -49.5823, "id": "104171", "name": "Eucalanus", "sprite": "sp-anchoviella_juruasanga.png", "group": "other", "rarity": 1}, {"lat": -61.0672, "lng": -55.6285, "id": "174196", "name": "Eteone sculpta", "sprite": "sp-anchoviella_juruasanga.png", "group": "other", "rarity": 1}, {"lat": -60.9333, "lng": -53.35, "id": "325387", "name": "Hyperiella macronyx", "sprite": "sp-american_lobster.png", "group": "crab_lobster", "rarity": 1}, {"lat": -61.258, "lng": -55.325, "id": "9904", "name": "Dorididae", "sprite": "sp-cowrie_shell.png", "group": "sea_snail", "rarity": 1}, {"lat": -57.5, "lng": -45.5833, "id": "148985", "name": "Chaetoceros", "sprite": "sp-anchoviella_juruasanga.png", "group": "other", "rarity": 1}, {"lat": -60.5127, "lng": -46.7233, "id": "1526062", "name": "Antarctic jonasfish", "thumb": "tn_Nocoa_u0.gif", "sprite": "sp-anchoviella_juruasanga.png", "group": "other", "rarity": 1, "waterType": "Saltwater"}, {"lat": -60.8233, "lng": -52.6667, "id": "173803", "name": "Eumorphometra marri", "sprite": "sp-sea_cucumber.png", "group": "starfish", "rarity": 1}, {"lat": -59.9293, "lng": -46.1033, "id": "254689", "name": "Lagenammina tubulata", "sprite": "sp-anchoviella_juruasanga.png", "group": "other", "rarity": 1}, {"lat": -57.7807, "lng": -50.2635, "id": "1078", "name": "Ostracoda", "sprite": "sp-anchoviella_juruasanga.png", "group": "other", "rarity": 1}, {"lat": -61.1983, "lng": -54.9934, "id": "225766", "name": "Sterna vittata", "sprite": "sp-anchoviella_juruasanga.png", "group": "other", "rarity": 1}, {"lat": -57.0, "lng": -55.0, "id": "573422", "name": "Coscinodiscus gracilis", "sprite": "sp-anchoviella_juruasanga.png", "group": "other", "rarity": 1}]}