{"zoom": 5, "x": 11, "y": 8, "clusters": [{"lat": 64.86, "lng": -52.09, "count": 6, "topItems": [{"id": "254538", "name": "Pacific cod", "thumb": "tn_Gamac_u9.jpg", "sprite": "sp-arctogadus.png", "group": "cod"}, {"id": "126505", "name": "Three-spined stickleback", "thumb": "tn_Gaacu_u1.jpg", "sprite": "sp-anchoviella_juruasanga.png", "group": "other"}, {"id": "126436", "name": "Atlantic cod", "thumb": "tn_Gamor_u3.jpg", "sprite": "sp-arctogadus.png", "group": "cod"}, {"id": "127188", "name": "Arctic char", "thumb": "tn_Saalp_f0.jpg", "sprite": "sp-atlantic_salmon.png", "group": "salmon_trout"}], "filterAggs": {"waterType": {"Brackish": 6}, "bodyGroup": {"fish": 4, "other": 2}}, "groupDistribution": [{"group": "cod", "count": 3}, {"group": "other", "count": 2}, {"group": "salmon_trout", "count": 1}]}, {"lat": 63.1, "lng": -51.45, "count": 6, "topItems": [{"id": "126436", "name": "Atlantic cod", "thumb": "tn_Gamor_u3.jpg", "sprite": "sp-arctogadus.png", "group": "cod"}, {"id": "126735", "name": "Capelin", "thumb": "tn_Mavil_f0.jpg", "sprite": "sp-anchoviella_juruasanga.png", "group": "other"}, {"id": "127203", "name": "Shorthorn sculpin", "thumb": "tn_Mysco_m0.jpg", "sprite": "sp-anchoviella_juruasanga.png", "group": "other"}, {"id": "127186", "name": "Atlantic salmon", "thumb": "tn_Sasal_ub.jpg", "sprite": "sp-atlantic_salmon.png", "group": "salmon_trout"}], "filterAggs": {"waterType": {"Brackish": 6}, "bodyGroup": {"fish": 4, "other": 2}}, "groupDistribution": [{"group": "cod", "count": 3}, {"group": "other", "count": 2}, {"group": "salmon_trout", "count": 1}]}, {"lat": 64.34, "lng": -53.73, "count": 6, "topItems": [{"id": "127186", "name": "Atlantic salmon", "thumb": "tn_Sasal_ub.jpg", "sprite": "sp-atlantic_salmon.png", "group": "salmon_trout"}, {"id": "126751", "name": "Lesser sand-eel", "thumb": "tn_Ammar_u0.jpg", "sprite": "sp-anchoviella_juruasanga.png", "group": "other"}, {"id": "126436", "name": "Atlantic cod", "thumb": "tn_Gamor_u3.jpg", "sprite": "sp-arctogadus.png", "group": "cod"}, {"id": "158691", "name": "Atlantic menhaden", "thumb": "tn_Brtyr_u0.jpg", "sprite": "sp-anchoviella_juruasanga.png", "group": "other"}, {"id": "126735", "name": "Capelin", "thumb": "tn_Mavil_f0.jpg", "sprite": "sp-anchoviella_juruasanga.png", "group": "other"}, {"id": "126505", "name": "Three-spined stickleback", "thumb": "tn_Gaacu_u1.jpg", "sprite": "sp-anchoviella_juruasanga.png", "group": "other"}], "filterAggs": {"waterType": {"Brackish": 6}, "bodyGroup": {"other": 4, "fish": 2}}, "groupDistribution": [{"group": "other", "count": 4}, {"group": "salmon_trout", "count": 1}, {"group": "cod", "count": 1}]}, {"lat": 65.3, "lng": -55.28, "count": 6, "topItems": [{"id": "126433", "name": "Polar cod", "thumb": "tn_Bosai_u0.jpg", "sprite": "sp-arctogadus.png", "group": "cod"}, {"id": "105865", "name": "Starry ray", "thumb": "tn_Amrad_u0.jpg", "sprite": "sp-himantura_australis.png", "group": "ray"}, {"id": "126436", "name": "Atlantic cod", "thumb": "tn_Gamor_u3.jpg", "sprite": "sp-arctogadus.png", "group": "cod"}], "filterAggs": {"waterType": {"Brackish": 6}, "bodyGroup": {"fish": 6}}, "groupDistribution": [{"group": "cod", "count": 4}, {"group": "ray", "count": 2}]}, {"lat": 62.3, "lng": -50.63, "count": 6, "topItems": [{"id": "151324", "name": "Golden redfish", "thumb": "tn_Semar_ub.jpg", "sprite": "sp-anchoviella_juruasanga.png", "group": "other"}, {"id": "127137", "name": "American plaice", "thumb": "tn_Hipla_u3.jpg", "sprite": "sp-atlantic_halibut.png", "group": "flatfish"}, {"id": "126758", "name": "Atlantic wolffish", "thumb": "tn_Anlup_u8.jpg", "sprite": "sp-anchoviella_juruasanga.png", "group": "other"}, {"id": "159821", "name": "Radiated shanny", "thumb": "tn_Ulsub_u2.jpg", "sprite": "sp-anchoviella_juruasanga.png", "group": "other"}, {"id": "127144", "name": "Greenland halibut", "thumb": "tn_Rehip_u1.jpg", "sprite": "sp-atlantic_halibut.png", "group": "flatfish"}, {"id": "159459", "name": "Alligatorfish", "thumb": "tn_Asmon_u0.jpg", "sprite": "sp-anchoviella_juruasanga.png", "group": "other"}], "filterAggs": {"waterType": {"Saltwater": 6}, "bodyGroup": {"other": 4, "fish": 2}}, "groupDistribution": [{"group": "other", "count": 4}, {"group": "flatfish", "count": 2}]}, {"lat": 63.72, "lng": -51.95, "count": 7, "topItems": [{"id": "151324", "name": "Golden redfish", "thumb": "tn_Semar_ub.jpg", "sprite": "sp-anchoviella_juruasanga.png", "group": "other"}, {"id": "127138", "name": "Atlantic halibut", "thumb": "tn_Hihip_u3.jpg", "sprite": "sp-atlantic_halibut.png", "group": "flatfish"}, {"id": "159846", "name": "Banded gunnel", "thumb": "tn_Phfas_u0.jpg", "sprite": "sp-anchoviella_juruasanga.png", "group": "other"}, {"id": "127136", "name": "Witch flounder", "thumb": "tn_Glcyn_u1.jpg", "sprite": "sp-atlantic_halibut.png", "group": "flatfish"}, {"id": "126437", "name": "Haddock", "thumb": "tn_Meaeg_u1.jpg", "sprite": "sp-arctogadus.png", "group": "cod"}, {"id": "127137", "name": "American plaice", "thumb": "tn_Hipla_u3.jpg", "sprite": "sp-atlantic_halibut.png", "group": "flatfish"}, {"id": "127218", "name": "Gelatinous snailfish", "thumb": "tn_Lifab_m0.jpg", "sprite": "sp-anchoviella_juruasanga.png", "group": "other"}], "filterAggs": {"waterType": {"Saltwater": 7}, "bodyGroup": {"fish": 4, "other": 3}}, "groupDistribution": [{"group": "other", "count": 3}, {"group": "flatfish", "count": 3}, {"group": "cod", "count": 1}]}, {"lat": 64.44, "lng": -52.61, "count": 7, "topItems": [{"id": "127144", "name": "Greenland halibut", "thumb": "tn_Rehip_u1.jpg", "sprite": "sp-atlantic_halibut.png", "group": "flatfish"}, {"id": "151324", "name": "Golden redfish", "thumb": "tn_Semar_ub.jpg", "sprite": "sp-anchoviella_juruasanga.png", "group": "other"}, {"id": "126580", "name": "Glacier lantern fish", "thumb": "tn_Begla_u1.jpg", "sprite": "sp-anchoviella_juruasanga.png", "group": "other"}, {"id": "126453", "name": "Threadfin rockling", "thumb": "tn_Gaens_u0.jpg", "sprite": "sp-anchoviella_juruasanga.png", "group": "other"}, {"id": "127137", "name": "American plaice", "thumb": "tn_Hipla_u3.jpg", "sprite": "sp-atlantic_halibut.png", "group": "flatfish"}], "filterAggs": {"waterType": {"Saltwater": 7}, "bodyGroup": {"other": 4, "fish": 3}}, "groupDistribution": [{"group": "other", "count": 4}, {"group": "flatfish", "count": 3}]}, {"lat": 63.21, "lng": -52.78, "count": 7, "topItems": [{"id": "127144", "name": "Greenland halibut", "thumb": "tn_Rehip_u1.jpg", "sprite": "sp-atlantic_halibut.png", "group": "flatfish"}, {"id": "126645", "name": "Smallmouth spiny eel", "thumb": "tn_Poris_u2.jpg", "sprite": "sp-anchoviella_juruasanga.png", "group": "other"}, {"id": "105906", "name": "Black dogfish", "thumb": "tn_Cefab_u0.jpg", "sprite": "sp-great_white_shark.png", "group": "shark"}, {"id": "126580", "name": "Glacier lantern fish", "thumb": "tn_Begla_u1.jpg", "sprite": "sp-anchoviella_juruasanga.png", "group": "other"}, {"id": "126472", "name": "Roughhead grenadier", "thumb": "tn_Maber_u1.jpg", "sprite": "sp-anchoviella_juruasanga.png", "group": "other"}, {"id": "127137", "name": "American plaice", "thumb": "tn_Hipla_u3.jpg", "sprite": "sp-atlantic_halibut.png", "group": "flatfish"}, {"id": "1019159", "name": "Sailray", "thumb": "tn_Dilin_u3.jpg", "sprite": "sp-himantura_australis.png", "group": "ray"}], "filterAggs": {"waterType": {"Saltwater": 7}, "bodyGroup": {"fish": 4, "other": 3}}, "groupDistribution": [{"group": "other", "count": 3}, {"group": "flatfish", "count": 2}, {"group": "shark", "count": 1}, {"group": "ray", "count": 1}]}, {"lat": 65.0, "lng": -53.85, "count": 6, "topItems": [{"id": "127118", "name": "Vahl's eelpout", "thumb": "tn_Lyvah_u0.gif", "sprite": "sp-anchoviella_juruasanga.png", "group": "other"}, {"id": "151324", "name": "Golden redfish", "thumb": "tn_Semar_ub.jpg", "sprite": "sp-anchoviella_juruasanga.png", "group": "other"}, {"id": "127137", "name": "American plaice", "thumb": "tn_Hipla_u3.jpg", "sprite": "sp-atlantic_halibut.png", "group": "flatfish"}, {"id": "126451", "name": "Arctic rockling", "thumb": "tn_Gaarg_u2.jpg", "sprite": "sp-anchoviella_juruasanga.png", "group": "other"}, {"id": "151520", "name": "Northern sand lance", "thumb": "tn_Amdub_u0.jpg", "sprite": "sp-anchoviella_juruasanga.png", "group": "other"}], "filterAggs": {"waterType": {"Saltwater": 6}, "bodyGroup": {"other": 5, "fish": 1}}, "groupDistribution": [{"group": "other", "count": 5}, {"group": "flatfish", "count": 1}]}, {"lat": 64.61, "lng": -54.66, "count": 7, "topItems": [{"id": "126439", "name": "Blue whiting", "thumb": "tn_Mipou_u4.jpg", "sprite": "sp-arctogadus.png", "group": "cod"}, {"id": "127193", "name": "Atlantic hookear sculpin", "thumb": "tn_Aratl_m0.jpg", "sprite": "sp-anchoviella_juruasanga.png", "group": "other"}, {"id": "101170", "name": "Atlantic hagfish", "thumb": "tn_Myglu_u0.jpg", "sprite": "sp-atlantic_hagfish.png", "group": "hagfish"}, {"id": "126759", "name": "Spotted wolffish", "thumb": "tn_Anmin_u0.jpg", "sprite": "sp-anchoviella_juruasanga.png", "group": "other"}, {"id": "127138", "name": "Atlantic halibut", "thumb": "tn_Hihip_u3.jpg", "sprite": "sp-atlantic_halibut.png", "group": "flatfish"}, {"id": "127205", "name": "Moustache sculpin", "thumb": "tn_Trmur_u3.jpg", "sprite": "sp-anchoviella_juruasanga.png", "group": "other"}, {"id": "126758", "name": "Atlantic wolffish", "thumb": "tn_Anlup_u8.jpg", "sprite": "sp-anchoviella_juruasanga.png", "group": "other"}], "filterAggs": {"waterType": {"Saltwater": 7}, "bodyGroup": {"other": 4, "fish": 3}}, "groupDistribution": [{"group": "other", "count": 4}, {"group": "cod", "count": 1}, {"group": "hagfish", "count": 1}, {"group": "flatfish", "count": 1}]}, {"lat": 63.92, "lng": -54.45, "count": 7, "topItems": [{"id": "126758", "name": "Atlantic wolffish", "thumb": "tn_Anlup_u8.jpg", "sprite": "sp-anchoviella_juruasanga.png", "group": "other"}, {"id": "127338", "name": "Sloane's viperfish", "thumb": "tn_Chslo_u5.jpg", "sprite": "sp-anchoviella_juruasanga.png", "group": "other"}, {"id": "1019159", "name": "Sailray", "thumb": "tn_Dilin_u3.jpg", "sprite": "sp-himantura_australis.png", "group": "ray"}, {"id": "126757", "name": "Northern wolffish", "thumb": "tn_Anden_u5.jpg", "sprite": "sp-anchoviella_juruasanga.png", "group": "other"}, {"id": "127137", "name": "American plaice", "thumb": "tn_Hipla_u3.jpg", "sprite": "sp-atlantic_halibut.png", "group": "flatfish"}, {"id": "183289", "name": "Marlin-spike grenadier", "thumb": "tn_Nebai_u0.jpg", "sprite": "sp-anchoviella_juruasanga.png", "group": "other"}, {"id": "127144", "name": "Greenland halibut", "thumb": "tn_Rehip_u1.jpg", "sprite": "sp-atlantic_halibut.png", "group": "flatfish"}], "filterAggs": {"waterType": {"Saltwater": 7}, "bodyGroup": {"other": 4, "fish": 3}}, "groupDistribution": [{"group": "other", "count": 4}, {"group": "flatfish", "count": 2}, {"group": "ray", "count": 1}]}, {"lat": 63.27, "lng": -53.67, "count": 7, "topItems": [{"id": "126437", "name": "Haddock", "thumb": "tn_Meaeg_u1.jpg", "sprite": "sp-arctogadus.png", "group": "cod"}, {"id": "126580", "name": "Glacier lantern fish", "thumb": "tn_Begla_u1.jpg", "sprite": "sp-anchoviella_juruasanga.png", "group": "other"}, {"id": "126493", "name": "North Atlantic codling", "thumb": "tn_Leequ_u5.jpg", "sprite": "sp-anchoviella_juruasanga.png", "group": "other"}, {"id": "126719", "name": "Goiter blacksmelt", "thumb": "tn_Baeur_u1.jpg", "sprite": "sp-anchoviella_juruasanga.png", "group": "other"}, {"id": "126328", "name": "Kaup's arrowtooth eel", "thumb": "tn_Sykau_u2.jpg", "sprite": "sp-electric_eel.png", "group": "eel"}, {"id": "151324", "name": "Golden redfish", "thumb": "tn_Semar_ub.jpg", "sprite": "sp-anchoviella_juruasanga.png", "group": "other"}, {"id": "127214", "name": "Lumpfish", "thumb": "tn_Cylum_u1.jpg", "sprite": "sp-anchoviella_juruasanga.png", "group": "other"}], "filterAggs": {"waterType": {"Saltwater": 7}, "bodyGroup": {"other": 5, "fish": 2}}, "groupDistribution": [{"group": "other", "count": 5}, {"group": "cod", "count": 1}, {"group": "eel", "count": 1}]}, {"lat": 65.76, "lng": -55.62, "count": 6, "topItems": [{"id": "151324", "name": "Golden redfish", "thumb": "tn_Semar_ub.jpg", "sprite": "sp-anchoviella_juruasanga.png", "group": "other"}, {"id": "158960", "name": "Roundnose grenadier", "thumb": "tn_Corup_u0.jpg", "sprite": "sp-anchoviella_juruasanga.png", "group": "other"}, {"id": "126472", "name": "Roughhead grenadier", "thumb": "tn_Maber_u1.jpg", "sprite": "sp-anchoviella_juruasanga.png", "group": "other"}, {"id": "127144", "name": "Greenland halibut", "thumb": "tn_Rehip_u1.jpg", "sprite": "sp-atlantic_halibut.png", "group": "flatfish"}, {"id": "127137", "name": "American plaice", "thumb": "tn_Hipla_u3.jpg", "sprite": "sp-atlantic_halibut.png", "group": "flatfish"}, {"id": "105906", "name": "Black dogfish", "thumb": "tn_Cefab_u0.jpg", "sprite": "sp-great_white_shark.png", "group": "shark"}], "filterAggs": {"waterType": {"Saltwater": 6}, "bodyGroup": {"other": 3, "fish": 3}}, "groupDistribution": [{"group": "other", "count": 3}, {"group": "flatfish", "count": 2}, {"group": "shark", "count": 1}]}, {"lat": 65.81, "lng": -55.99, "count": 7, "topItems": [{"id": "126757", "name": "Northern wolffish", "thumb": "tn_Anden_u5.jpg", "sprite": "sp-anchoviella_juruasanga.png", "group": "other"}, {"id": "126643", "name": "Snubnosed spiny eel", "thumb": "tn_Noche_u0.jpg", "sprite": "sp-anchoviella_juruasanga.png", "group": "other"}, {"id": "126447", "name": "Cusk", "thumb": "tn_Brbro_u2.jpg", "sprite": "sp-anchoviella_juruasanga.png", "group": "other"}, {"id": "127235", "name": "Polar sculpin", "thumb": "tn_Comic_u0.jpg", "sprite": "sp-anchoviella_juruasanga.png", "group": "other"}, {"id": "127138", "name": "Atlantic halibut", "thumb": "tn_Hihip_u3.jpg", "sprite": "sp-atlantic_halibut.png", "group": "flatfish"}, {"id": "126758", "name": "Atlantic wolffish", "thumb": "tn_Anlup_u8.jpg", "sprite": "sp-anchoviella_juruasanga.png", "group": "other"}, {"id": "127217", "name": "Atlantic spiny lumpsucker", "thumb": "tn_Euspi_u1.jpg", "sprite": "sp-anchoviella_juruasanga.png", "group": "other"}], "filterAggs": {"waterType": {"Saltwater": 7}, "bodyGroup": {"other": 6, "fish": 1}}, "groupDistribution": [{"group": "other", "count": 6}, {"group": "flatfish", "count": 1}]}, {"lat": 64.9, "lng": -55.15, "count": 7, "topItems": [{"id": "127144", "name": "Greenland halibut", "thumb": "tn_Rehip_u1.jpg", "sprite": "sp-atlantic_halibut.png", "group": "flatfish"}, {"id": "105868", "name": "Spinytail skate", "thumb": "tn_Baspi_u0.jpg", "sprite": "sp-himantura_australis.png", "group": "ray"}, {"id": "127374", "name": "Boa dragonfish", "thumb": "tn_Stboa_u1.jpg", "sprite": "sp-anchoviella_juruasanga.png", "group": "other"}, {"id": "272952", "name": "Mentodus mesalirus", "sprite": "sp-anchoviella_juruasanga.png", "group": "other"}, {"id": "126447", "name": "Cusk", "thumb": "tn_Brbro_u2.jpg", "sprite": "sp-anchoviella_juruasanga.png", "group": "other"}, {"id": "105906", "name": "Black dogfish", "thumb": "tn_Cefab_u0.jpg", "sprite": "sp-great_white_shark.png", "group": "shark"}, {"id": "127235", "name": "Polar sculpin", "thumb": "tn_Comic_u0.jpg", "sprite": "sp-anchoviella_juruasanga.png", "group": "other"}], "filterAggs": {"waterType": {"Saltwater": 7}, "bodyGroup": {"other": 4, "fish": 3}}, "groupDistribution": [{"group": "other", "count": 4}, {"group": "flatfish", "count": 1}, {"group": "ray", "count": 1}, {"group": "shark", "count": 1}]}, {"lat": 65.07, "lng": -55.73, "count": 7, "topItems": [{"id": "105878", "name": "Soft skate", "sprite": "sp-himantura_australis.png", "group": "ray"}, {"id": "126643", "name": "Snubnosed spiny eel", "thumb": "tn_Noche_u0.jpg", "sprite": "sp-anchoviella_juruasanga.png", "group": "other"}, {"id": "158960", "name": "Roundnose grenadier", "thumb": "tn_Corup_u0.jpg", "sprite": "sp-anchoviella_juruasanga.png", "group": "other"}, {"id": "126437", "name": "Haddock", "thumb": "tn_Meaeg_u1.jpg", "sprite": "sp-arctogadus.png", "group": "cod"}, {"id": "126328", "name": "Kaup's arrowtooth eel", "thumb": "tn_Sykau_u2.jpg", "sprite": "sp-electric_eel.png", "group": "eel"}, {"id": "127338", "name": "Sloane's viperfish", "thumb": "tn_Chslo_u5.jpg", "sprite": "sp-anchoviella_juruasanga.png", "group": "other"}], "filterAggs": {"waterType": {"Saltwater": 7}, "bodyGroup": {"fish": 4, "other": 3}}, "groupDistribution": [{"group": "other", "count": 3}, {"group": "eel", "count": 2}, {"group": "ray", "count": 1}, {"group": "cod", "count": 1}]}, {"lat": 64.37, "lng": -55.35, "count": 7, "topItems": [{"id": "105894", "name": "Round ray", "thumb": "tn_Rafyl_u0.jpg", "sprite": "sp-himantura_australis.png", "group": "ray"}, {"id": "126472", "name": "Roughhead grenadier", "thumb": "tn_Maber_u1.jpg", "sprite": "sp-anchoviella_juruasanga.png", "group": "other"}, {"id": "126402", "name": "Orange roughy", "thumb": "tn_Hoatl_u2.jpg", "sprite": "sp-anchoviella_juruasanga.png", "group": "other"}, {"id": "127214", "name": "Lumpfish", "thumb": "tn_Cylum_u1.jpg", "sprite": "sp-anchoviella_juruasanga.png", "group": "other"}, {"id": "159266", "name": "Chevron scutepout", "thumb": "tn_Lymir_u0.gif", "sprite": "sp-anchoviella_juruasanga.png", "group": "other"}, {"id": "105877", "name": "Krefft's ray", "sprite": "sp-himantura_australis.png", "group": "ray"}, {"id": "126560", "name": "Can-opener smoothdream", "thumb": "tn_Chlon_u1.jpg", "sprite": "sp-deep_sea_anglerfish.png", "group": "anglerfish"}], "filterAggs": {"waterType": {"Saltwater": 7}, "bodyGroup": {"other": 4, "fish": 3}}, "groupDistribution": [{"group": "other", "count": 4}, {"group": "ray", "count": 2}, {"group": "anglerfish", "count": 1}]}, {"lat": 63.9, "lng": -54.89, "count": 7, "topItems": [{"id": "126328", "name": "Kaup's arrowtooth eel", "thumb": "tn_Sykau_u2.jpg", "sprite": "sp-electric_eel.png", "group": "eel"}, {"id": "105906", "name": "Black dogfish", "thumb": "tn_Cefab_u0.jpg", "sprite": "sp-great_white_shark.png", "group": "shark"}, {"id": "126486", "name": "Blue antimora", "thumb": "tn_Anros_u3.jpg", "sprite": "sp-anchoviella_juruasanga.png", "group": "other"}, {"id": "126472", "name": "Roughhead grenadier", "thumb": "tn_Maber_u1.jpg", "sprite": "sp-anchoviella_juruasanga.png", "group": "other"}, {"id": "127374", "name": "Boa dragonfish", "thumb": "tn_Stboa_u1.jpg", "sprite": "sp-anchoviella_juruasanga.png", "group": "other"}, {"id": "105894", "name": "Round ray", "thumb": "tn_Rafyl_u0.jpg", "sprite": "sp-himantura_australis.png", "group": "ray"}, {"id": "158960", "name": "Roundnose grenadier", "thumb": "tn_Corup_u0.jpg", "sprite": "sp-anchoviella_juruasanga.png", "group": "other"}], "filterAggs": {"waterType": {"Saltwater": 7}, "bodyGroup": {"other": 4, "fish": 3}}, "groupDistribution": [{"group": "other", "count": 4}, {"group": "eel", "count": 1}, {"group": "shark", "count": 1}, {"group": "ray", "count": 1}]}, {"lat": 64.27, "lng": -55.97, "count": 7, "topItems": [{"id": "126349", "name": "Blackfin waryfish", "thumb": "tn_Sclep_u0.jpg", "sprite": "sp-anchoviella_juruasanga.png", "group": "other"}, {"id": "126542", "name": "Gigantactis vanhoeffeni", "thumb": "tn_Givan_u2.jpg", "sprite": "sp-deep_sea_anglerfish.png", "group": "anglerfish"}, {"id": "127334", "name": "Snaggletooth", "thumb": "tn_Boant_u3.jpg", "sprite": "sp-anchoviella_juruasanga.png", "group": "other"}, {"id": "126486", "name": "Blue antimora", "thumb": "tn_Anros_u3.jpg", "sprite": "sp-anchoviella_juruasanga.png", "group": "other"}, {"id": "126757", "name": "Northern wolffish", "thumb": "tn_Anden_u5.jpg", "sprite": "sp-anchoviella_juruasanga.png", "group": "other"}, {"id": "159531", "name": "Pouty seasnail", "thumb": "tn_Pagar_u0.gif", "sprite": "sp-anchoviella_juruasanga.png", "group": "other"}, {"id": "126319", "name": "Stout sawpalate", "thumb": "tn_Sebea_u2.jpg", "sprite": "sp-electric_eel.png", "group": "eel"}], "filterAggs": {"waterType": {"Saltwater": 7}, "bodyGroup": {"other": 5, "fish": 2}}, "groupDistribution": [{"group": "other", "count": 5}, {"group": "anglerfish", "count": 1}, {"group": "eel", "count": 1}]}, {"lat": 63.74, "lng": -56.07, "count": 7, "topItems": [{"id": "126481", "name": "Roughnose grenadier", "thumb": "tn_Trmur_u4.jpg", "sprite": "sp-anchoviella_juruasanga.png", "group": "other"}, {"id": "126617", "name": "Rakery beaconlamp", "thumb": "tn_Lamac_u0.gif", "sprite": "sp-anchoviella_juruasanga.png", "group": "other"}, {"id": "126560", "name": "Can-opener smoothdream", "thumb": "tn_Chlon_u1.jpg", "sprite": "sp-deep_sea_anglerfish.png", "group": "anglerfish"}, {"id": "126840", "name": "Black swallower", "thumb": "tn_Chnig_ue.jpg", "sprite": "sp-anchoviella_juruasanga.png", "group": "other"}, {"id": "126567", "name": "Whalehead dreamer", "thumb": "tn_Loaca_u0.jpg", "sprite": "sp-deep_sea_anglerfish.png", "group": "anglerfish"}, {"id": "272952", "name": "Mentodus mesalirus", "sprite": "sp-anchoviella_juruasanga.png", "group": "other"}, {"id": "126643", "name": "Snubnosed spiny eel", "thumb": "tn_Noche_u0.jpg", "sprite": "sp-anchoviella_juruasanga.png", "group": "other"}], "filterAggs": {"waterType": {"Saltwater": 7}, "bodyGroup": {"other": 5, "fish": 2}}, "groupDistribution": [{"group": "other", "count": 5}, {"group": "anglerfish", "count": 2}]}], "points": [{"lat": 64.4476, "lng": -52.8831, "id": "137173", "name": "Stercorarius pomarinus", "sprite": "sp-anchoviella_juruasanga.png", "group": "other", "rarity": 1}, {"lat": 64.345, "lng": -51.285, "id": "101734", "name": "Dulichia", "sprite": "sp-american_lobster.png", "group": "crab_lobster", "rarity": 1}, {"lat": 64.7496, "lng": -53.0835, "id": "104074", "name": "Acartiidae", "sprite": "sp-anchoviella_juruasanga.png", "group": "other", "rarity": 1}, {"lat": 64.4567, "lng": -51.1, "id": "129270", "name": "Parougia", "sprite": "sp-anchoviella_juruasanga.png", "group": "other", "rarity": 1}, {"lat": 65.9795, "lng": -54.0013, "id": "137041", "name": "Uria", "sprite": "sp-anchoviella_juruasanga.png", "group": "other", "rarity": 1}, {"lat": 62.0292, "lng": -50.1845, "id": "163348", "name": "Rhizosolenia semispina", "sprite": "sp-anchoviella_juruasanga.png", "group": "other", "rarity": 1}, {"lat": 63.3, "lng": -55.2083, "id": "136495", "name": "Cryptocopoides arcticus", "sprite": "sp-american_lobster.png", "group": "crab_lobster", "rarity": 1}, {"lat": 63.2417, "lng": -52.4387, "id": "102182", "name": "Cleippides tricuspis", "sprite": "sp-american_lobster.png", "group": "crab_lobster", "rarity": 1}, {"lat": 65.48, "lng": -56.24, "id": "1102", "name": "Harpacticoida", "sprite": "sp-anchoviella_juruasanga.png", "group": "other", "rarity": 1}, {"lat": 63.2227, "lng": -52.41, "id": "102510", "name": "Anonyx debruynii", "sprite": "sp-american_lobster.png", "group": "crab_lobster", "rarity": 1}, {"lat": 62.2804, "lng": -54.8273, "id": "137156", "name": "Rissa tridactyla", "sprite": "sp-anchoviella_juruasanga.png", "group": "other", "rarity": 1}, {"lat": 64.1667, "lng": -53.7333, "id": "126758", "name": "Atlantic wolffish", "thumb": "tn_Anlup_u8.jpg", "sprite": "sp-anchoviella_juruasanga.png", "group": "other", "rarity": 1, "waterType": "Saltwater"}, {"lat": 63.1866, "lng": -54.8611, "id": "137145", "name": "Larus hyperboreus", "sprite": "sp-anchoviella_juruasanga.png", "group": "other", "rarity": 1}, {"lat": 64.7433, "lng": -53.0584, "id": "1102", "name": "Harpacticoida", "sprite": "sp-anchoviella_juruasanga.png", "group": "other", "rarity": 1}, {"lat": 64.7233, "lng": -54.0833, "id": "137090", "name": "Balaenoptera musculus", "sprite": "sp-blue_whale.png", "group": "whale", "rarity": 1}, {"lat": 63.2417, "lng": -52.4387, "id": "423725", "name": "Rostroculodes borealis", "sprite": "sp-american_lobster.png", "group": "crab_lobster", "rarity": 1}, {"lat": 62.6485, "lng": -53.8845, "id": "113458", "name": "Neogloboquadrina pachyderma", "sprite": "sp-anchoviella_juruasanga.png", "group": "other", "rarity": 1}, {"lat": 64.4833, "lng": -55.4833, "id": "125656", "name": "Synaphobranchus", "sprite": "sp-electric_eel.png", "group": "eel", "rarity": 1}, {"lat": 63.5935, "lng": -53.6482, "id": "1267", "name": "Cnidaria", "sprite": "sp-anchoviella_juruasanga.png", "group": "other", "rarity": 1}, {"lat": 64.27, "lng": -51.07, "id": "110403", "name": "Leptostylis", "sprite": "sp-american_lobster.png", "group": "crab_lobster", "rarity": 1}, {"lat": 63.88, "lng": -53.37, "id": "129708", "name": "Pista", "sprite": "sp-anchoviella_juruasanga.png", "group": "other", "rarity": 1}, {"lat": 64.55, "lng": -51.115, "id": "154965", "name": "Leaena ebranchiata", "sprite": "sp-anchoviella_juruasanga.png", "group": "other", "rarity": 1}, {"lat": 62.1, "lng": -55.933, "id": "139535", "name": "Fissidentalium candidum", "sprite": "sp-anchoviella_juruasanga.png", "group": "other", "rarity": 1}, {"lat": 63.88, "lng": -53.37, "id": "1268", "name": "Sipuncula", "sprite": "sp-anchoviella_juruasanga.png", "group": "other", "rarity": 1}, {"lat": 64.1772, "lng": -51.5436, "id": "254538", "name": "Pacific cod", "thumb": "tn_Gamac_u9.jpg", "sprite": "sp-arctogadus.png", "group": "cod", "rarity": 1, "waterType": "Brackish"}, {"lat": 63.8465, "lng": -52.261, "id": "137195", "name": "Fulmarus glacialis", "sprite": "sp-anchoviella_juruasanga.png", "group": "other", "rarity": 1}, {"lat": 63.2239, "lng": -52.4181, "id": "101364", "name": "Ampeliscidae", "sprite": "sp-american_lobster.png", "group": "crab_lobster", "rarity": 1}, {"lat": 64.9349, "lng": -54.1341, "id": "137051", "name": "Stercorarius", "sprite": "sp-anchoviella_juruasanga.png", "group": "other", "rarity": 1}, {"lat": 63.2417, "lng": -52.4393, "id": "103188", "name": "Syrrhoe crenulata", "sprite": "sp-american_lobster.png", "group": "crab_lobster", "rarity": 1}, {"lat": 62.2617, "lng": -52.1317, "id": "127144", "name": "Greenland halibut", "thumb": "tn_Rehip_u1.jpg", "sprite": "sp-atlantic_halibut.png", "group": "flatfish", "rarity": 1, "waterType": "Saltwater"}, {"lat": 63.88, "lng": -53.37, "id": "141989", "name": "Yoldia hyperborea", "sprite": "sp-blue_mussel.png", "group": "clam_mussel", "rarity": 1}, {"lat": 64.4567, "lng": -51.1, "id": "130980", "name": "Scalibregma inflatum", "sprite": "sp-anchoviella_juruasanga.png", "group": "other", "rarity": 1}, {"lat": 65.9668, "lng": -52.624, "id": "137128", "name": "Alca torda", "sprite": "sp-anchoviella_juruasanga.png", "group": "other", "rarity": 1}, {"lat": 64.9, "lng": -53.6332, "id": "1470813", "name": "Spectrarcturus murdochi", "sprite": "sp-american_lobster.png", "group": "crab_lobster", "rarity": 1}, {"lat": 64.7496, "lng": -53.0835, "id": "103356", "name": "Oikopleuridae", "sprite": "sp-anchoviella_juruasanga.png", "group": "other", "rarity": 1}, {"lat": 63.8, "lng": -51.5667, "id": "137188", "name": "Gavia stellata", "sprite": "sp-anchoviella_juruasanga.png", "group": "other", "rarity": 1}, {"lat": 65.0167, "lng": -53.1167, "id": "127118", "name": "Vahl's eelpout", "thumb": "tn_Lyvah_u0.gif", "sprite": "sp-anchoviella_juruasanga.png", "group": "other", "rarity": 1, "waterType": "Saltwater"}, {"lat": 65.4, "lng": -56.11, "id": "104164", "name": "Microcalanus", "sprite": "sp-anchoviella_juruasanga.png", "group": "other", "rarity": 1}, {"lat": 61.874, "lng": -50.237, "id": "101702", "name": "Pontocrates", "sprite": "sp-american_lobster.png", "group": "crab_lobster", "rarity": 1}, {"lat": 63.92, "lng": -53.12, "id": "138818", "name": "Astarte borealis", "sprite": "sp-blue_mussel.png", "group": "clam_mussel", "rarity": 1}, {"lat": 63.88, "lng": -53.37, "id": "110511", "name": "Hemilamprops cristatus", "sprite": "sp-american_lobster.png", "group": "crab_lobster", "rarity": 1}, {"lat": 64.67, "lng": -50.28, "id": "154965", "name": "Leaena ebranchiata", "sprite": "sp-anchoviella_juruasanga.png", "group": "other", "rarity": 1}, {"lat": 63.0, "lng": -53.0, "id": "126645", "name": "Smallmouth spiny eel", "thumb": "tn_Poris_u2.jpg", "sprite": "sp-anchoviella_juruasanga.png", "group": "other", "rarity": 1, "waterType": "Saltwater"}, {"lat": 63.88, "lng": -53.37, "id": "578349", "name": "Neopolynoe acanellae", "sprite": "sp-anchoviella_juruasanga.png", "group": "other", "rarity": 1}, {"lat": 63.2239, "lng": -52.4181, "id": "102722", "name": "Socarnes bidenticulatus", "sprite": "sp-american_lobster.png", "group": "crab_lobster", "rarity": 1}, {"lat": 63.3931, "lng": -51.9667, "id": "148912", "name": "Thalassiosira", "sprite": "sp-anchoviella_juruasanga.png", "group": "other", "rarity": 1}, {"lat": 63.9, "lng": -53.245, "id": "129445", "name": "Eulalia", "sprite": "sp-anchoviella_juruasanga.png", "group": "other", "rarity": 1}, {"lat": 62.1845, "lng": -51.9791, "id": "151324", "name": "Golden redfish", "thumb": "tn_Semar_ub.jpg", "sprite": "sp-anchoviella_juruasanga.png", "group": "other", "rarity": 1, "waterType": "Saltwater"}, {"lat": 64.05, "lng": -52.17, "id": "110616", "name": "Leucon (Leucon) fulvus", "sprite": "sp-american_lobster.png", "group": "crab_lobster", "rarity": 1}, {"lat": 63.5814, "lng": -53.6947, "id": "125815", "name": "Benthosema", "sprite": "sp-anchoviella_juruasanga.png", "group": "other", "rarity": 1}, {"lat": 64.7725, "lng": -54.8625, "id": "126154", "name": "Triglops", "sprite": "sp-anchoviella_juruasanga.png", "group": "other", "rarity": 1}, {"lat": 62.25, "lng": -51.133, "id": "124149", "name": "Pteraster obscurus", "sprite": "sp-sea_cucumber.png", "group": "starfish", "rarity": 1}, {"lat": 64.27, "lng": -51.07, "id": "130604", "name": "Pholoe pallida", "sprite": "sp-anchoviella_juruasanga.png", "group": "other", "rarity": 1}, {"lat": 64.7883, "lng": -53.8133, "id": "370366", "name": "Chaetoceros (Hyalochaete)", "sprite": "sp-anchoviella_juruasanga.png", "group": "other", "rarity": 1}, {"lat": 64.183, "lng": -51.75, "id": "138135", "name": "Littorina", "sprite": "sp-cowrie_shell.png", "group": "sea_snail", "rarity": 1}, {"lat": 63.932, "lng": -52.892, "id": "129430", "name": "Aricidea", "sprite": "sp-anchoviella_juruasanga.png", "group": "other", "rarity": 1}, {"lat": 64.9, "lng": -53.633, "id": "169545", "name": "Tedania (Tedania)", "sprite": "sp-barrel_sponge.png", "group": "sponge", "rarity": 1}, {"lat": 63.2418, "lng": -52.4377, "id": "1596968", "name": "Eusirus propinqvus", "sprite": "sp-american_lobster.png", "group": "crab_lobster", "rarity": 1}, {"lat": 61.7491, "lng": -50.205, "id": "2081", "name": "Chaetognatha", "sprite": "sp-anchoviella_juruasanga.png", "group": "other", "rarity": 1}, {"lat": 63.2417, "lng": -52.4387, "id": "102421", "name": "Ischyrocerus megalops", "sprite": "sp-american_lobster.png", "group": "crab_lobster", "rarity": 1}, {"lat": 61.86, "lng": -53.04, "id": "156451", "name": "Themisto compressa", "sprite": "sp-american_lobster.png", "group": "crab_lobster", "rarity": 1}, {"lat": 64.345, "lng": -51.285, "id": "140584", "name": "Ennucula tenuis", "sprite": "sp-blue_mussel.png", "group": "clam_mussel", "rarity": 1}, {"lat": 61.8703, "lng": -50.2352, "id": "101409", "name": "Stenothoidae", "sprite": "sp-american_lobster.png", "group": "crab_lobster", "rarity": 1}, {"lat": 63.98, "lng": -52.6733, "id": "140431", "name": "Mya truncata", "sprite": "sp-blue_mussel.png", "group": "clam_mussel", "rarity": 1}, {"lat": 64.67, "lng": -50.28, "id": "131164", "name": "Prionospio steenstrupi", "sprite": "sp-anchoviella_juruasanga.png", "group": "other", "rarity": 1}, {"lat": 65.448, "lng": -56.188, "id": "1509944", "name": "Scolecithricella minor minor", "sprite": "sp-anchoviella_juruasanga.png", "group": "other", "rarity": 1}, {"lat": 64.5333, "lng": -51.0975, "id": "125775", "name": "Gasterosteus", "sprite": "sp-anchoviella_juruasanga.png", "group": "other", "rarity": 1}, {"lat": 61.874, "lng": -50.237, "id": "101361", "name": "Caprellidae", "sprite": "sp-american_lobster.png", "group": "crab_lobster", "rarity": 1}, {"lat": 61.86, "lng": -53.04, "id": "104467", "name": "Calanus hyperboreus", "sprite": "sp-anchoviella_juruasanga.png", "group": "other", "rarity": 1}, {"lat": 64.83, "lng": -54.78, "id": "126433", "name": "Polar cod", "thumb": "tn_Bosai_u0.jpg", "sprite": "sp-arctogadus.png", "group": "cod", "rarity": 1, "waterType": "Brackish"}, {"lat": 63.88, "lng": -53.37, "id": "130548", "name": "Aricidea abranchiata", "sprite": "sp-anchoviella_juruasanga.png", "group": "other", "rarity": 1}, {"lat": 63.92, "lng": -53.12, "id": "129669", "name": "Pionosyllis", "sprite": "sp-anchoviella_juruasanga.png", "group": "other", "rarity": 1}, {"lat": 63.88, "lng": -53.37, "id": "130141", "name": "Goniada norvegica", "sprite": "sp-anchoviella_juruasanga.png", "group": "other", "rarity": 1}, {"lat": 63.92, "lng": -53.12, "id": "1803", "name": "Brachiopoda", "sprite": "sp-anchoviella_juruasanga.png", "group": "other", "rarity": 1}, {"lat": 63.985, "lng": -52.645, "id": "130889", "name": "Chone fauveli", "sprite": "sp-anchoviella_juruasanga.png", "group": "other", "rarity": 1}, {"lat": 63.2105, "lng": -52.4033, "id": "101972", "name": "Amphilochus tenuimanus", "sprite": "sp-american_lobster.png", "group": "crab_lobster", "rarity": 1}, {"lat": 63.905, "lng": -52.9, "id": "130695", "name": "Ancistrosyllis groenlandica", "sprite": "sp-anchoviella_juruasanga.png", "group": "other", "rarity": 1}, {"lat": 63.4226, "lng": -52.5208, "id": "103259", "name": "Themisto abyssorum", "sprite": "sp-american_lobster.png", "group": "crab_lobster", "rarity": 1}, {"lat": 64.4567, "lng": -51.1, "id": "157398", "name": "Glyphanostomum pallescens", "sprite": "sp-anchoviella_juruasanga.png", "group": "other", "rarity": 1}, {"lat": 65.0571, "lng": -54.2071, "id": "137041", "name": "Uria", "sprite": "sp-anchoviella_juruasanga.png", "group": "other", "rarity": 1}, {"lat": 62.3309, "lng": -50.4643, "id": "137146", "name": "Larus marinus", "sprite": "sp-anchoviella_juruasanga.png", "group": "other", "rarity": 1}, {"lat": 63.93, "lng": -52.43, "id": "130356", "name": "Nephtys ciliata", "sprite": "sp-anchoviella_juruasanga.png", "group": "other", "rarity": 1}, {"lat": 63.4471, "lng": -51.7677, "id": "840626", "name": "Tripos fusus", "sprite": "sp-anchoviella_juruasanga.png", "group": "other", "rarity": 1}, {"lat": 66.0027, "lng": -55.0364, "id": "137090", "name": "Balaenoptera musculus", "sprite": "sp-blue_whale.png", "group": "whale", "rarity": 1}, {"lat": 63.5935, "lng": -53.6482, "id": "106829", "name": "Sergestes", "sprite": "sp-american_lobster.png", "group": "crab_lobster", "rarity": 1}, {"lat": 61.874, "lng": -50.237, "id": "719474", "name": "Corophiida", "sprite": "sp-american_lobster.png", "group": "crab_lobster", "rarity": 1}, {"lat": 62.4167, "lng": -50.9667, "id": "127828", "name": "Obtusoecia obtusata", "sprite": "sp-anchoviella_juruasanga.png", "group": "other", "rarity": 1}, {"lat": 63.624, "lng": -54.534, "id": "125517", "name": "Anarhichadidae", "sprite": "sp-anchoviella_juruasanga.png", "group": "other", "rarity": 1}, {"lat": 61.683, "lng": -50.2, "id": "124149", "name": "Pteraster obscurus", "sprite": "sp-sea_cucumber.png", "group": "starfish", "rarity": 1}, {"lat": 63.0889, "lng": -51.3628, "id": "149629", "name": "Rhizosolenia styliformis", "sprite": "sp-anchoviella_juruasanga.png", "group": "other", "rarity": 1}, {"lat": 62.6667, "lng": -54.7333, "id": "136185", "name": "Apseudes", "sprite": "sp-american_lobster.png", "group": "crab_lobster", "rarity": 1}, {"lat": 63.945, "lng": -52.925, "id": "140238", "name": "Limatula hyperborea", "sprite": "sp-blue_mussel.png", "group": "clam_mussel", "rarity": 1}, {"lat": 64.3125, "lng": -48.3, "id": "130739", "name": "Enipo torelli", "sprite": "sp-anchoviella_juruasanga.png", "group": "other", "rarity": 1}, {"lat": 61.874, "lng": -50.237, "id": "102067", "name": "Astyra abyssi", "sprite": "sp-american_lobster.png", "group": "crab_lobster", "rarity": 1}, {"lat": 64.0, "lng": -55.8167, "id": "422886", "name": "Somateria fischeri", "sprite": "sp-anchoviella_juruasanga.png", "group": "other", "rarity": 1}, {"lat": 64.9, "lng": -53.633, "id": "131543", "name": "Thelepus cincinnatus", "sprite": "sp-anchoviella_juruasanga.png", "group": "other", "rarity": 1}, {"lat": 63.5693, "lng": -53.7412, "id": "1371", "name": "Siphonophorae", "sprite": "sp-anchoviella_juruasanga.png", "group": "other", "rarity": 1}, {"lat": 64.27, "lng": -51.07, "id": "130537", "name": "Scoloplos armiger", "sprite": "sp-anchoviella_juruasanga.png", "group": "other", "rarity": 1}, {"lat": 64.55, "lng": -51.115, "id": "130305", "name": "Maldane sarsi", "sprite": "sp-anchoviella_juruasanga.png", "group": "other", "rarity": 1}, {"lat": 63.41, "lng": -52.0217, "id": "1806", "name": "Echinodermata", "sprite": "sp-sea_cucumber.png", "group": "starfish", "rarity": 1}, {"lat": 65.2333, "lng": -55.2, "id": "234519", "name": "Liparidae", "sprite": "sp-anchoviella_juruasanga.png", "group": "other", "rarity": 1}, {"lat": 63.3602, "lng": -52.0981, "id": "157083", "name": "Thalassiothrix longissima", "sprite": "sp-anchoviella_juruasanga.png", "group": "other", "rarity": 1}, {"lat": 63.2418, "lng": -52.4377, "id": "101700", "name": "Paroediceros", "sprite": "sp-american_lobster.png", "group": "crab_lobster", "rarity": 1}, {"lat": 63.7903, "lng": -52.1416, "id": "137146", "name": "Larus marinus", "sprite": "sp-anchoviella_juruasanga.png", "group": "other", "rarity": 1}, {"lat": 62.5867, "lng": -55.6222, "id": "137129", "name": "Alle alle", "sprite": "sp-anchoviella_juruasanga.png", "group": "other", "rarity": 1}, {"lat": 65.9834, "lng": -54.0195, "id": "137051", "name": "Stercorarius", "sprite": "sp-anchoviella_juruasanga.png", "group": "other", "rarity": 1}, {"lat": 65.4123, "lng": -52.8984, "id": "254538", "name": "Pacific cod", "thumb": "tn_Gamac_u9.jpg", "sprite": "sp-arctogadus.png", "group": "cod", "rarity": 1, "waterType": "Brackish"}, {"lat": 63.2417, "lng": -52.4387, "id": "101403", "name": "Phoxocephalidae", "sprite": "sp-american_lobster.png", "group": "crab_lobster", "rarity": 1}, {"lat": 64.9896, "lng": -53.8792, "id": "137169", "name": "Phalaropus lobatus", "sprite": "sp-anchoviella_juruasanga.png", "group": "other", "rarity": 1}, {"lat": 64.27, "lng": -51.07, "id": "110489", "name": "Diastylis scorpioides", "sprite": "sp-american_lobster.png", "group": "crab_lobster", "rarity": 1}, {"lat": 63.09, "lng": -51.4833, "id": "1205", "name": "Hyperiidea", "sprite": "sp-american_lobster.png", "group": "crab_lobster", "rarity": 1}, {"lat": 61.8691, "lng": -50.2346, "id": "101453", "name": "Gitanopsis", "sprite": "sp-american_lobster.png", "group": "crab_lobster", "rarity": 1}, {"lat": 64.0172, "lng": -52.2933, "id": "137049", "name": "Phalaropus", "sprite": "sp-anchoviella_juruasanga.png", "group": "other", "rarity": 1}, {"lat": 63.6477, "lng": -55.3183, "id": "137165", "name": "Sterna paradisaea", "sprite": "sp-anchoviella_juruasanga.png", "group": "other", "rarity": 1}, {"lat": 63.88, "lng": -53.37, "id": "129984", "name": "Cossura longocirrata", "sprite": "sp-anchoviella_juruasanga.png", "group": "other", "rarity": 1}, {"lat": 63.5, "lng": -54.4167, "id": "102481", "name": "Liljeborgia fissicornis", "sprite": "sp-american_lobster.png", "group": "crab_lobster", "rarity": 1}, {"lat": 65.4, "lng": -56.11, "id": "13795", "name": "Epicaridea", "sprite": "sp-american_lobster.png", "group": "crab_lobster", "rarity": 1}, {"lat": 63.99, "lng": -52.3, "id": "157317", "name": "Cistenides hyperborea", "sprite": "sp-anchoviella_juruasanga.png", "group": "other", "rarity": 1}, {"lat": 63.6389, "lng": -51.6278, "id": "136973", "name": "Anatidae", "sprite": "sp-anchoviella_juruasanga.png", "group": "other", "rarity": 1}, {"lat": 63.4889, "lng": -54.7144, "id": "134033", "name": "Geodia macandrewii", "sprite": "sp-barrel_sponge.png", "group": "sponge", "rarity": 1}]}