{"zoom": 5, "x": 12, "y": 24, "clusters": [{"lat": -68.3, "lng": -37.85, "count": 2, "topItems": [{"id": "234709", "name": "Sharp-spined notothenia", "thumb": "tn_Trpen_u0.jpg", "sprite": "sp-anchoviella_juruasanga.png", "group": "other"}, {"id": "234702", "name": "Holcomycteronus brucei", "sprite": "sp-anchoviella_juruasanga.png", "group": "other"}], "filterAggs": {"waterType": {"Saltwater": 2}, "bodyGroup": {"other": 2}}, "groupDistribution": [{"group": "other", "count": 2}]}], "points": [{"lat": -68.1627, "lng": -38.0433, "id": "137165", "name": "Sterna paradisaea", "sprite": "sp-anchoviella_juruasanga.png", "group": "other", "rarity": 1}, {"lat": -67.0, "lng": -44.0667, "id": "137217", "name": "Salpidae", "sprite": "sp-anchoviella_juruasanga.png", "group": "other", "rarity": 1}, {"lat": -66.9719, "lng": -40.7689, "id": "137165", "name": "Sterna paradisaea", "sprite": "sp-anchoviella_juruasanga.png", "group": "other", "rarity": 1}, {"lat": -70.1167, "lng": -39.6333, "id": "174950", "name": "Lysilla macintoshi", "sprite": "sp-anchoviella_juruasanga.png", "group": "other", "rarity": 1}, {"lat": -68.1767, "lng": -40.1362, "id": "195932", "name": "Leptonychotes weddellii", "sprite": "sp-elephant_seal.png", "group": "seal", "rarity": 1}, {"lat": -69.15, "lng": -37.15, "id": "225773", "name": "Aptenodytes forsteri", "sprite": "sp-anchoviella_juruasanga.png", "group": "other", "rarity": 1}, {"lat": -69.1164, "lng": -40.9514, "id": "225757", "name": "Pygoscelis adeliae", "sprite": "sp-anchoviella_juruasanga.png", "group": "other", "rarity": 1}, {"lat": -68.75, "lng": -39.65, "id": "225772", "name": "Pagodroma nivea", "sprite": "sp-anchoviella_juruasanga.png", "group": "other", "rarity": 1}, {"lat": -68.15, "lng": -40.383, "id": "212649", "name": "Pachyptila desolata", "sprite": "sp-anchoviella_juruasanga.png", "group": "other", "rarity": 1}, {"lat": -70.1167, "lng": -39.6333, "id": "174610", "name": "Jasmineira regularis", "sprite": "sp-anchoviella_juruasanga.png", "group": "other", "rarity": 1}, {"lat": -70.1167, "lng": -39.6333, "id": "129898", "name": "Notomastus latericeus", "sprite": "sp-anchoviella_juruasanga.png", "group": "other", "rarity": 1}, {"lat": -69.0, "lng": -41.0, "id": "341296", "name": "Cymatocylis", "sprite": "sp-anchoviella_juruasanga.png", "group": "other", "rarity": 1}, {"lat": -70.1167, "lng": -39.6333, "id": "334648", "name": "Psamathe fauveli", "sprite": "sp-anchoviella_juruasanga.png", "group": "other", "rarity": 1}, {"lat": -69.5617, "lng": -34.565, "id": "328028", "name": "Fauveliopsis challengeriae", "sprite": "sp-anchoviella_juruasanga.png", "group": "other", "rarity": 1}, {"lat": -70.3802, "lng": -38.3109, "id": "195932", "name": "Leptonychotes weddellii", "sprite": "sp-elephant_seal.png", "group": "seal", "rarity": 1}, {"lat": -68.8, "lng": -39.49, "id": "137165", "name": "Sterna paradisaea", "sprite": "sp-anchoviella_juruasanga.png", "group": "other", "rarity": 1}, {"lat": -68.9589, "lng": -41.4397, "id": "180759", "name": "Primno macropa", "sprite": "sp-american_lobster.png", "group": "crab_lobster", "rarity": 1}, {"lat": -70.1167, "lng": -39.6333, "id": "174925", "name": "Eupistella grubei", "sprite": "sp-anchoviella_juruasanga.png", "group": "other", "rarity": 1}, {"lat": -68.1279, "lng": -34.976, "id": "231413", "name": "Mirounga leonina", "sprite": "sp-elephant_seal.png", "group": "seal", "rarity": 1}, {"lat": -67.7833, "lng": -43.6667, "id": "173128", "name": "Isosicyonis alba", "sprite": "sp-actiniidae.png", "group": "coral", "rarity": 1}, {"lat": -70.1167, "lng": -39.6333, "id": "173688", "name": "Aglaophamus posterobranchus", "sprite": "sp-anchoviella_juruasanga.png", "group": "other", "rarity": 1}, {"lat": -70.1167, "lng": -39.6333, "id": "173355", "name": "Ilyphagus antarcticus", "sprite": "sp-anchoviella_juruasanga.png", "group": "other", "rarity": 1}, {"lat": -70.1167, "lng": -39.6333, "id": "173359", "name": "Ilyphagus cristatus", "sprite": "sp-anchoviella_juruasanga.png", "group": "other", "rarity": 1}, {"lat": -70.162, "lng": -35.0077, "id": "195932", "name": "Leptonychotes weddellii", "sprite": "sp-elephant_seal.png", "group": "seal", "rarity": 1}, {"lat": -69.0, "lng": -41.0, "id": "341657", "name": "Codonellopsis balechi", "sprite": "sp-anchoviella_juruasanga.png", "group": "other", "rarity": 1}, {"lat": -70.1167, "lng": -39.6333, "id": "130542", "name": "Myriochele heeri", "sprite": "sp-anchoviella_juruasanga.png", "group": "other", "rarity": 1}, {"lat": -70.1167, "lng": -39.6333, "id": "172923", "name": "Neosabellides elongatus", "sprite": "sp-anchoviella_juruasanga.png", "group": "other", "rarity": 1}, {"lat": -70.1167, "lng": -39.6333, "id": "174800", "name": "Laonice antarcticae", "sprite": "sp-anchoviella_juruasanga.png", "group": "other", "rarity": 1}, {"lat": -69.219, "lng": -40.734, "id": "195932", "name": "Leptonychotes weddellii", "sprite": "sp-elephant_seal.png", "group": "seal", "rarity": 1}, {"lat": -69.166, "lng": -35.55, "id": "137165", "name": "Sterna paradisaea", "sprite": "sp-anchoviella_juruasanga.png", "group": "other", "rarity": 1}, {"lat": -69.1613, "lng": -42.6328, "id": "225757", "name": "Pygoscelis adeliae", "sprite": "sp-anchoviella_juruasanga.png", "group": "other", "rarity": 1}, {"lat": -70.1167, "lng": -39.6333, "id": "536464", "name": "Phyllodoce patagonica", "sprite": "sp-anchoviella_juruasanga.png", "group": "other", "rarity": 1}, {"lat": -69.3305, "lng": -42.5645, "id": "195932", "name": "Leptonychotes weddellii", "sprite": "sp-elephant_seal.png", "group": "seal", "rarity": 1}, {"lat": -70.1167, "lng": -39.6333, "id": "174663", "name": "Serpula narconensis", "sprite": "sp-anchoviella_juruasanga.png", "group": "other", "rarity": 1}, {"lat": -68.75, "lng": -39.65, "id": "212639", "name": "Thalassoica antarctica", "sprite": "sp-anchoviella_juruasanga.png", "group": "other", "rarity": 1}, {"lat": -67.167, "lng": -43.8344, "id": "225757", "name": "Pygoscelis adeliae", "sprite": "sp-anchoviella_juruasanga.png", "group": "other", "rarity": 1}, {"lat": -66.925, "lng": -34.802, "id": "137165", "name": "Sterna paradisaea", "sprite": "sp-anchoviella_juruasanga.png", "group": "other", "rarity": 1}, {"lat": -70.1167, "lng": -39.6333, "id": "130513", "name": "Leitoscoloplos kerguelensis", "sprite": "sp-anchoviella_juruasanga.png", "group": "other", "rarity": 1}, {"lat": -68.6164, "lng": -36.0975, "id": "195932", "name": "Leptonychotes weddellii", "sprite": "sp-elephant_seal.png", "group": "seal", "rarity": 1}, {"lat": -69.0, "lng": -41.0, "id": "417230", "name": "Salpingella faurei", "sprite": "sp-anchoviella_juruasanga.png", "group": "other", "rarity": 1}, {"lat": -67.93, "lng": -43.285, "id": "137165", "name": "Sterna paradisaea", "sprite": "sp-anchoviella_juruasanga.png", "group": "other", "rarity": 1}, {"lat": -69.0533, "lng": -39.1233, "id": "234566", "name": "Trematomus", "sprite": "sp-anchoviella_juruasanga.png", "group": "other", "rarity": 1}, {"lat": -66.6363, "lng": -38.158, "id": "343995", "name": "Thalassarche melanophris", "sprite": "sp-anchoviella_juruasanga.png", "group": "other", "rarity": 1}, {"lat": -70.1167, "lng": -39.6333, "id": "173369", "name": "Glycera kerguelensis", "sprite": "sp-anchoviella_juruasanga.png", "group": "other", "rarity": 1}, {"lat": -69.7283, "lng": -42.6364, "id": "195932", "name": "Leptonychotes weddellii", "sprite": "sp-elephant_seal.png", "group": "seal", "rarity": 1}, {"lat": -67.2553, "lng": -41.5967, "id": "225757", "name": "Pygoscelis adeliae", "sprite": "sp-anchoviella_juruasanga.png", "group": "other", "rarity": 1}, {"lat": -70.1167, "lng": -39.6333, "id": "174749", "name": "Ephesiella antarctica", "sprite": "sp-anchoviella_juruasanga.png", "group": "other", "rarity": 1}, {"lat": -70.1167, "lng": -39.6333, "id": "130464", "name": "Hyalinoecia tubicola", "sprite": "sp-anchoviella_juruasanga.png", "group": "other", "rarity": 1}, {"lat": -66.6667, "lng": -40.5833, "id": "160802", "name": "Delopatagus brucei", "sprite": "sp-sea_cucumber.png", "group": "starfish", "rarity": 1}, {"lat": -67.9819, "lng": -41.0544, "id": "225757", "name": "Pygoscelis adeliae", "sprite": "sp-anchoviella_juruasanga.png", "group": "other", "rarity": 1}, {"lat": -70.217, "lng": -34.283, "id": "137190", "name": "Oceanites oceanicus", "sprite": "sp-anchoviella_juruasanga.png", "group": "other", "rarity": 1}, {"lat": -68.15, "lng": -40.383, "id": "225772", "name": "Pagodroma nivea", "sprite": "sp-anchoviella_juruasanga.png", "group": "other", "rarity": 1}, {"lat": -70.1167, "lng": -39.6333, "id": "266900", "name": "Terebellides kerguelensis", "sprite": "sp-anchoviella_juruasanga.png", "group": "other", "rarity": 1}, {"lat": -68.75, "lng": -39.65, "id": "212649", "name": "Pachyptila desolata", "sprite": "sp-anchoviella_juruasanga.png", "group": "other", "rarity": 1}, {"lat": -70.1167, "lng": -39.6333, "id": "174564", "name": "Euchone pallida", "sprite": "sp-anchoviella_juruasanga.png", "group": "other", "rarity": 1}, {"lat": -70.1167, "lng": -39.6333, "id": "155221", "name": "Austrolaenilla antarctica", "sprite": "sp-anchoviella_juruasanga.png", "group": "other", "rarity": 1}, {"lat": -67.0, "lng": -44.0667, "id": "236217", "name": "Euphausia superba", "sprite": "sp-antarctic_krill.png", "group": "shrimp", "rarity": 1}, {"lat": -68.4036, "lng": -38.7957, "id": "195932", "name": "Leptonychotes weddellii", "sprite": "sp-elephant_seal.png", "group": "seal", "rarity": 1}, {"lat": -70.217, "lng": -34.283, "id": "225773", "name": "Aptenodytes forsteri", "sprite": "sp-anchoviella_juruasanga.png", "group": "other", "rarity": 1}, {"lat": -70.1167, "lng": -39.6333, "id": "236658", "name": "Antarctinoe spicoides", "sprite": "sp-anchoviella_juruasanga.png", "group": "other", "rarity": 1}, {"lat": -70.1167, "lng": -39.6333, "id": "173263", "name": "Euphrosine cirrata magellanica", "sprite": "sp-anchoviella_juruasanga.png", "group": "other", "rarity": 1}, {"lat": -68.1172, "lng": -37.0339, "id": "244642", "name": "Neotanais antarcticus", "sprite": "sp-american_lobster.png", "group": "crab_lobster", "rarity": 1}, {"lat": -70.2133, "lng": -38.0033, "id": "137165", "name": "Sterna paradisaea", "sprite": "sp-anchoviella_juruasanga.png", "group": "other", "rarity": 1}, {"lat": -68.75, "lng": -39.65, "id": "212638", "name": "Fulmarus glacialoides", "sprite": "sp-anchoviella_juruasanga.png", "group": "other", "rarity": 1}, {"lat": -68.0236, "lng": -43.1108, "id": "180759", "name": "Primno macropa", "sprite": "sp-american_lobster.png", "group": "crab_lobster", "rarity": 1}, {"lat": -70.0, "lng": -39.5, "id": "341296", "name": "Cymatocylis", "sprite": "sp-anchoviella_juruasanga.png", "group": "other", "rarity": 1}, {"lat": -69.0533, "lng": -39.1233, "id": "234709", "name": "Sharp-spined notothenia", "thumb": "tn_Trpen_u0.jpg", "sprite": "sp-anchoviella_juruasanga.png", "group": "other", "rarity": 1, "waterType": "Saltwater"}, {"lat": -69.5617, "lng": -34.565, "id": "129249", "name": "Tharyx", "sprite": "sp-anchoviella_juruasanga.png", "group": "other", "rarity": 1}, {"lat": -69.1348, "lng": -34.597, "id": "231413", "name": "Mirounga leonina", "sprite": "sp-elephant_seal.png", "group": "seal", "rarity": 1}, {"lat": -67.155, "lng": -43.0617, "id": "137165", "name": "Sterna paradisaea", "sprite": "sp-anchoviella_juruasanga.png", "group": "other", "rarity": 1}, {"lat": -69.1333, "lng": -38.02, "id": "137165", "name": "Sterna paradisaea", "sprite": "sp-anchoviella_juruasanga.png", "group": "other", "rarity": 1}, {"lat": -70.1167, "lng": -39.6333, "id": "172867", "name": "Amage sculpta", "sprite": "sp-anchoviella_juruasanga.png", "group": "other", "rarity": 1}, {"lat": -67.018, "lng": -41.05, "id": "235514", "name": "Abyssothyris wyvillei", "sprite": "sp-anchoviella_juruasanga.png", "group": "other", "rarity": 1}, {"lat": -67.05, "lng": -40.9333, "id": "236219", "name": "Thysanoessa macrura", "sprite": "sp-antarctic_krill.png", "group": "shrimp", "rarity": 1}, {"lat": -68.0, "lng": -44.0, "id": "341657", "name": "Codonellopsis balechi", "sprite": "sp-anchoviella_juruasanga.png", "group": "other", "rarity": 1}, {"lat": -68.18, "lng": -34.28, "id": "113350", "name": "Alabaminella weddellensis", "sprite": "sp-anchoviella_juruasanga.png", "group": "other", "rarity": 1}, {"lat": -67.55, "lng": -36.5833, "id": "393605", "name": "Talochlamys multicolor", "sprite": "sp-blue_mussel.png", "group": "clam_mussel", "rarity": 1}, {"lat": -70.0, "lng": -39.5, "id": "341678", "name": "Cymatocylis drygalskii", "sprite": "sp-anchoviella_juruasanga.png", "group": "other", "rarity": 1}, {"lat": -70.1167, "lng": -39.6333, "id": "173121", "name": "Caulleriella antarctica", "sprite": "sp-anchoviella_juruasanga.png", "group": "other", "rarity": 1}, {"lat": -70.1167, "lng": -39.6333, "id": "172958", "name": "Paramphinome australis", "sprite": "sp-anchoviella_juruasanga.png", "group": "other", "rarity": 1}, {"lat": -68.8731, "lng": -38.8683, "id": "195932", "name": "Leptonychotes weddellii", "sprite": "sp-elephant_seal.png", "group": "seal", "rarity": 1}, {"lat": -69.0, "lng": -41.0, "id": "341681", "name": "Cymatocylis vanhoeffeni", "sprite": "sp-anchoviella_juruasanga.png", "group": "other", "rarity": 1}, {"lat": -70.125, "lng": -40.23, "id": "137165", "name": "Sterna paradisaea", "sprite": "sp-anchoviella_juruasanga.png", "group": "other", "rarity": 1}, {"lat": -67.0699, "lng": -35.2307, "id": "231413", "name": "Mirounga leonina", "sprite": "sp-elephant_seal.png", "group": "seal", "rarity": 1}, {"lat": -69.9833, "lng": -39.6, "id": "180759", "name": "Primno macropa", "sprite": "sp-american_lobster.png", "group": "crab_lobster", "rarity": 1}, {"lat": -70.1167, "lng": -39.6333, "id": "174789", "name": "Spinther usarpia", "sprite": "sp-anchoviella_juruasanga.png", "group": "other", "rarity": 1}, {"lat": -70.217, "lng": -34.283, "id": "212639", "name": "Thalassoica antarctica", "sprite": "sp-anchoviella_juruasanga.png", "group": "other", "rarity": 1}, {"lat": -68.15, "lng": -40.383, "id": "212639", "name": "Thalassoica antarctica", "sprite": "sp-anchoviella_juruasanga.png", "group": "other", "rarity": 1}, {"lat": -70.1167, "lng": -39.6333, "id": "174808", "name": "Spiophanes tcherniai", "sprite": "sp-anchoviella_juruasanga.png", "group": "other", "rarity": 1}, {"lat": -70.1167, "lng": -39.6333, "id": "130502", "name": "Ophelina breviata", "sprite": "sp-anchoviella_juruasanga.png", "group": "other", "rarity": 1}, {"lat": -70.1167, "lng": -39.6333, "id": "152389", "name": "Hauchiella tribullata", "sprite": "sp-anchoviella_juruasanga.png", "group": "other", "rarity": 1}, {"lat": -69.5617, "lng": -39.565, "id": "136330", "name": "Neotanais americanus", "sprite": "sp-american_lobster.png", "group": "crab_lobster", "rarity": 1}, {"lat": -67.55, "lng": -36.5833, "id": "234702", "name": "Holcomycteronus brucei", "sprite": "sp-anchoviella_juruasanga.png", "group": "other", "rarity": 1, "waterType": "Saltwater"}, {"lat": -68.013, "lng": -40.699, "id": "137165", "name": "Sterna paradisaea", "sprite": "sp-anchoviella_juruasanga.png", "group": "other", "rarity": 1}, {"lat": -70.5116, "lng": -38.9605, "id": "225757", "name": "Pygoscelis adeliae", "sprite": "sp-anchoviella_juruasanga.png", "group": "other", "rarity": 1}, {"lat": -70.1167, "lng": -39.6333, "id": "172857", "name": "Ampharete kerguelensis", "sprite": "sp-anchoviella_juruasanga.png", "group": "other", "rarity": 1}, {"lat": -70.1167, "lng": -39.6333, "id": "173693", "name": "Aglaophamus trissophyllus", "sprite": "sp-anchoviella_juruasanga.png", "group": "other", "rarity": 1}, {"lat": -69.9962, "lng": -40.9005, "id": "225757", "name": "Pygoscelis adeliae", "sprite": "sp-anchoviella_juruasanga.png", "group": "other", "rarity": 1}, {"lat": -70.217, "lng": -34.283, "id": "225772", "name": "Pagodroma nivea", "sprite": "sp-anchoviella_juruasanga.png", "group": "other", "rarity": 1}, {"lat": -67.9773, "lng": -35.6591, "id": "137165", "name": "Sterna paradisaea", "sprite": "sp-anchoviella_juruasanga.png", "group": "other", "rarity": 1}, {"lat": -67.904, "lng": -43.9136, "id": "225757", "name": "Pygoscelis adeliae", "sprite": "sp-anchoviella_juruasanga.png", "group": "other", "rarity": 1}, {"lat": -68.0, "lng": -44.0, "id": "341662", "name": "Laackmanniella naviculaefera", "sprite": "sp-anchoviella_juruasanga.png", "group": "other", "rarity": 1}, {"lat": -67.05, "lng": -40.9333, "id": "236217", "name": "Euphausia superba", "sprite": "sp-antarctic_krill.png", "group": "shrimp", "rarity": 1}, {"lat": -70.1167, "lng": -39.6333, "id": "734532", "name": "Aricidea (Strelzovia) suecica", "sprite": "sp-anchoviella_juruasanga.png", "group": "other", "rarity": 1}, {"lat": -69.15, "lng": -37.15, "id": "212639", "name": "Thalassoica antarctica", "sprite": "sp-anchoviella_juruasanga.png", "group": "other", "rarity": 1}, {"lat": -67.883, "lng": -40.717, "id": "173784", "name": "Nothria abyssia", "sprite": "sp-anchoviella_juruasanga.png", "group": "other", "rarity": 1}, {"lat": -70.1167, "lng": -39.6333, "id": "934969", "name": "Flabegraviera mundata", "sprite": "sp-anchoviella_juruasanga.png", "group": "other", "rarity": 1}, {"lat": -69.3033, "lng": -35.475, "id": "195932", "name": "Leptonychotes weddellii", "sprite": "sp-elephant_seal.png", "group": "seal", "rarity": 1}, {"lat": -70.0, "lng": -39.5, "id": "341657", "name": "Codonellopsis balechi", "sprite": "sp-anchoviella_juruasanga.png", "group": "other", "rarity": 1}, {"lat": -68.15, "lng": -40.383, "id": "137190", "name": "Oceanites oceanicus", "sprite": "sp-anchoviella_juruasanga.png", "group": "other", "rarity": 1}, {"lat": -70.1167, "lng": -39.6333, "id": "174600", "name": "Euchone scotiarum", "sprite": "sp-anchoviella_juruasanga.png", "group": "other", "rarity": 1}, {"lat": -66.6667, "lng": -40.5833, "id": "160807", "name": "Helgocystis carinata", "sprite": "sp-sea_cucumber.png", "group": "starfish", "rarity": 1}, {"lat": -70.1167, "lng": -39.6333, "id": "174417", "name": "Eucranta mollis", "sprite": "sp-anchoviella_juruasanga.png", "group": "other", "rarity": 1}, {"lat": -67.0969, "lng": -38.6194, "id": "137165", "name": "Sterna paradisaea", "sprite": "sp-anchoviella_juruasanga.png", "group": "other", "rarity": 1}, {"lat": -68.88, "lng": -43.87, "id": "137165", "name": "Sterna paradisaea", "sprite": "sp-anchoviella_juruasanga.png", "group": "other", "rarity": 1}, {"lat": -67.0, "lng": -44.0667, "id": "236219", "name": "Thysanoessa macrura", "sprite": "sp-antarctic_krill.png", "group": "shrimp", "rarity": 1}, {"lat": -70.1167, "lng": -39.6333, "id": "172891", "name": "Eusamythella sexdentata", "sprite": "sp-anchoviella_juruasanga.png", "group": "other", "rarity": 1}, {"lat": -68.0, "lng": -44.0, "id": "341296", "name": "Cymatocylis", "sprite": "sp-anchoviella_juruasanga.png", "group": "other", "rarity": 1}, {"lat": -70.1167, "lng": -39.6333, "id": "172896", "name": "Glyphanostomum scotiarum", "sprite": "sp-anchoviella_juruasanga.png", "group": "other", "rarity": 1}, {"lat": -68.15, "lng": -40.383, "id": "212638", "name": "Fulmarus glacialoides", "sprite": "sp-anchoviella_juruasanga.png", "group": "other", "rarity": 1}]}