{"zoom": 5, "x": 20, "y": 24, "clusters": [{"lat": -69.19, "lng": 48.58, "count": 4, "topItems": [{"id": "126505", "name": "Three-spined stickleback", "thumb": "tn_Gaacu_u1.jpg", "sprite": "sp-anchoviella_juruasanga.png", "group": "other"}, {"id": "158562", "name": "American eel", "thumb": "tn_Anros_u1.jpg", "sprite": "sp-electric_eel.png", "group": "eel"}, {"id": "154241", "name": "Brook trout", "thumb": "tn_Safon_u4.jpg", "sprite": "sp-atlantic_salmon.png", "group": "salmon_trout"}, {"id": "126507", "name": "Ninespine stickleback", "thumb": "tn_Pupun_u9.jpg", "sprite": "sp-anchoviella_juruasanga.png", "group": "other"}], "filterAggs": {"waterType": {"Brackish": 4}, "bodyGroup": {"other": 2, "fish": 2}}, "groupDistribution": [{"group": "other", "count": 2}, {"group": "eel", "count": 1}, {"group": "salmon_trout", "count": 1}]}], "points": [{"lat": -67.1933, "lng": 45.8222, "id": "885825", "name": "Antarctotetilla leptoderma", "sprite": "sp-barrel_sponge.png", "group": "sponge", "rarity": 1}, {"lat": -66.7002, "lng": 48.4395, "id": "225757", "name": "Pygoscelis adeliae", "sprite": "sp-anchoviella_juruasanga.png", "group": "other", "rarity": 1}, {"lat": -67.5833, "lng": 45.5883, "id": "174599", "name": "Dolichiscus meridionalis", "sprite": "sp-american_lobster.png", "group": "crab_lobster", "rarity": 1}, {"lat": -67.2375, "lng": 45.7583, "id": "1337", "name": "Hydrozoa", "sprite": "sp-anchoviella_juruasanga.png", "group": "other", "rarity": 1}, {"lat": -67.6833, "lng": 45.75, "id": "174689", "name": "Fissarcturus hirticornis", "sprite": "sp-american_lobster.png", "group": "crab_lobster", "rarity": 1}, {"lat": -67.65, "lng": 45.755, "id": "172928", "name": "Ammothea meridionalis", "sprite": "sp-anchoviella_juruasanga.png", "group": "other", "rarity": 1}, {"lat": -67.5833, "lng": 45.5833, "id": "1340", "name": "Hexacorallia", "sprite": "sp-actiniidae.png", "group": "coral", "rarity": 1}, {"lat": -68.086, "lng": 45.9553, "id": "344007", "name": "Pelecanoides urinatrix", "sprite": "sp-anchoviella_juruasanga.png", "group": "other", "rarity": 1}, {"lat": -67.5, "lng": 53.0, "id": "237176", "name": "Paramoera fasciculata", "sprite": "sp-american_lobster.png", "group": "crab_lobster", "rarity": 1}, {"lat": -69.1863, "lng": 48.5761, "id": "126505", "name": "Three-spined stickleback", "thumb": "tn_Gaacu_u1.jpg", "sprite": "sp-anchoviella_juruasanga.png", "group": "other", "rarity": 1, "waterType": "Brackish"}, {"lat": -67.6679, "lng": 45.8222, "id": "173368", "name": "Nymphon australe", "sprite": "sp-anchoviella_juruasanga.png", "group": "other", "rarity": 1}, {"lat": -67.6833, "lng": 45.75, "id": "535203", "name": "Litoscalpellum korotkevitshae", "sprite": "sp-anchoviella_juruasanga.png", "group": "other", "rarity": 1}, {"lat": -67.0, "lng": 47.0, "id": "166558", "name": "Haliclona (Gellius) rudis", "sprite": "sp-barrel_sponge.png", "group": "sponge", "rarity": 1}, {"lat": -67.29, "lng": 45.2333, "id": "175115", "name": "Leptanthura glacialis", "sprite": "sp-american_lobster.png", "group": "crab_lobster", "rarity": 1}, {"lat": -67.6667, "lng": 45.85, "id": "1648786", "name": "Antarcticola meyeri", "sprite": "sp-anchoviella_juruasanga.png", "group": "other", "rarity": 1}, {"lat": -67.5583, "lng": 45.7421, "id": "226846", "name": "Mysidetes posthon", "sprite": "sp-american_lobster.png", "group": "crab_lobster", "rarity": 1}, {"lat": -67.025, "lng": 45.7166, "id": "173500", "name": "Nymphon proceroides", "sprite": "sp-anchoviella_juruasanga.png", "group": "other", "rarity": 1}, {"lat": -69.1981, "lng": 48.5801, "id": "158562", "name": "American eel", "thumb": "tn_Anros_u1.jpg", "sprite": "sp-electric_eel.png", "group": "eel", "rarity": 1, "waterType": "Brackish"}, {"lat": -67.65, "lng": 45.75, "id": "174520", "name": "Antarcturus polaris", "sprite": "sp-american_lobster.png", "group": "crab_lobster", "rarity": 1}, {"lat": -66.8, "lng": 46.7, "id": "175039", "name": "Phascolion (Montuga) lutense", "sprite": "sp-anchoviella_juruasanga.png", "group": "other", "rarity": 1}, {"lat": -67.1725, "lng": 45.5583, "id": "146142", "name": "Bryozoa", "sprite": "sp-anchoviella_juruasanga.png", "group": "other", "rarity": 1}, {"lat": -67.5833, "lng": 46.0333, "id": "173385", "name": "Nymphon charcoti", "sprite": "sp-anchoviella_juruasanga.png", "group": "other", "rarity": 1}, {"lat": -67.6722, "lng": 45.8167, "id": "172907", "name": "Ammothea clausi", "sprite": "sp-anchoviella_juruasanga.png", "group": "other", "rarity": 1}, {"lat": -69.205, "lng": 48.5772, "id": "715995", "name": "Eleocharis parvula", "sprite": "sp-anchoviella_juruasanga.png", "group": "other", "rarity": 1}, {"lat": -67.5, "lng": 46.0, "id": "1648847", "name": "Stereotydeus meyeri", "sprite": "sp-anchoviella_juruasanga.png", "group": "other", "rarity": 1}, {"lat": -67.6666, "lng": 45.85, "id": "173208", "name": "Colossendeis robusta", "sprite": "sp-anchoviella_juruasanga.png", "group": "other", "rarity": 1}, {"lat": -67.5, "lng": 53.0, "id": "237496", "name": "Apohyale hirtipalma", "sprite": "sp-american_lobster.png", "group": "crab_lobster", "rarity": 1}, {"lat": -67.0, "lng": 47.0, "id": "131834", "name": "Haliclona", "sprite": "sp-barrel_sponge.png", "group": "sponge", "rarity": 1}, {"lat": -67.025, "lng": 45.7166, "id": "173047", "name": "Austropallene tenuicornis", "sprite": "sp-anchoviella_juruasanga.png", "group": "other", "rarity": 1}, {"lat": -66.8315, "lng": 46.872, "id": "226232", "name": "Hansenomysis antarctica", "sprite": "sp-american_lobster.png", "group": "crab_lobster", "rarity": 1}, {"lat": -67.5833, "lng": 45.5883, "id": "261580", "name": "Notopais spicatus", "sprite": "sp-american_lobster.png", "group": "crab_lobster", "rarity": 1}, {"lat": -69.2117, "lng": 48.5773, "id": "577503", "name": "Carex paleacea", "sprite": "sp-anchoviella_juruasanga.png", "group": "other", "rarity": 1}, {"lat": -67.5833, "lng": 45.5833, "id": "173037", "name": "Austropallene bucera", "sprite": "sp-anchoviella_juruasanga.png", "group": "other", "rarity": 1}, {"lat": -66.7721, "lng": 49.2791, "id": "212583", "name": "Diomedea exulans", "sprite": "sp-anchoviella_juruasanga.png", "group": "other", "rarity": 1}, {"lat": -67.5833, "lng": 45.5883, "id": "369214", "name": "Chorismus antarcticus", "sprite": "sp-american_lobster.png", "group": "crab_lobster", "rarity": 1}, {"lat": -67.67, "lng": 45.87, "id": "134913", "name": "Philodinidae", "sprite": "sp-anchoviella_juruasanga.png", "group": "other", "rarity": 1}, {"lat": -67.5833, "lng": 46.0333, "id": "173222", "name": "Colossendeis tortipalpis", "sprite": "sp-anchoviella_juruasanga.png", "group": "other", "rarity": 1}, {"lat": -67.6667, "lng": 45.85, "id": "237494", "name": "Dodecasella georgiana", "sprite": "sp-american_lobster.png", "group": "crab_lobster", "rarity": 1}, {"lat": -69.2002, "lng": 48.5805, "id": "166385", "name": "Haliclona globosa", "sprite": "sp-barrel_sponge.png", "group": "sponge", "rarity": 1}, {"lat": -67.6833, "lng": 45.75, "id": "240108", "name": "Pallenopsis patagonica", "sprite": "sp-anchoviella_juruasanga.png", "group": "other", "rarity": 1}, {"lat": -67.6833, "lng": 45.75, "id": "173041", "name": "Austropallene cristata", "sprite": "sp-anchoviella_juruasanga.png", "group": "other", "rarity": 1}, {"lat": -67.5, "lng": 48.0, "id": "225772", "name": "Pagodroma nivea", "sprite": "sp-anchoviella_juruasanga.png", "group": "other", "rarity": 1}, {"lat": -68.9333, "lng": 45.1667, "id": "325302", "name": "Alluroteuthis antarcticus", "sprite": "sp-giant_pacific_octopus.png", "group": "octopus_squid", "rarity": 1}, {"lat": -67.29, "lng": 45.2333, "id": "170682", "name": "Sphaerotylus capitatus", "sprite": "sp-barrel_sponge.png", "group": "sponge", "rarity": 1}, {"lat": -69.2244, "lng": 48.5769, "id": "145795", "name": "Zostera subg. Zostera marina", "sprite": "sp-anchoviella_juruasanga.png", "group": "other", "rarity": 1}, {"lat": -67.0, "lng": 47.0, "id": "131930", "name": "Lissodendoryx", "sprite": "sp-barrel_sponge.png", "group": "sponge", "rarity": 1}, {"lat": -67.0, "lng": 47.0, "id": "132046", "name": "Polymastia", "sprite": "sp-barrel_sponge.png", "group": "sponge", "rarity": 1}, {"lat": -66.5167, "lng": 47.9, "id": "236217", "name": "Euphausia superba", "sprite": "sp-antarctic_krill.png", "group": "shrimp", "rarity": 1}, {"lat": -67.6833, "lng": 45.75, "id": "386365", "name": "Nuttallochiton mirandus", "sprite": "sp-anchoviella_juruasanga.png", "group": "other", "rarity": 1}, {"lat": -67.6683, "lng": 45.8083, "id": "244605", "name": "Nototanais antarcticus", "sprite": "sp-american_lobster.png", "group": "crab_lobster", "rarity": 1}, {"lat": -67.6666, "lng": 45.85, "id": "173215", "name": "Colossendeis scotti", "sprite": "sp-anchoviella_juruasanga.png", "group": "other", "rarity": 1}, {"lat": -66.7585, "lng": 49.3623, "id": "344007", "name": "Pelecanoides urinatrix", "sprite": "sp-anchoviella_juruasanga.png", "group": "other", "rarity": 1}, {"lat": -67.6833, "lng": 45.75, "id": "240148", "name": "Colossendeis fragilis", "sprite": "sp-anchoviella_juruasanga.png", "group": "other", "rarity": 1}, {"lat": -67.1534, "lng": 45.475, "id": "110938", "name": "Membranipora", "sprite": "sp-anchoviella_juruasanga.png", "group": "other", "rarity": 1}, {"lat": -67.5, "lng": 53.0, "id": "214801", "name": "Caprellina longicollis", "sprite": "sp-american_lobster.png", "group": "crab_lobster", "rarity": 1}, {"lat": -67.6833, "lng": 45.75, "id": "173374", "name": "Nymphon biarticulatum", "sprite": "sp-anchoviella_juruasanga.png", "group": "other", "rarity": 1}, {"lat": -67.5, "lng": 53.0, "id": "176958", "name": "Paramoera", "sprite": "sp-american_lobster.png", "group": "crab_lobster", "rarity": 1}, {"lat": -67.5, "lng": 45.6667, "id": "237444", "name": "Oradarea walkeri", "sprite": "sp-american_lobster.png", "group": "crab_lobster", "rarity": 1}, {"lat": -67.1667, "lng": 45.4417, "id": "137217", "name": "Salpidae", "sprite": "sp-anchoviella_juruasanga.png", "group": "other", "rarity": 1}, {"lat": -66.583, "lng": 50.667, "id": "131543", "name": "Thelepus cincinnatus", "sprite": "sp-anchoviella_juruasanga.png", "group": "other", "rarity": 1}, {"lat": -67.3158, "lng": 46.1195, "id": "226680", "name": "Antarctomysis maxima", "sprite": "sp-american_lobster.png", "group": "crab_lobster", "rarity": 1}, {"lat": -67.29, "lng": 45.2333, "id": "165459", "name": "Axinella antarctica", "sprite": "sp-barrel_sponge.png", "group": "sponge", "rarity": 1}, {"lat": -67.6667, "lng": 45.85, "id": "237210", "name": "Dodecas elongata", "sprite": "sp-american_lobster.png", "group": "crab_lobster", "rarity": 1}, {"lat": -67.5, "lng": 45.6667, "id": "237719", "name": "Eusirus antarcticus", "sprite": "sp-american_lobster.png", "group": "crab_lobster", "rarity": 1}, {"lat": -67.65, "lng": 45.755, "id": "174456", "name": "Aegiochus antarctica", "sprite": "sp-american_lobster.png", "group": "crab_lobster", "rarity": 1}, {"lat": -67.05, "lng": 47.48, "id": "117588", "name": "Halecium delicatulum", "sprite": "sp-anchoviella_juruasanga.png", "group": "other", "rarity": 1}, {"lat": -69.1863, "lng": 48.5775, "id": "234031", "name": "Ruppia maritima", "sprite": "sp-anchoviella_juruasanga.png", "group": "other", "rarity": 1}, {"lat": -67.0, "lng": 47.0, "id": "169545", "name": "Tedania (Tedania)", "sprite": "sp-barrel_sponge.png", "group": "sponge", "rarity": 1}, {"lat": -67.6667, "lng": 45.8333, "id": "236994", "name": "Monoculodes jazdzewskii", "sprite": "sp-american_lobster.png", "group": "crab_lobster", "rarity": 1}, {"lat": -67.6666, "lng": 45.85, "id": "172906", "name": "Ammothea carolinensis", "sprite": "sp-anchoviella_juruasanga.png", "group": "other", "rarity": 1}, {"lat": -66.8033, "lng": 49.3667, "id": "899197", "name": "Recurvoides contortus", "sprite": "sp-anchoviella_juruasanga.png", "group": "other", "rarity": 1}, {"lat": -67.6666, "lng": 45.7867, "id": "558", "name": "Porifera", "sprite": "sp-barrel_sponge.png", "group": "sponge", "rarity": 1}, {"lat": -66.5625, "lng": 45.9785, "id": "137090", "name": "Balaenoptera musculus", "sprite": "sp-blue_whale.png", "group": "whale", "rarity": 1}, {"lat": -66.8315, "lng": 46.872, "id": "174136", "name": "Idmidronea obtecta", "sprite": "sp-anchoviella_juruasanga.png", "group": "other", "rarity": 1}, {"lat": -66.55, "lng": 48.1833, "id": "173918", "name": "Travisia antarctica", "sprite": "sp-anchoviella_juruasanga.png", "group": "other", "rarity": 1}, {"lat": -67.6666, "lng": 45.85, "id": "172858", "name": "Achelia communis", "sprite": "sp-anchoviella_juruasanga.png", "group": "other", "rarity": 1}, {"lat": -67.6666, "lng": 45.75, "id": "174631", "name": "Litarcturus lillei", "sprite": "sp-american_lobster.png", "group": "crab_lobster", "rarity": 1}, {"lat": -67.0, "lng": 47.0, "id": "170639", "name": "Polymastia invaginata", "sprite": "sp-barrel_sponge.png", "group": "sponge", "rarity": 1}, {"lat": -67.0, "lng": 47.0, "id": "173893", "name": "Cnemidocarpa verrucosa", "sprite": "sp-anchoviella_juruasanga.png", "group": "other", "rarity": 1}, {"lat": -66.6975, "lng": 48.8133, "id": "197189", "name": "Harpovoluta charcoti", "sprite": "sp-cowrie_shell.png", "group": "sea_snail", "rarity": 1}, {"lat": -67.6833, "lng": 45.75, "id": "239884", "name": "Colossendeis glacialis", "sprite": "sp-anchoviella_juruasanga.png", "group": "other", "rarity": 1}, {"lat": -67.6673, "lng": 45.8391, "id": "173532", "name": "Pentanymphon antarcticum", "sprite": "sp-anchoviella_juruasanga.png", "group": "other", "rarity": 1}, {"lat": -67.6666, "lng": 45.85, "id": "172865", "name": "Achelia spicata", "sprite": "sp-anchoviella_juruasanga.png", "group": "other", "rarity": 1}, {"lat": -67.0, "lng": 47.0, "id": "1613681", "name": "Latrunculia (Aciculatrunculia) apicalis", "sprite": "sp-barrel_sponge.png", "group": "sponge", "rarity": 1}, {"lat": -67.6833, "lng": 45.75, "id": "175147", "name": "Ceratoserolis trilobitoides", "sprite": "sp-american_lobster.png", "group": "crab_lobster", "rarity": 1}, {"lat": -66.71, "lng": 48.2933, "id": "197113", "name": "Chlanificula thielei", "sprite": "sp-cowrie_shell.png", "group": "sea_snail", "rarity": 1}, {"lat": -67.5833, "lng": 45.5883, "id": "174631", "name": "Litarcturus lillei", "sprite": "sp-american_lobster.png", "group": "crab_lobster", "rarity": 1}, {"lat": -69.2051, "lng": 48.5773, "id": "535790", "name": "Rumex crispus", "sprite": "sp-anchoviella_juruasanga.png", "group": "other", "rarity": 1}, {"lat": -67.6833, "lng": 45.75, "id": "385907", "name": "Callochiton puniceus", "sprite": "sp-anchoviella_juruasanga.png", "group": "other", "rarity": 1}, {"lat": -67.6722, "lng": 45.8055, "id": "173155", "name": "Colossendeis australis", "sprite": "sp-anchoviella_juruasanga.png", "group": "other", "rarity": 1}, {"lat": -67.65, "lng": 45.755, "id": "172916", "name": "Ammothea glacialis", "sprite": "sp-anchoviella_juruasanga.png", "group": "other", "rarity": 1}, {"lat": -67.215, "lng": 45.007, "id": "843664", "name": "Actinopteri", "sprite": "sp-anchoviella_juruasanga.png", "group": "other", "rarity": 1}, {"lat": -70.186, "lng": 47.127, "id": "344007", "name": "Pelecanoides urinatrix", "sprite": "sp-anchoviella_juruasanga.png", "group": "other", "rarity": 1}, {"lat": -67.2872, "lng": 45.2333, "id": "181693", "name": "Cyclaspis gigas", "sprite": "sp-american_lobster.png", "group": "crab_lobster", "rarity": 1}, {"lat": -69.1981, "lng": 48.5801, "id": "154241", "name": "Brook trout", "thumb": "tn_Safon_u4.jpg", "sprite": "sp-atlantic_salmon.png", "group": "salmon_trout", "rarity": 1, "waterType": "Brackish"}, {"lat": -66.9055, "lng": 54.5272, "id": "344007", "name": "Pelecanoides urinatrix", "sprite": "sp-anchoviella_juruasanga.png", "group": "other", "rarity": 1}, {"lat": -67.16, "lng": 45.167, "id": "393083", "name": "Rhodobacterales", "sprite": "sp-anchoviella_juruasanga.png", "group": "other", "rarity": 1}, {"lat": -67.6325, "lng": 47.4723, "id": "225773", "name": "Aptenodytes forsteri", "sprite": "sp-anchoviella_juruasanga.png", "group": "other", "rarity": 1}, {"lat": -66.55, "lng": 45.53, "id": "932", "name": "Alciopini", "sprite": "sp-anchoviella_juruasanga.png", "group": "other", "rarity": 1}, {"lat": -67.6667, "lng": 45.8, "id": "175001", "name": "Neojaera antarctica", "sprite": "sp-american_lobster.png", "group": "crab_lobster", "rarity": 1}, {"lat": -69.2247, "lng": 48.5772, "id": "577506", "name": "Elymus repens", "sprite": "sp-anchoviella_juruasanga.png", "group": "other", "rarity": 1}, {"lat": -67.6594, "lng": 46.0962, "id": "1462668", "name": "Eudorylaimus shirasei", "sprite": "sp-anchoviella_juruasanga.png", "group": "other", "rarity": 1}, {"lat": -67.0356, "lng": 45.55, "id": "737580", "name": "Tedania (Tedaniopsis) tantula", "sprite": "sp-barrel_sponge.png", "group": "sponge", "rarity": 1}, {"lat": -66.8321, "lng": 46.347, "id": "225757", "name": "Pygoscelis adeliae", "sprite": "sp-anchoviella_juruasanga.png", "group": "other", "rarity": 1}, {"lat": -66.8414, "lng": 46.8756, "id": "385905", "name": "Callochiton bouveti", "sprite": "sp-anchoviella_juruasanga.png", "group": "other", "rarity": 1}, {"lat": -66.71, "lng": 48.2933, "id": "197111", "name": "Chlanidota signeyana", "sprite": "sp-cowrie_shell.png", "group": "sea_snail", "rarity": 1}, {"lat": -67.0167, "lng": 45.7167, "id": "134273", "name": "Suberites caminatus", "sprite": "sp-barrel_sponge.png", "group": "sponge", "rarity": 1}, {"lat": -67.5, "lng": 45.6667, "id": "237255", "name": "Gnathiphimedia sexdentata", "sprite": "sp-american_lobster.png", "group": "crab_lobster", "rarity": 1}, {"lat": -67.5833, "lng": 45.8083, "id": "240108", "name": "Pallenopsis patagonica", "sprite": "sp-anchoviella_juruasanga.png", "group": "other", "rarity": 1}, {"lat": -68.9333, "lng": 45.1667, "id": "325299", "name": "Mesonychoteuthis hamiltoni", "sprite": "sp-giant_pacific_octopus.png", "group": "octopus_squid", "rarity": 1}, {"lat": -67.0, "lng": 47.0, "id": "167479", "name": "Clathria (Axosuberites) nidificata", "sprite": "sp-barrel_sponge.png", "group": "sponge", "rarity": 1}, {"lat": -66.71, "lng": 48.2933, "id": "197310", "name": "Nothoadmete consobrina", "sprite": "sp-cowrie_shell.png", "group": "sea_snail", "rarity": 1}, {"lat": -67.6667, "lng": 45.75, "id": "226680", "name": "Antarctomysis maxima", "sprite": "sp-american_lobster.png", "group": "crab_lobster", "rarity": 1}, {"lat": -67.6675, "lng": 45.8041, "id": "175206", "name": "Cymodocella tubicauda", "sprite": "sp-american_lobster.png", "group": "crab_lobster", "rarity": 1}, {"lat": -66.71, "lng": 48.2933, "id": "197303", "name": "Neobuccinum eatoni", "sprite": "sp-cowrie_shell.png", "group": "sea_snail", "rarity": 1}, {"lat": -67.872, "lng": 55.669, "id": "344007", "name": "Pelecanoides urinatrix", "sprite": "sp-anchoviella_juruasanga.png", "group": "other", "rarity": 1}, {"lat": -67.0662, "lng": 45.3584, "id": "236217", "name": "Euphausia superba", "sprite": "sp-antarctic_krill.png", "group": "shrimp", "rarity": 1}, {"lat": -67.0, "lng": 47.0, "id": "166931", "name": "Calyx kerguelensis", "sprite": "sp-barrel_sponge.png", "group": "sponge", "rarity": 1}, {"lat": -67.5, "lng": 45.6667, "id": "867257", "name": "Orchomenella franklini", "sprite": "sp-american_lobster.png", "group": "crab_lobster", "rarity": 1}, {"lat": -67.6749, "lng": 45.8166, "id": "173385", "name": "Nymphon charcoti", "sprite": "sp-anchoviella_juruasanga.png", "group": "other", "rarity": 1}]}