{"zoom": 5, "x": 21, "y": 10, "clusters": [{"lat": 53.68, "lng": 58.86, "count": 4, "topItems": [{"id": "126280", "name": "Beluga", "thumb": "tn_Huhus_u6.jpg", "sprite": "sp-atlantic_sturgeon.png", "group": "sturgeon"}, {"id": "280811", "name": "Inanga", "thumb": "tn_Gamac_u4.jpg", "sprite": "sp-anchoviella_juruasanga.png", "group": "other"}, {"id": "127023", "name": "Atlantic mackerel", "thumb": "tn_Scsco_u4.jpg", "sprite": "sp-bluefin_tuna.png", "group": "tuna_mackerel"}, {"id": "279859", "name": "Zope", "thumb": "tn_Abbal_u1.jpg", "sprite": "sp-enteromius.png", "group": "carp_minnow"}], "filterAggs": {"waterType": {"Brackish": 4}, "bodyGroup": {"fish": 3, "other": 1}}, "groupDistribution": [{"group": "sturgeon", "count": 1}, {"group": "other", "count": 1}, {"group": "tuna_mackerel", "count": 1}, {"group": "carp_minnow", "count": 1}]}], "points": [{"lat": 49.699, "lng": 61.797, "id": "159049", "name": "Calidris ferruginea", "sprite": "sp-anchoviella_juruasanga.png", "group": "other", "rarity": 1}, {"lat": 55.3, "lng": 58.5, "id": "103356", "name": "Oikopleuridae", "sprite": "sp-anchoviella_juruasanga.png", "group": "other", "rarity": 1}, {"lat": 54.4167, "lng": 58.9, "id": "126280", "name": "Beluga", "thumb": "tn_Huhus_u6.jpg", "sprite": "sp-atlantic_sturgeon.png", "group": "sturgeon", "rarity": 1, "waterType": "Brackish"}, {"lat": 51.0, "lng": 59.0, "id": "280811", "name": "Inanga", "thumb": "tn_Gamac_u4.jpg", "sprite": "sp-anchoviella_juruasanga.png", "group": "other", "rarity": 1, "waterType": "Brackish"}, {"lat": 55.27, "lng": 58.0, "id": "293496", "name": "Teleostei", "sprite": "sp-anchoviella_juruasanga.png", "group": "other", "rarity": 1}, {"lat": 49.0, "lng": 67.0, "id": "138878", "name": "Buccinum undatum", "sprite": "sp-cowrie_shell.png", "group": "sea_snail", "rarity": 1}, {"lat": 55.3033, "lng": 58.5556, "id": "127023", "name": "Atlantic mackerel", "thumb": "tn_Scsco_u4.jpg", "sprite": "sp-bluefin_tuna.png", "group": "tuna_mackerel", "rarity": 1, "waterType": "Brackish"}, {"lat": 51.25, "lng": 59.8667, "id": "212645", "name": "Halobaena caerulea", "sprite": "sp-anchoviella_juruasanga.png", "group": "other", "rarity": 1}, {"lat": 55.27, "lng": 58.0, "id": "125516", "name": "Ammodytidae", "sprite": "sp-anchoviella_juruasanga.png", "group": "other", "rarity": 1}, {"lat": 55.27, "lng": 58.0, "id": "101", "name": "Gastropoda", "sprite": "sp-cowrie_shell.png", "group": "sea_snail", "rarity": 1}, {"lat": 49.125, "lng": 65.3667, "id": "470304", "name": "Escharella spinosissima", "sprite": "sp-anchoviella_juruasanga.png", "group": "other", "rarity": 1}, {"lat": 55.27, "lng": 58.0, "id": "344701", "name": "Neocalanus tonsus", "sprite": "sp-anchoviella_juruasanga.png", "group": "other", "rarity": 1}, {"lat": 55.27, "lng": 58.0, "id": "106671", "name": "Anomura", "sprite": "sp-american_lobster.png", "group": "crab_lobster", "rarity": 1}, {"lat": 55.28, "lng": 58.1667, "id": "101417", "name": "Hyperiidae", "sprite": "sp-american_lobster.png", "group": "crab_lobster", "rarity": 1}, {"lat": 54.0, "lng": 59.0, "id": "279859", "name": "Zope", "thumb": "tn_Abbal_u1.jpg", "sprite": "sp-enteromius.png", "group": "carp_minnow", "rarity": 1, "waterType": "Brackish"}, {"lat": 54.9, "lng": 64.8333, "id": "160967", "name": "Pontonema propinquum", "sprite": "sp-anchoviella_juruasanga.png", "group": "other", "rarity": 1}, {"lat": 54.12, "lng": 57.32, "id": "106854", "name": "Pagurus", "sprite": "sp-american_lobster.png", "group": "crab_lobster", "rarity": 1}]}