{"zoom": 5, "x": 21, "y": 11, "clusters": [{"lat": 43.51, "lng": 63.51, "count": 4, "topItems": [{"id": "282474", "name": "Amu Darya sturgeon", "thumb": "tn_Pskau_u4.jpg", "sprite": "sp-atlantic_sturgeon.png", "group": "sturgeon"}, {"id": "159520", "name": "Longhorn sculpin", "thumb": "tn_Myoct_u1.jpg", "sprite": "sp-anchoviella_juruasanga.png", "group": "other"}, {"id": "126846", "name": "Common dolphinfish", "thumb": "tn_Cohip_ud.jpg", "sprite": "sp-anchoviella_juruasanga.png", "group": "other"}, {"id": "126996", "name": "Rock gunnel", "thumb": "tn_Phgun_u1.jpg", "sprite": "sp-anchoviella_juruasanga.png", "group": "other"}], "filterAggs": {"waterType": {"Brackish": 4}, "bodyGroup": {"other": 3, "fish": 1}}, "groupDistribution": [{"group": "other", "count": 3}, {"group": "sturgeon", "count": 1}]}, {"lat": 43.1, "lng": 62.98, "count": 6, "topItems": [{"id": "126398", "name": "Silver spinyfin", "thumb": "tn_Diarg_u5.jpg", "sprite": "sp-anchoviella_juruasanga.png", "group": "other"}, {"id": "158988", "name": "Longfin hake", "thumb": "tn_Phche_u0.jpg", "sprite": "sp-anchoviella_juruasanga.png", "group": "other"}, {"id": "127205", "name": "Moustache sculpin", "thumb": "tn_Trmur_u3.jpg", "sprite": "sp-anchoviella_juruasanga.png", "group": "other"}, {"id": "126758", "name": "Atlantic wolffish", "thumb": "tn_Anlup_u8.jpg", "sprite": "sp-anchoviella_juruasanga.png", "group": "other"}, {"id": "158748", "name": "Offshore silver hake", "thumb": "tn_Mealb_u0.jpg", "sprite": "sp-anchoviella_juruasanga.png", "group": "other"}, {"id": "159785", "name": "Cunner", "thumb": "tn_Taads_u0.jpg", "sprite": "sp-cleaner_wrasse.png", "group": "wrasse"}], "filterAggs": {"waterType": {"Saltwater": 6}, "bodyGroup": {"other": 5, "fish": 1}}, "groupDistribution": [{"group": "other", "count": 5}, {"group": "wrasse", "count": 1}]}], "points": [{"lat": 41.43, "lng": 57.01, "id": "126398", "name": "Silver spinyfin", "thumb": "tn_Diarg_u5.jpg", "sprite": "sp-anchoviella_juruasanga.png", "group": "other", "rarity": 1, "waterType": "Saltwater"}, {"lat": 44.6469, "lng": 63.5617, "id": "178590", "name": "Dunaliella tertiolecta", "sprite": "sp-anchoviella_juruasanga.png", "group": "other", "rarity": 1}, {"lat": 45.0, "lng": 60.0, "id": "154379", "name": "Promonotus orientalis", "sprite": "sp-anchoviella_juruasanga.png", "group": "other", "rarity": 1}, {"lat": 43.7333, "lng": 59.0, "id": "282474", "name": "Amu Darya sturgeon", "thumb": "tn_Pskau_u4.jpg", "sprite": "sp-atlantic_sturgeon.png", "group": "sturgeon", "rarity": 1, "waterType": "Brackish"}, {"lat": 45.4799, "lng": 60.7221, "id": "159049", "name": "Calidris ferruginea", "sprite": "sp-anchoviella_juruasanga.png", "group": "other", "rarity": 1}, {"lat": 44.017, "lng": 66.767, "id": "103471", "name": "Aplidium", "sprite": "sp-anchoviella_juruasanga.png", "group": "other", "rarity": 1}, {"lat": 41.8867, "lng": 66.5933, "id": "158988", "name": "Longfin hake", "thumb": "tn_Phche_u0.jpg", "sprite": "sp-anchoviella_juruasanga.png", "group": "other", "rarity": 1, "waterType": "Saltwater"}, {"lat": 44.6469, "lng": 63.5617, "id": "145788", "name": "Porphyridium purpureum", "sprite": "sp-anchoviella_juruasanga.png", "group": "other", "rarity": 1}, {"lat": 44.3816, "lng": 60.1655, "id": "159049", "name": "Calidris ferruginea", "sprite": "sp-anchoviella_juruasanga.png", "group": "other", "rarity": 1}, {"lat": 46.0167, "lng": 60.3817, "id": "110941", "name": "Fenestrulina", "sprite": "sp-anchoviella_juruasanga.png", "group": "other", "rarity": 1}, {"lat": 44.0, "lng": 59.0, "id": "127205", "name": "Moustache sculpin", "thumb": "tn_Trmur_u3.jpg", "sprite": "sp-anchoviella_juruasanga.png", "group": "other", "rarity": 1, "waterType": "Saltwater"}, {"lat": 47.133, "lng": 58.233, "id": "125829", "name": "Myctophum", "sprite": "sp-anchoviella_juruasanga.png", "group": "other", "rarity": 1}, {"lat": 44.8522, "lng": 66.6711, "id": "158097", "name": "Haploops fundiensis", "sprite": "sp-american_lobster.png", "group": "crab_lobster", "rarity": 1}, {"lat": 41.4, "lng": 65.5917, "id": "138857", "name": "Buccinum abyssorum", "sprite": "sp-cowrie_shell.png", "group": "sea_snail", "rarity": 1}, {"lat": 42.1546, "lng": 59.7645, "id": "159049", "name": "Calidris ferruginea", "sprite": "sp-anchoviella_juruasanga.png", "group": "other", "rarity": 1}, {"lat": 45.45, "lng": 62.9, "id": "140657", "name": "Crassostrea virginica", "sprite": "sp-blue_mussel.png", "group": "clam_mussel", "rarity": 1}, {"lat": 45.583, "lng": 64.966, "id": "140262", "name": "Littorina littorea", "sprite": "sp-cowrie_shell.png", "group": "sea_snail", "rarity": 1}, {"lat": 42.0833, "lng": 66.6667, "id": "138878", "name": "Buccinum undatum", "sprite": "sp-cowrie_shell.png", "group": "sea_snail", "rarity": 1}, {"lat": 42.0, "lng": 66.0, "id": "126758", "name": "Atlantic wolffish", "thumb": "tn_Anlup_u8.jpg", "sprite": "sp-anchoviella_juruasanga.png", "group": "other", "rarity": 1, "waterType": "Saltwater"}, {"lat": 41.8867, "lng": 66.5933, "id": "158748", "name": "Offshore silver hake", "thumb": "tn_Mealb_u0.jpg", "sprite": "sp-anchoviella_juruasanga.png", "group": "other", "rarity": 1, "waterType": "Saltwater"}, {"lat": 46.7389, "lng": 60.6111, "id": "149294", "name": "Chaetoceros simplex", "sprite": "sp-anchoviella_juruasanga.png", "group": "other", "rarity": 1}, {"lat": 44.6469, "lng": 63.5617, "id": "375677", "name": "Cylindrotheca fusiformis", "sprite": "sp-anchoviella_juruasanga.png", "group": "other", "rarity": 1}, {"lat": 46.6167, "lng": 60.7333, "id": "196347", "name": "Actinocyclus", "sprite": "sp-cowrie_shell.png", "group": "sea_snail", "rarity": 1}, {"lat": 45.664, "lng": 59.5395, "id": "125659", "name": "Atherina", "sprite": "sp-anchoviella_juruasanga.png", "group": "other", "rarity": 1}, {"lat": 41.8458, "lng": 67.0329, "id": "159520", "name": "Longhorn sculpin", "thumb": "tn_Myoct_u1.jpg", "sprite": "sp-anchoviella_juruasanga.png", "group": "other", "rarity": 1, "waterType": "Brackish"}, {"lat": 47.4125, "lng": 62.7, "id": "159785", "name": "Cunner", "thumb": "tn_Taads_u0.jpg", "sprite": "sp-cleaner_wrasse.png", "group": "wrasse", "rarity": 1, "waterType": "Saltwater"}, {"lat": 41.5, "lng": 66.25, "id": "126846", "name": "Common dolphinfish", "thumb": "tn_Cohip_ud.jpg", "sprite": "sp-anchoviella_juruasanga.png", "group": "other", "rarity": 1, "waterType": "Brackish"}, {"lat": 46.0333, "lng": 64.0833, "id": "841259", "name": "Tripos longipes", "sprite": "sp-anchoviella_juruasanga.png", "group": "other", "rarity": 1}, {"lat": 44.6469, "lng": 63.5617, "id": "109723", "name": "Amphidinium carterae", "sprite": "sp-anchoviella_juruasanga.png", "group": "other", "rarity": 1}, {"lat": 40.983, "lng": 59.933, "id": "138848", "name": "Bathyteuthis abyssicola", "sprite": "sp-giant_pacific_octopus.png", "group": "octopus_squid", "rarity": 1}, {"lat": 46.8333, "lng": 61.0, "id": "1502020", "name": "Cerastoderma samodurovi", "sprite": "sp-blue_mussel.png", "group": "clam_mussel", "rarity": 1}, {"lat": 46.9472, "lng": 61.7667, "id": "126996", "name": "Rock gunnel", "thumb": "tn_Phgun_u1.jpg", "sprite": "sp-anchoviella_juruasanga.png", "group": "other", "rarity": 1, "waterType": "Brackish"}]}