{"zoom": 5, "x": 25, "y": 13, "clusters": [{"lat": 29.37, "lng": 108.33, "count": 6, "topItems": [{"id": "127089", "name": "Largehead hairtail", "thumb": "tn_Trlep_u0.jpg", "sprite": "sp-anchoviella_juruasanga.png", "group": "other"}, {"id": "281590", "name": "Asian swamp eel", "thumb": "tn_Moalb_u5.jpg", "sprite": "sp-anchoviella_juruasanga.png", "group": "other"}, {"id": "282681", "name": "Schistura fasciolata", "thumb": "tn_Scfas_u2.jpg", "sprite": "sp-anchoviella_juruasanga.png", "group": "other"}, {"id": "281941", "name": "Japanese rice fish", "thumb": "tn_Orlat_u1.jpg", "sprite": "sp-anchoviella_juruasanga.png", "group": "other"}, {"id": "154298", "name": "Goldfish", "thumb": "tn_Caaurau1.jpg", "sprite": "sp-enteromius.png", "group": "carp_minnow"}], "filterAggs": {"waterType": {"Brackish": 6}, "bodyGroup": {"other": 5, "fish": 1}}, "groupDistribution": [{"group": "other", "count": 5}, {"group": "carp_minnow", "count": 1}]}, {"lat": 24.04, "lng": 107.96, "count": 7, "topItems": [{"id": "282798", "name": "Big-eye mandarin fish", "thumb": "tn_Sikne_j0.jpg", "sprite": "sp-anchoviella_juruasanga.png", "group": "other"}, {"id": "282852", "name": "Squalidus argentatus", "thumb": "tn_Sqarg_u1.jpg", "sprite": "sp-enteromius.png", "group": "carp_minnow"}, {"id": "282799", "name": "Leopard mandarin fish", "thumb": "tn_Sisch_u4.jpg", "sprite": "sp-anchoviella_juruasanga.png", "group": "other"}, {"id": "465541", "name": "Stone moroko", "thumb": "tn_Pspar_u1.jpg", "sprite": "sp-enteromius.png", "group": "carp_minnow"}, {"id": "280399", "name": "Coreoperca whiteheadi", "thumb": "tn_Cowhi_u0.jpg", "sprite": "sp-anchoviella_juruasanga.png", "group": "other"}, {"id": "298273", "name": "Chinese lizard gudgeon", "thumb": "tn_Sadab_u1.jpg", "sprite": "sp-enteromius.png", "group": "carp_minnow"}], "filterAggs": {"waterType": {"Brackish": 7}, "bodyGroup": {"other": 4, "fish": 3}}, "groupDistribution": [{"group": "other", "count": 4}, {"group": "carp_minnow", "count": 3}]}, {"lat": 23.05, "lng": 108.54, "count": 10, "topItems": [{"id": "279500", "name": "Acrossocheilus iridescens", "thumb": "tn_Aciri_u0.jpg", "sprite": "sp-enteromius.png", "group": "carp_minnow"}, {"id": "313684", "name": "Aphyocypris normalis", "thumb": "tn_Ninor_u0.jpg", "sprite": "sp-enteromius.png", "group": "carp_minnow"}, {"id": "1026703", "name": "Barbel chub", "thumb": "tn_Sqcur_u2.jpg", "sprite": "sp-enteromius.png", "group": "carp_minnow"}, {"id": "298273", "name": "Chinese lizard gudgeon", "thumb": "tn_Sadab_u1.jpg", "sprite": "sp-enteromius.png", "group": "carp_minnow"}, {"id": "154582", "name": "Common carp", "thumb": "tn_Cycar_ua.jpg", "sprite": "sp-enteromius.png", "group": "carp_minnow"}, {"id": "280399", "name": "Coreoperca whiteheadi", "thumb": "tn_Cowhi_u0.jpg", "sprite": "sp-anchoviella_juruasanga.png", "group": "other"}, {"id": "280793", "name": "Folifer brevifilis", "thumb": "tn_Fobre_u0.jpg", "sprite": "sp-enteromius.png", "group": "carp_minnow"}, {"id": "154298", "name": "Goldfish", "thumb": "tn_Caaurau1.jpg", "sprite": "sp-enteromius.png", "group": "carp_minnow"}], "filterAggs": {"waterType": {"Brackish": 10}, "bodyGroup": {"fish": 9, "other": 1}}, "groupDistribution": [{"group": "carp_minnow", "count": 9}, {"group": "other", "count": 1}]}, {"lat": 23.09, "lng": 109.53, "count": 10, "topItems": [{"id": "281941", "name": "Japanese rice fish", "thumb": "tn_Orlat_u1.jpg", "sprite": "sp-anchoviella_juruasanga.png", "group": "other"}, {"id": "281275", "name": "Japanese seabass", "thumb": "tn_Lajap_u5.jpg", "sprite": "sp-anchoviella_juruasanga.png", "group": "other"}, {"id": "281421", "name": "Luciobrama macrocephalus", "thumb": "tn_Lumac_u0.jpg", "sprite": "sp-enteromius.png", "group": "carp_minnow"}, {"id": "1018534", "name": "Ochetobius elongatus", "thumb": "tn_Ocelo_u0.jpg", "sprite": "sp-enteromius.png", "group": "carp_minnow"}, {"id": "1016961", "name": "Paradisefish", "thumb": "tn_Maope_u9.jpg", "sprite": "sp-anchoviella_juruasanga.png", "group": "other"}, {"id": "315221", "name": "Pelteobagrus intermedius", "sprite": "sp-blue_catfish.png", "group": "catfish"}, {"id": "282430", "name": "Pseudohemiculter dispar", "thumb": "tn_Psdis_u8.jpg", "sprite": "sp-enteromius.png", "group": "carp_minnow"}, {"id": "275345", "name": "Rhodeus spinalis", "sprite": "sp-enteromius.png", "group": "carp_minnow"}], "filterAggs": {"waterType": {"Brackish": 10}, "bodyGroup": {"fish": 7, "other": 3}}, "groupDistribution": [{"group": "carp_minnow", "count": 5}, {"group": "other", "count": 3}, {"group": "catfish", "count": 2}]}, {"lat": 23.47, "lng": 111.29, "count": 2, "topItems": [{"id": "281021", "name": "Sharpbelly", "thumb": "tn_Heleu_u7.jpg", "sprite": "sp-enteromius.png", "group": "carp_minnow"}, {"id": "1013562", "name": "White amur bream", "thumb": "tn_Papek_u0.jpg", "sprite": "sp-enteromius.png", "group": "carp_minnow"}], "filterAggs": {"waterType": {"Brackish": 2}, "bodyGroup": {"fish": 2}}, "groupDistribution": [{"group": "carp_minnow", "count": 2}]}, {"lat": 29.89, "lng": 103.74, "count": 7, "topItems": [{"id": "298273", "name": "Chinese lizard gudgeon", "thumb": "tn_Sadab_u1.jpg", "sprite": "sp-enteromius.png", "group": "carp_minnow"}, {"id": "281590", "name": "Asian swamp eel", "thumb": "tn_Moalb_u5.jpg", "sprite": "sp-anchoviella_juruasanga.png", "group": "other"}, {"id": "271705", "name": "Japanese eel", "thumb": "tn_Anjap_u0.jpg", "sprite": "sp-electric_eel.png", "group": "eel"}, {"id": "154582", "name": "Common carp", "thumb": "tn_Cycar_ua.jpg", "sprite": "sp-enteromius.png", "group": "carp_minnow"}, {"id": "282799", "name": "Leopard mandarin fish", "thumb": "tn_Sisch_u4.jpg", "sprite": "sp-anchoviella_juruasanga.png", "group": "other"}, {"id": "283183", "name": "Xenocypris davidi", "thumb": "tn_Xedav_u0.jpg", "sprite": "sp-enteromius.png", "group": "carp_minnow"}, {"id": "154298", "name": "Goldfish", "thumb": "tn_Caaurau1.jpg", "sprite": "sp-enteromius.png", "group": "carp_minnow"}], "filterAggs": {"waterType": {"Brackish": 7}, "bodyGroup": {"fish": 5, "other": 2}}, "groupDistribution": [{"group": "carp_minnow", "count": 4}, {"group": "other", "count": 2}, {"group": "eel", "count": 1}]}, {"lat": 25.97, "lng": 102.98, "count": 8, "topItems": [{"id": "281019", "name": "Hemichromis guttatus", "thumb": "tn_Hegut_u1.jpg", "sprite": "sp-coptodon_louka.png", "group": "cichlid"}, {"id": "280878", "name": "Glyptothorax fokiensis", "sprite": "sp-blue_catfish.png", "group": "catfish"}, {"id": "281590", "name": "Asian swamp eel", "thumb": "tn_Moalb_u5.jpg", "sprite": "sp-anchoviella_juruasanga.png", "group": "other"}, {"id": "282681", "name": "Schistura fasciolata", "thumb": "tn_Scfas_u2.jpg", "sprite": "sp-anchoviella_juruasanga.png", "group": "other"}, {"id": "154298", "name": "Goldfish", "thumb": "tn_Caaurau1.jpg", "sprite": "sp-enteromius.png", "group": "carp_minnow"}, {"id": "276138", "name": "Robust gambusia", "sprite": "sp-anchoviella_juruasanga.png", "group": "other"}, {"id": "280567", "name": "Discogobio macrophysallidos", "sprite": "sp-enteromius.png", "group": "carp_minnow"}, {"id": "991279", "name": "Pond loach", "thumb": "tn_Miang_u2.jpg", "sprite": "sp-anchoviella_juruasanga.png", "group": "other"}], "filterAggs": {"waterType": {"Brackish": 8}, "bodyGroup": {"fish": 4, "other": 4}}, "groupDistribution": [{"group": "other", "count": 4}, {"group": "carp_minnow", "count": 2}, {"group": "cichlid", "count": 1}, {"group": "catfish", "count": 1}]}, {"lat": 22.9, "lng": 103.87, "count": 10, "topItems": [{"id": "275345", "name": "Rhodeus spinalis", "sprite": "sp-enteromius.png", "group": "carp_minnow"}, {"id": "282801", "name": "Sinogastromyzon wui", "thumb": "tn_Siwui_u2.jpg", "sprite": "sp-anchoviella_juruasanga.png", "group": "other"}, {"id": "280885", "name": "Gobiobotia kolleri", "thumb": "tn_Goint_u0.jpg", "sprite": "sp-enteromius.png", "group": "carp_minnow"}, {"id": "154298", "name": "Goldfish", "thumb": "tn_Caaurau1.jpg", "sprite": "sp-enteromius.png", "group": "carp_minnow"}, {"id": "279500", "name": "Acrossocheilus iridescens", "thumb": "tn_Aciri_u0.jpg", "sprite": "sp-enteromius.png", "group": "carp_minnow"}, {"id": "313872", "name": "Balitora kwangsiensis", "thumb": "tn_Sikwa_u1.jpg", "sprite": "sp-anchoviella_juruasanga.png", "group": "other"}, {"id": "1018726", "name": "Chinese false gudgeon", "thumb": "tn_Abriv_u2.jpg", "sprite": "sp-enteromius.png", "group": "carp_minnow"}, {"id": "281590", "name": "Asian swamp eel", "thumb": "tn_Moalb_u5.jpg", "sprite": "sp-anchoviella_juruasanga.png", "group": "other"}, {"id": "281021", "name": "Sharpbelly", "thumb": "tn_Heleu_u7.jpg", "sprite": "sp-enteromius.png", "group": "carp_minnow"}, {"id": "154400", "name": "Guppy", "thumb": "tn_Poret_ue.jpg", "sprite": "sp-anchoviella_juruasanga.png", "group": "other"}], "filterAggs": {"waterType": {"Brackish": 10}, "bodyGroup": {"fish": 6, "other": 4}}, "groupDistribution": [{"group": "carp_minnow", "count": 6}, {"group": "other", "count": 4}]}, {"lat": 24.64, "lng": 102.67, "count": 10, "topItems": [{"id": "279486", "name": "Acheilognathus macropterus", "thumb": "tn_Acmac_u6.jpg", "sprite": "sp-enteromius.png", "group": "carp_minnow"}, {"id": "272183", "name": "Asian pencil halfbeak", "thumb": "tn_Hyint_u0.jpg", "sprite": "sp-anchoviella_juruasanga.png", "group": "other"}, {"id": "281590", "name": "Asian swamp eel", "thumb": "tn_Moalb_u5.jpg", "sprite": "sp-anchoviella_juruasanga.png", "group": "other"}, {"id": "154582", "name": "Common carp", "thumb": "tn_Cycar_ua.jpg", "sprite": "sp-enteromius.png", "group": "carp_minnow"}, {"id": "281941", "name": "Japanese rice fish", "thumb": "tn_Orlat_u1.jpg", "sprite": "sp-anchoviella_juruasanga.png", "group": "other"}, {"id": "1015529", "name": "Khanka spiny bitterling", "thumb": "tn_Acgra_m0.jpg", "sprite": "sp-enteromius.png", "group": "carp_minnow"}, {"id": "1020457", "name": "Micropercops swinhonis", "sprite": "sp-anchoviella_juruasanga.png", "group": "other"}, {"id": "281701", "name": "Neosalanx brevirostris", "sprite": "sp-anchoviella_juruasanga.png", "group": "other"}, {"id": "282583", "name": "Rhinogobius giurinus", "thumb": "tn_Rhgiu_u1.jpg", "sprite": "sp-eviota_bipunctata.png", "group": "goby"}], "filterAggs": {"waterType": {"Brackish": 10}, "bodyGroup": {"other": 6, "fish": 4}}, "groupDistribution": [{"group": "other", "count": 6}, {"group": "carp_minnow", "count": 3}, {"group": "goby", "count": 1}]}, {"lat": 24.8, "lng": 102.9, "count": 1, "topItems": [{"id": "1015520", "name": "Rosy bitterling", "thumb": "tn_Rhoce_u1.jpg", "sprite": "sp-enteromius.png", "group": "carp_minnow"}], "filterAggs": {"waterType": {"Brackish": 1}, "bodyGroup": {"fish": 1}}, "groupDistribution": [{"group": "carp_minnow", "count": 1}]}, {"lat": 24.97, "lng": 105.81, "count": 1, "topItems": [{"id": "1022238", "name": "Indian perch", "thumb": "tn_Aplin_u0.jpg", "sprite": "sp-anchoviella_juruasanga.png", "group": "other"}], "filterAggs": {"waterType": {"Saltwater": 1}, "bodyGroup": {"other": 1}}, "groupDistribution": [{"group": "other", "count": 1}]}], "points": [{"lat": 29.5833, "lng": 103.5333, "id": "298273", "name": "Chinese lizard gudgeon", "thumb": "tn_Sadab_u1.jpg", "sprite": "sp-enteromius.png", "group": "carp_minnow", "rarity": 1, "waterType": "Brackish"}, {"lat": 29.5833, "lng": 103.5333, "id": "281590", "name": "Asian swamp eel", "thumb": "tn_Moalb_u5.jpg", "sprite": "sp-anchoviella_juruasanga.png", "group": "other", "rarity": 1, "waterType": "Brackish"}, {"lat": 25.169, "lng": 102.084, "id": "1544752", "name": "Laternoides drepanostoma", "sprite": "sp-cowrie_shell.png", "group": "sea_snail", "rarity": 1}, {"lat": 27.5833, "lng": 110.6667, "id": "127089", "name": "Largehead hairtail", "thumb": "tn_Trlep_u0.jpg", "sprite": "sp-anchoviella_juruasanga.png", "group": "other", "rarity": 1, "waterType": "Brackish"}, {"lat": 30.8333, "lng": 108.4333, "id": "281590", "name": "Asian swamp eel", "thumb": "tn_Moalb_u5.jpg", "sprite": "sp-anchoviella_juruasanga.png", "group": "other", "rarity": 1, "waterType": "Brackish"}, {"lat": 24.6008, "lng": 102.8539, "id": "1040743", "name": "Varichaetadrilus vestibulatus", "sprite": "sp-anchoviella_juruasanga.png", "group": "other", "rarity": 1}, {"lat": 22.4063, "lng": 106.0463, "id": "268484", "name": "Balitora", "sprite": "sp-anchoviella_juruasanga.png", "group": "other", "rarity": 1}, {"lat": 22.3389, "lng": 105.9185, "id": "270823", "name": "Schistura", "sprite": "sp-anchoviella_juruasanga.png", "group": "other", "rarity": 1}, {"lat": 22.8167, "lng": 108.317, "id": "129380", "name": "Perinereis", "sprite": "sp-anchoviella_juruasanga.png", "group": "other", "rarity": 1}, {"lat": 23.4663, "lng": 111.2902, "id": "281275", "name": "Japanese seabass", "thumb": "tn_Lajap_u5.jpg", "sprite": "sp-anchoviella_juruasanga.png", "group": "other", "rarity": 1, "waterType": "Brackish"}, {"lat": 22.0726, "lng": 103.1699, "id": "270589", "name": "Pseudohemiculter", "sprite": "sp-enteromius.png", "group": "carp_minnow", "rarity": 1}, {"lat": 22.92, "lng": 108.08, "id": "1360107", "name": "Haihenia tetracarinata", "sprite": "sp-cowrie_shell.png", "group": "sea_snail", "rarity": 1}, {"lat": 23.4663, "lng": 111.2902, "id": "282430", "name": "Pseudohemiculter dispar", "thumb": "tn_Psdis_u8.jpg", "sprite": "sp-enteromius.png", "group": "carp_minnow", "rarity": 1, "waterType": "Brackish"}, {"lat": 22.227, "lng": 103.2502, "id": "270095", "name": "Onychostoma", "sprite": "sp-enteromius.png", "group": "carp_minnow", "rarity": 1}, {"lat": 23.9, "lng": 106.5, "id": "282798", "name": "Big-eye mandarin fish", "thumb": "tn_Sikne_j0.jpg", "sprite": "sp-anchoviella_juruasanga.png", "group": "other", "rarity": 1, "waterType": "Brackish"}, {"lat": 27.0, "lng": 111.24, "id": "428804", "name": "Scotoplanes clarki", "sprite": "sp-sea_cucumber.png", "group": "starfish", "rarity": 1}, {"lat": 28.365, "lng": 101.4265, "id": "241019", "name": "Perisesarma", "sprite": "sp-american_lobster.png", "group": "crab_lobster", "rarity": 1}, {"lat": 24.3828, "lng": 102.8303, "id": "1040642", "name": "Aulodrilus apeniatus", "sprite": "sp-anchoviella_juruasanga.png", "group": "other", "rarity": 1}, {"lat": 22.147, "lng": 105.8348, "id": "269801", "name": "Mastacembelus", "sprite": "sp-anchoviella_juruasanga.png", "group": "other", "rarity": 1}, {"lat": 24.4904, "lng": 102.8841, "id": "154200", "name": "Silurus", "sprite": "sp-blue_catfish.png", "group": "catfish", "rarity": 1}, {"lat": 25.11, "lng": 111.08, "id": "1329267", "name": "Hydrobia taochuanensis", "sprite": "sp-cowrie_shell.png", "group": "sea_snail", "rarity": 1}, {"lat": 28.365, "lng": 101.4265, "id": "444505", "name": "Clistocoeloma merguiense", "sprite": "sp-american_lobster.png", "group": "crab_lobster", "rarity": 1}, {"lat": 24.839, "lng": 102.7044, "id": "281941", "name": "Japanese rice fish", "thumb": "tn_Orlat_u1.jpg", "sprite": "sp-anchoviella_juruasanga.png", "group": "other", "rarity": 1, "waterType": "Brackish"}, {"lat": 22.0667, "lng": 103.1667, "id": "268218", "name": "Acrossocheilus", "sprite": "sp-enteromius.png", "group": "carp_minnow", "rarity": 1}, {"lat": 23.4663, "lng": 111.2902, "id": "154582", "name": "Common carp", "thumb": "tn_Cycar_ua.jpg", "sprite": "sp-enteromius.png", "group": "carp_minnow", "rarity": 1, "waterType": "Brackish"}, {"lat": 23.4663, "lng": 111.2902, "id": "1026703", "name": "Barbel chub", "thumb": "tn_Sqcur_u2.jpg", "sprite": "sp-enteromius.png", "group": "carp_minnow", "rarity": 1, "waterType": "Brackish"}, {"lat": 23.8889, "lng": 106.6229, "id": "282852", "name": "Squalidus argentatus", "thumb": "tn_Sqarg_u1.jpg", "sprite": "sp-enteromius.png", "group": "carp_minnow", "rarity": 1, "waterType": "Brackish"}, {"lat": 22.1147, "lng": 107.1305, "id": "212601", "name": "Calidris ruficollis", "sprite": "sp-anchoviella_juruasanga.png", "group": "other", "rarity": 1}, {"lat": 22.6657, "lng": 106.2579, "id": "270808", "name": "Saurogobio", "sprite": "sp-enteromius.png", "group": "carp_minnow", "rarity": 1}, {"lat": 24.4014, "lng": 102.8792, "id": "1040717", "name": "Potamothrix aductus", "sprite": "sp-anchoviella_juruasanga.png", "group": "other", "rarity": 1}, {"lat": 22.1492, "lng": 103.2678, "id": "270737", "name": "Rhinogobius", "sprite": "sp-eviota_bipunctata.png", "group": "goby", "rarity": 1}, {"lat": 26.0, "lng": 102.0, "id": "151289", "name": "Lepomis", "sprite": "sp-dicentrarchus.png", "group": "bass", "rarity": 1}, {"lat": 22.0801, "lng": 103.2077, "id": "270487", "name": "Poropuntius", "sprite": "sp-enteromius.png", "group": "carp_minnow", "rarity": 1}, {"lat": 22.5175, "lng": 106.137, "id": "270906", "name": "Siniperca", "sprite": "sp-anchoviella_juruasanga.png", "group": "other", "rarity": 1}, {"lat": 22.1069, "lng": 103.2897, "id": "268476", "name": "Bagarius", "sprite": "sp-blue_catfish.png", "group": "catfish", "rarity": 1}, {"lat": 29.8593, "lng": 108.9377, "id": "159049", "name": "Calidris ferruginea", "sprite": "sp-anchoviella_juruasanga.png", "group": "other", "rarity": 1}, {"lat": 22.758, "lng": 109.549, "id": "1360100", "name": "Pachydrobia guangxiensis", "sprite": "sp-cowrie_shell.png", "group": "sea_snail", "rarity": 1}, {"lat": 22.5551, "lng": 105.9185, "id": "269697", "name": "Liniparhomaloptera", "sprite": "sp-anchoviella_juruasanga.png", "group": "other", "rarity": 1}, {"lat": 23.4663, "lng": 111.2902, "id": "298273", "name": "Chinese lizard gudgeon", "thumb": "tn_Sadab_u1.jpg", "sprite": "sp-enteromius.png", "group": "carp_minnow", "rarity": 1, "waterType": "Brackish"}, {"lat": 30.7167, "lng": 111.367, "id": "125618", "name": "Acipenser", "sprite": "sp-atlantic_sturgeon.png", "group": "sturgeon", "rarity": 1}, {"lat": 22.067, "lng": 106.4, "id": "258914", "name": "Annina fustis", "sprite": "sp-american_lobster.png", "group": "crab_lobster", "rarity": 1}, {"lat": 30.644, "lng": 111.745, "id": "1547044", "name": "Mirolaminatus trilamellatus", "sprite": "sp-cowrie_shell.png", "group": "sea_snail", "rarity": 1}, {"lat": 22.086, "lng": 103.2278, "id": "275345", "name": "Rhodeus spinalis", "sprite": "sp-enteromius.png", "group": "carp_minnow", "rarity": 1, "waterType": "Brackish"}, {"lat": 22.368, "lng": 103.3561, "id": "271202", "name": "Vanmanenia", "sprite": "sp-anchoviella_juruasanga.png", "group": "other", "rarity": 1}, {"lat": 29.6, "lng": 103.6667, "id": "271705", "name": "Japanese eel", "thumb": "tn_Anjap_u0.jpg", "sprite": "sp-electric_eel.png", "group": "eel", "rarity": 1, "waterType": "Brackish"}, {"lat": 24.05, "lng": 105.05, "id": "282801", "name": "Sinogastromyzon wui", "thumb": "tn_Siwui_u2.jpg", "sprite": "sp-anchoviella_juruasanga.png", "group": "other", "rarity": 1, "waterType": "Brackish"}, {"lat": 27.0, "lng": 112.0, "id": "491368", "name": "Solenosteira mendozana", "sprite": "sp-cowrie_shell.png", "group": "sea_snail", "rarity": 1}, {"lat": 25.0, "lng": 103.0, "id": "1020457", "name": "Micropercops swinhonis", "sprite": "sp-anchoviella_juruasanga.png", "group": "other", "rarity": 1, "waterType": "Brackish"}, {"lat": 22.3877, "lng": 106.1816, "id": "269873", "name": "Microphysogobio", "sprite": "sp-enteromius.png", "group": "carp_minnow", "rarity": 1}, {"lat": 24.3003, "lng": 102.7994, "id": "1040677", "name": "Ilyodrilus mesoprostatus", "sprite": "sp-anchoviella_juruasanga.png", "group": "other", "rarity": 1}, {"lat": 26.0, "lng": 102.0, "id": "281019", "name": "Hemichromis guttatus", "thumb": "tn_Hegut_u1.jpg", "sprite": "sp-coptodon_louka.png", "group": "cichlid", "rarity": 1, "waterType": "Brackish"}, {"lat": 22.1244, "lng": 106.0299, "id": "275345", "name": "Rhodeus spinalis", "sprite": "sp-enteromius.png", "group": "carp_minnow", "rarity": 1, "waterType": "Brackish"}, {"lat": 22.0667, "lng": 103.1667, "id": "280885", "name": "Gobiobotia kolleri", "thumb": "tn_Goint_u0.jpg", "sprite": "sp-enteromius.png", "group": "carp_minnow", "rarity": 1, "waterType": "Brackish"}, {"lat": 22.7038, "lng": 105.7906, "id": "269185", "name": "Garra", "sprite": "sp-enteromius.png", "group": "carp_minnow", "rarity": 1}, {"lat": 30.6333, "lng": 104.0333, "id": "154582", "name": "Common carp", "thumb": "tn_Cycar_ua.jpg", "sprite": "sp-enteromius.png", "group": "carp_minnow", "rarity": 1, "waterType": "Brackish"}, {"lat": 23.05, "lng": 109.6, "id": "107397", "name": "Macropipus tuberculatus", "sprite": "sp-american_lobster.png", "group": "crab_lobster", "rarity": 1}, {"lat": 27.1517, "lng": 111.7817, "id": "734305", "name": "Epimeria morronei", "sprite": "sp-american_lobster.png", "group": "crab_lobster", "rarity": 1}, {"lat": 29.5494, "lng": 103.7633, "id": "269241", "name": "Gobiobotia", "sprite": "sp-enteromius.png", "group": "carp_minnow", "rarity": 1}, {"lat": 24.8234, "lng": 110.0268, "id": "159049", "name": "Calidris ferruginea", "sprite": "sp-anchoviella_juruasanga.png", "group": "other", "rarity": 1}, {"lat": 22.5438, "lng": 106.016, "id": "270095", "name": "Onychostoma", "sprite": "sp-enteromius.png", "group": "carp_minnow", "rarity": 1}, {"lat": 25.0, "lng": 103.0, "id": "282583", "name": "Rhinogobius giurinus", "thumb": "tn_Rhgiu_u1.jpg", "sprite": "sp-eviota_bipunctata.png", "group": "goby", "rarity": 1, "waterType": "Brackish"}, {"lat": 23.05, "lng": 109.6, "id": "441712", "name": "Pliosoma parvifrons", "sprite": "sp-american_lobster.png", "group": "crab_lobster", "rarity": 1}, {"lat": 23.2552, "lng": 105.4096, "id": "154344", "name": "Misgurnus", "sprite": "sp-anchoviella_juruasanga.png", "group": "other", "rarity": 1}, {"lat": 24.4014, "lng": 102.8792, "id": "1040655", "name": "Potamothrix paramoldaviensis", "sprite": "sp-anchoviella_juruasanga.png", "group": "other", "rarity": 1}, {"lat": 25.0, "lng": 102.0, "id": "154582", "name": "Common carp", "thumb": "tn_Cycar_ua.jpg", "sprite": "sp-enteromius.png", "group": "carp_minnow", "rarity": 1, "waterType": "Brackish"}, {"lat": 29.5494, "lng": 103.7633, "id": "269873", "name": "Microphysogobio", "sprite": "sp-enteromius.png", "group": "carp_minnow", "rarity": 1}, {"lat": 27.6914, "lng": 112.4351, "id": "212601", "name": "Calidris ruficollis", "sprite": "sp-anchoviella_juruasanga.png", "group": "other", "rarity": 1}, {"lat": 22.2314, "lng": 103.2803, "id": "269232", "name": "Glyptothorax", "sprite": "sp-blue_catfish.png", "group": "catfish", "rarity": 1}, {"lat": 23.05, "lng": 109.6, "id": "106673", "name": "Brachyura", "sprite": "sp-american_lobster.png", "group": "crab_lobster", "rarity": 1}, {"lat": 23.4663, "lng": 111.2902, "id": "315221", "name": "Pelteobagrus intermedius", "sprite": "sp-blue_catfish.png", "group": "catfish", "rarity": 1, "waterType": "Brackish"}, {"lat": 22.6447, "lng": 106.2892, "id": "269339", "name": "Hemiculter", "sprite": "sp-enteromius.png", "group": "carp_minnow", "rarity": 1}, {"lat": 29.5494, "lng": 103.7633, "id": "269232", "name": "Glyptothorax", "sprite": "sp-blue_catfish.png", "group": "catfish", "rarity": 1}, {"lat": 28.6, "lng": 104.4, "id": "280878", "name": "Glyptothorax fokiensis", "sprite": "sp-blue_catfish.png", "group": "catfish", "rarity": 1, "waterType": "Brackish"}, {"lat": 31.17, "lng": 111.77, "id": "1547050", "name": "Assiminea latiovata", "sprite": "sp-cowrie_shell.png", "group": "sea_snail", "rarity": 1}, {"lat": 23.4247, "lng": 110.5663, "id": "313684", "name": "Aphyocypris normalis", "thumb": "tn_Ninor_u0.jpg", "sprite": "sp-enteromius.png", "group": "carp_minnow", "rarity": 1, "waterType": "Brackish"}, {"lat": 23.3969, "lng": 110.0837, "id": "281421", "name": "Luciobrama macrocephalus", "thumb": "tn_Lumac_u0.jpg", "sprite": "sp-enteromius.png", "group": "carp_minnow", "rarity": 1, "waterType": "Brackish"}, {"lat": 25.0, "lng": 102.6, "id": "1015529", "name": "Khanka spiny bitterling", "thumb": "tn_Acgra_m0.jpg", "sprite": "sp-enteromius.png", "group": "carp_minnow", "rarity": 1, "waterType": "Brackish"}, {"lat": 22.4858, "lng": 106.1273, "id": "269232", "name": "Glyptothorax", "sprite": "sp-blue_catfish.png", "group": "catfish", "rarity": 1}, {"lat": 25.0389, "lng": 102.718, "id": "154344", "name": "Misgurnus", "sprite": "sp-anchoviella_juruasanga.png", "group": "other", "rarity": 1}, {"lat": 23.4663, "lng": 111.2902, "id": "1016961", "name": "Paradisefish", "thumb": "tn_Maope_u9.jpg", "sprite": "sp-anchoviella_juruasanga.png", "group": "other", "rarity": 1, "waterType": "Brackish"}, {"lat": 27.0, "lng": 111.8167, "id": "270135", "name": "Osteochilus", "sprite": "sp-enteromius.png", "group": "carp_minnow", "rarity": 1}, {"lat": 28.365, "lng": 101.4265, "id": "158047", "name": "Sesarmidae", "sprite": "sp-american_lobster.png", "group": "crab_lobster", "rarity": 1}, {"lat": 22.3358, "lng": 103.8372, "id": "154298", "name": "Goldfish", "thumb": "tn_Caaurau1.jpg", "sprite": "sp-enteromius.png", "group": "carp_minnow", "rarity": 1, "waterType": "Brackish"}, {"lat": 23.4663, "lng": 111.2902, "id": "1018534", "name": "Ochetobius elongatus", "thumb": "tn_Ocelo_u0.jpg", "sprite": "sp-enteromius.png", "group": "carp_minnow", "rarity": 1, "waterType": "Brackish"}, {"lat": 22.361, "lng": 106.4365, "id": "269164", "name": "Folifer", "sprite": "sp-enteromius.png", "group": "carp_minnow", "rarity": 1}, {"lat": 22.147, "lng": 105.8348, "id": "315221", "name": "Pelteobagrus intermedius", "sprite": "sp-blue_catfish.png", "group": "catfish", "rarity": 1, "waterType": "Brackish"}, {"lat": 26.5333, "lng": 112.0167, "id": "137813", "name": "Conus", "sprite": "sp-cowrie_shell.png", "group": "sea_snail", "rarity": 1}, {"lat": 23.05, "lng": 109.6, "id": "106757", "name": "Goneplacidae", "sprite": "sp-american_lobster.png", "group": "crab_lobster", "rarity": 1}, {"lat": 29.5494, "lng": 103.7633, "id": "269651", "name": "Leptobotia", "sprite": "sp-anchoviella_juruasanga.png", "group": "other", "rarity": 1}, {"lat": 22.234, "lng": 103.2708, "id": "279500", "name": "Acrossocheilus iridescens", "thumb": "tn_Aciri_u0.jpg", "sprite": "sp-enteromius.png", "group": "carp_minnow", "rarity": 1, "waterType": "Brackish"}, {"lat": 30.0845, "lng": 112.3126, "id": "383564", "name": "Neophocaena phocaenoides asiaeorientalis", "sprite": "sp-bottlenose_dolphin.png", "group": "dolphin", "rarity": 1}, {"lat": 23.05, "lng": 109.6, "id": "441967", "name": "Stenorhynchus debilis", "sprite": "sp-american_lobster.png", "group": "crab_lobster", "rarity": 1}, {"lat": 24.5344, "lng": 102.8619, "id": "1040654", "name": "Potamothrix parabedoti", "sprite": "sp-anchoviella_juruasanga.png", "group": "other", "rarity": 1}, {"lat": 23.4663, "lng": 111.2902, "id": "281021", "name": "Sharpbelly", "thumb": "tn_Heleu_u7.jpg", "sprite": "sp-enteromius.png", "group": "carp_minnow", "rarity": 1, "waterType": "Brackish"}, {"lat": 25.163, "lng": 102.015, "id": "1544750", "name": "Ovassiminea obesa", "sprite": "sp-cowrie_shell.png", "group": "sea_snail", "rarity": 1}, {"lat": 25.025, "lng": 102.7625, "id": "281590", "name": "Asian swamp eel", "thumb": "tn_Moalb_u5.jpg", "sprite": "sp-anchoviella_juruasanga.png", "group": "other", "rarity": 1, "waterType": "Brackish"}, {"lat": 22.0756, "lng": 103.1675, "id": "313872", "name": "Balitora kwangsiensis", "thumb": "tn_Sikwa_u1.jpg", "sprite": "sp-anchoviella_juruasanga.png", "group": "other", "rarity": 1, "waterType": "Brackish"}, {"lat": 23.4663, "lng": 111.2902, "id": "1013562", "name": "White amur bream", "thumb": "tn_Papek_u0.jpg", "sprite": "sp-enteromius.png", "group": "carp_minnow", "rarity": 1, "waterType": "Brackish"}, {"lat": 22.6587, "lng": 106.2683, "id": "279500", "name": "Acrossocheilus iridescens", "thumb": "tn_Aciri_u0.jpg", "sprite": "sp-enteromius.png", "group": "carp_minnow", "rarity": 1, "waterType": "Brackish"}, {"lat": 25.3, "lng": 105.6, "id": "282681", "name": "Schistura fasciolata", "thumb": "tn_Scfas_u2.jpg", "sprite": "sp-anchoviella_juruasanga.png", "group": "other", "rarity": 1, "waterType": "Brackish"}, {"lat": 29.62, "lng": 103.4, "id": "1329263", "name": "Triasamnicola pyriformis", "sprite": "sp-cowrie_shell.png", "group": "sea_snail", "rarity": 1}, {"lat": 22.6657, "lng": 106.2579, "id": "269241", "name": "Gobiobotia", "sprite": "sp-enteromius.png", "group": "carp_minnow", "rarity": 1}, {"lat": 23.0, "lng": 106.0, "id": "280399", "name": "Coreoperca whiteheadi", "thumb": "tn_Cowhi_u0.jpg", "sprite": "sp-anchoviella_juruasanga.png", "group": "other", "rarity": 1, "waterType": "Brackish"}, {"lat": 23.0906, "lng": 112.2155, "id": "212601", "name": "Calidris ruficollis", "sprite": "sp-anchoviella_juruasanga.png", "group": "other", "rarity": 1}, {"lat": 25.0333, "lng": 102.6833, "id": "282681", "name": "Schistura fasciolata", "thumb": "tn_Scfas_u2.jpg", "sprite": "sp-anchoviella_juruasanga.png", "group": "other", "rarity": 1, "waterType": "Brackish"}, {"lat": 22.2684, "lng": 103.4586, "id": "270823", "name": "Schistura", "sprite": "sp-anchoviella_juruasanga.png", "group": "other", "rarity": 1}, {"lat": 23.0756, "lng": 112.4794, "id": "951858", "name": "Gieysztoria qixingyanensis", "sprite": "sp-anchoviella_juruasanga.png", "group": "other", "rarity": 1}, {"lat": 22.5182, "lng": 105.8053, "id": "270737", "name": "Rhinogobius", "sprite": "sp-eviota_bipunctata.png", "group": "goby", "rarity": 1}, {"lat": 26.7446, "lng": 107.3294, "id": "159049", "name": "Calidris ferruginea", "sprite": "sp-anchoviella_juruasanga.png", "group": "other", "rarity": 1}, {"lat": 24.5344, "lng": 102.8619, "id": "1040657", "name": "Potamothrix praeprostatus", "sprite": "sp-anchoviella_juruasanga.png", "group": "other", "rarity": 1}, {"lat": 22.0667, "lng": 103.1667, "id": "268208", "name": "Acheilognathus", "sprite": "sp-enteromius.png", "group": "carp_minnow", "rarity": 1}, {"lat": 22.3745, "lng": 103.2929, "id": "268484", "name": "Balitora", "sprite": "sp-anchoviella_juruasanga.png", "group": "other", "rarity": 1}, {"lat": 22.5284, "lng": 103.3561, "id": "270910", "name": "Sinogastromyzon", "sprite": "sp-anchoviella_juruasanga.png", "group": "other", "rarity": 1}, {"lat": 22.6657, "lng": 106.2579, "id": "280793", "name": "Folifer brevifilis", "thumb": "tn_Fobre_u0.jpg", "sprite": "sp-enteromius.png", "group": "carp_minnow", "rarity": 1, "waterType": "Brackish"}, {"lat": 26.5333, "lng": 112.0167, "id": "23141", "name": "Volutidae", "sprite": "sp-cowrie_shell.png", "group": "sea_snail", "rarity": 1}, {"lat": 22.6657, "lng": 106.2579, "id": "270954", "name": "Squalidus", "sprite": "sp-enteromius.png", "group": "carp_minnow", "rarity": 1}, {"lat": 29.5644, "lng": 103.709, "id": "282799", "name": "Leopard mandarin fish", "thumb": "tn_Sisch_u4.jpg", "sprite": "sp-anchoviella_juruasanga.png", "group": "other", "rarity": 1, "waterType": "Brackish"}, {"lat": 22.546, "lng": 108.489, "id": "1360109", "name": "Yongningospira ornata", "sprite": "sp-cowrie_shell.png", "group": "sea_snail", "rarity": 1}, {"lat": 22.8167, "lng": 108.317, "id": "130411", "name": "Perinereis nuntia", "sprite": "sp-anchoviella_juruasanga.png", "group": "other", "rarity": 1}, {"lat": 25.11, "lng": 111.08, "id": "1329266", "name": "Unicarinata minuta", "sprite": "sp-cowrie_shell.png", "group": "sea_snail", "rarity": 1}]}