{"zoom": 5, "x": 26, "y": 21, "clusters": [{"lat": -50.2, "lng": 114.76, "count": 1, "topItems": [{"id": "281575", "name": "Cave gudgeon", "thumb": "tn_Miver_f0.gif", "sprite": "sp-anchoviella_juruasanga.png", "group": "other"}], "filterAggs": {"waterType": {"Brackish": 1}, "bodyGroup": {"other": 1}}, "groupDistribution": [{"group": "other", "count": 1}]}, {"lat": -50.32, "lng": 116.95, "count": 9, "topItems": [{"id": "234657", "name": "Fraser’s lanternfish", "thumb": "tn_Gyfra_u1.gif", "sprite": "sp-anchoviella_juruasanga.png", "group": "other"}, {"id": "221406", "name": "Southern seadevil", "thumb": "tn_Ceten_u0.jpg", "sprite": "sp-deep_sea_anglerfish.png", "group": "anglerfish"}, {"id": "234714", "name": "Bolin’s lanternfish", "thumb": "tn_Prbol_u1.gif", "sprite": "sp-anchoviella_juruasanga.png", "group": "other"}, {"id": "217707", "name": "Lantern fish", "thumb": "tn_Naach_u0.jpg", "sprite": "sp-anchoviella_juruasanga.png", "group": "other"}, {"id": "217697", "name": "Electrona antarctica", "thumb": "tn_Elant_u0.gif", "sprite": "sp-anchoviella_juruasanga.png", "group": "other"}, {"id": "1524555", "name": "Lagiacrusichthys macropinna", "thumb": "tn_Bemac_u0.jpg", "sprite": "sp-anchoviella_juruasanga.png", "group": "other"}, {"id": "126617", "name": "Rakery beaconlamp", "thumb": "tn_Lamac_u0.gif", "sprite": "sp-anchoviella_juruasanga.png", "group": "other"}, {"id": "234839", "name": "Parallel lanternfish", "thumb": "tn_Prpar_u1.gif", "sprite": "sp-anchoviella_juruasanga.png", "group": "other"}, {"id": "234641", "name": "Rhombic lanternfish", "thumb": "tn_Krand_u1.gif", "sprite": "sp-anchoviella_juruasanga.png", "group": "other"}], "filterAggs": {"waterType": {"Saltwater": 9}, "bodyGroup": {"other": 8, "fish": 1}}, "groupDistribution": [{"group": "other", "count": 8}, {"group": "anglerfish", "count": 1}]}, {"lat": -51.05, "lng": 117.01, "count": 6, "topItems": [{"id": "217697", "name": "Electrona antarctica", "thumb": "tn_Elant_u0.gif", "sprite": "sp-anchoviella_juruasanga.png", "group": "other"}, {"id": "234641", "name": "Rhombic lanternfish", "thumb": "tn_Krand_u1.gif", "sprite": "sp-anchoviella_juruasanga.png", "group": "other"}, {"id": "217707", "name": "Lantern fish", "thumb": "tn_Naach_u0.jpg", "sprite": "sp-anchoviella_juruasanga.png", "group": "other"}, {"id": "234747", "name": "Temperate snaggletooth", "sprite": "sp-anchoviella_juruasanga.png", "group": "other"}, {"id": "234642", "name": "Brauer’s lanternfish", "thumb": "tn_Gybra_u0.gif", "sprite": "sp-anchoviella_juruasanga.png", "group": "other"}, {"id": "234657", "name": "Fraser’s lanternfish", "thumb": "tn_Gyfra_u1.gif", "sprite": "sp-anchoviella_juruasanga.png", "group": "other"}], "filterAggs": {"waterType": {"Saltwater": 6}, "bodyGroup": {"other": 6}}, "groupDistribution": [{"group": "other", "count": 6}]}, {"lat": -52.97, "lng": 117.13, "count": 6, "topItems": [{"id": "217707", "name": "Lantern fish", "thumb": "tn_Naach_u0.jpg", "sprite": "sp-anchoviella_juruasanga.png", "group": "other"}, {"id": "234642", "name": "Brauer’s lanternfish", "thumb": "tn_Gybra_u0.gif", "sprite": "sp-anchoviella_juruasanga.png", "group": "other"}, {"id": "234821", "name": "Nichol's lanternfish", "thumb": "tn_Gynic_u0.jpg", "sprite": "sp-anchoviella_juruasanga.png", "group": "other"}, {"id": "217697", "name": "Electrona antarctica", "thumb": "tn_Elant_u0.gif", "sprite": "sp-anchoviella_juruasanga.png", "group": "other"}, {"id": "234641", "name": "Rhombic lanternfish", "thumb": "tn_Krand_u1.gif", "sprite": "sp-anchoviella_juruasanga.png", "group": "other"}, {"id": "234749", "name": "Gymnoscopelus opisthopterus", "thumb": "tn_Gyopi_u0.jpg", "sprite": "sp-anchoviella_juruasanga.png", "group": "other"}], "filterAggs": {"waterType": {"Saltwater": 6}, "bodyGroup": {"other": 6}}, "groupDistribution": [{"group": "other", "count": 6}]}], "points": [{"lat": -51.9305, "lng": 122.208, "id": "196874", "name": "Paraeuchaeta", "sprite": "sp-anchoviella_juruasanga.png", "group": "other", "rarity": 1}, {"lat": -50.1408, "lng": 122.5926, "id": "103367", "name": "Oikopleura", "sprite": "sp-anchoviella_juruasanga.png", "group": "other", "rarity": 1}, {"lat": -51.7527, "lng": 114.067, "id": "236219", "name": "Thysanoessa macrura", "sprite": "sp-antarctic_krill.png", "group": "shrimp", "rarity": 1}, {"lat": -54.9317, "lng": 114.027, "id": "104162", "name": "Ctenocalanus", "sprite": "sp-anchoviella_juruasanga.png", "group": "other", "rarity": 1}, {"lat": -52.0167, "lng": 121.0, "id": "212656", "name": "Aptenodytes patagonicus", "sprite": "sp-anchoviella_juruasanga.png", "group": "other", "rarity": 1}, {"lat": -53.8084, "lng": 122.6681, "id": "212695", "name": "Fregetta grallaria", "sprite": "sp-anchoviella_juruasanga.png", "group": "other", "rarity": 1}, {"lat": -53.1835, "lng": 117.0625, "id": "1207", "name": "Gammaridea", "sprite": "sp-american_lobster.png", "group": "crab_lobster", "rarity": 1}, {"lat": -54.8259, "lng": 122.4302, "id": "341660", "name": "Codonellopsis pusilla", "sprite": "sp-anchoviella_juruasanga.png", "group": "other", "rarity": 1}, {"lat": -51.4766, "lng": 118.8783, "id": "206822", "name": "Macronectes", "sprite": "sp-anchoviella_juruasanga.png", "group": "other", "rarity": 1}, {"lat": -51.9434, "lng": 116.8513, "id": "344701", "name": "Neocalanus tonsus", "sprite": "sp-anchoviella_juruasanga.png", "group": "other", "rarity": 1}, {"lat": -54.1165, "lng": 115.046, "id": "104802", "name": "Scaphocalanus subbrevicornis", "sprite": "sp-anchoviella_juruasanga.png", "group": "other", "rarity": 1}, {"lat": -52.0878, "lng": 122.2161, "id": "236218", "name": "Euphausia frigida", "sprite": "sp-antarctic_krill.png", "group": "shrimp", "rarity": 1}, {"lat": -50.017, "lng": 122.4384, "id": "2081", "name": "Chaetognatha", "sprite": "sp-anchoviella_juruasanga.png", "group": "other", "rarity": 1}, {"lat": -55.26, "lng": 118.7458, "id": "344020", "name": "Aphrodroma brevirostris", "sprite": "sp-anchoviella_juruasanga.png", "group": "other", "rarity": 1}, {"lat": -53.3833, "lng": 122.9167, "id": "567792", "name": "Onychoprion anaethetus", "sprite": "sp-anchoviella_juruasanga.png", "group": "other", "rarity": 1}, {"lat": -54.478, "lng": 120.0075, "id": "1130", "name": "Decapoda", "sprite": "sp-american_lobster.png", "group": "crab_lobster", "rarity": 1}, {"lat": -52.34, "lng": 117.867, "id": "376677", "name": "Dictyocha antarctica", "sprite": "sp-anchoviella_juruasanga.png", "group": "other", "rarity": 1}, {"lat": -51.05, "lng": 117.0167, "id": "176588", "name": "Pseudoconchoecia serrulata", "sprite": "sp-anchoviella_juruasanga.png", "group": "other", "rarity": 1}, {"lat": -54.9113, "lng": 116.7893, "id": "220837", "name": "Rhincalanus gigas", "sprite": "sp-anchoviella_juruasanga.png", "group": "other", "rarity": 1}, {"lat": -51.8602, "lng": 114.0258, "id": "103367", "name": "Oikopleura", "sprite": "sp-anchoviella_juruasanga.png", "group": "other", "rarity": 1}, {"lat": -52.156, "lng": 122.528, "id": "533451", "name": "Spongiobranchaea australis", "sprite": "sp-cowrie_shell.png", "group": "sea_snail", "rarity": 1}, {"lat": -51.6764, "lng": 117.5857, "id": "129715", "name": "Tomopteris", "sprite": "sp-anchoviella_juruasanga.png", "group": "other", "rarity": 1}, {"lat": -53.2674, "lng": 122.1916, "id": "225749", "name": "Pelecanoides", "sprite": "sp-anchoviella_juruasanga.png", "group": "other", "rarity": 1}, {"lat": -51.5848, "lng": 118.206, "id": "746007", "name": "Pleuromamma robusta robusta", "sprite": "sp-anchoviella_juruasanga.png", "group": "other", "rarity": 1}, {"lat": -50.4035, "lng": 122.7941, "id": "325384", "name": "Themisto gaudichaudii", "sprite": "sp-american_lobster.png", "group": "crab_lobster", "rarity": 1}, {"lat": -54.672, "lng": 114.625, "id": "212639", "name": "Thalassoica antarctica", "sprite": "sp-anchoviella_juruasanga.png", "group": "other", "rarity": 1}, {"lat": -54.4447, "lng": 119.0271, "id": "225770", "name": "Puffinus tenuirostris", "sprite": "sp-anchoviella_juruasanga.png", "group": "other", "rarity": 1}, {"lat": -51.9162, "lng": 119.4932, "id": "533451", "name": "Spongiobranchaea australis", "sprite": "sp-cowrie_shell.png", "group": "sea_snail", "rarity": 1}, {"lat": -54.6506, "lng": 114.9265, "id": "343728", "name": "Heterorhabdus austrinus", "sprite": "sp-anchoviella_juruasanga.png", "group": "other", "rarity": 1}, {"lat": -49.4696, "lng": 117.6108, "id": "212652", "name": "Procellaria cinerea", "sprite": "sp-anchoviella_juruasanga.png", "group": "other", "rarity": 1}, {"lat": -52.8164, "lng": 123.4121, "id": "104173", "name": "Subeucalanus", "sprite": "sp-anchoviella_juruasanga.png", "group": "other", "rarity": 1}, {"lat": -53.025, "lng": 117.192, "id": "345251", "name": "Pseudoamallothrix ovata", "sprite": "sp-anchoviella_juruasanga.png", "group": "other", "rarity": 1}, {"lat": -50.4162, "lng": 120.1317, "id": "137065", "name": "Puffinus", "sprite": "sp-anchoviella_juruasanga.png", "group": "other", "rarity": 1}, {"lat": -54.352, "lng": 119.1357, "id": "341496", "name": "Corethron pennatum", "sprite": "sp-anchoviella_juruasanga.png", "group": "other", "rarity": 1}, {"lat": -52.7303, "lng": 113.425, "id": "212696", "name": "Fregetta tropica", "sprite": "sp-anchoviella_juruasanga.png", "group": "other", "rarity": 1}, {"lat": -51.2989, "lng": 119.3029, "id": "344712", "name": "Oithona frigida", "sprite": "sp-anchoviella_juruasanga.png", "group": "other", "rarity": 1}, {"lat": -49.3528, "lng": 118.9389, "id": "212651", "name": "Procellaria aequinoctialis", "sprite": "sp-anchoviella_juruasanga.png", "group": "other", "rarity": 1}, {"lat": -50.283, "lng": 115.717, "id": "104688", "name": "Cephalophanes frigidus", "sprite": "sp-anchoviella_juruasanga.png", "group": "other", "rarity": 1}, {"lat": -50.1845, "lng": 112.8668, "id": "235560", "name": "Melvicalathis macroctena", "sprite": "sp-anchoviella_juruasanga.png", "group": "other", "rarity": 1}, {"lat": -50.5668, "lng": 116.4418, "id": "176554", "name": "Obtusoecia antarctica", "sprite": "sp-anchoviella_juruasanga.png", "group": "other", "rarity": 1}, {"lat": -51.0467, "lng": 117.0167, "id": "217697", "name": "Electrona antarctica", "thumb": "tn_Elant_u0.gif", "sprite": "sp-anchoviella_juruasanga.png", "group": "other", "rarity": 1, "waterType": "Saltwater"}, {"lat": -51.5833, "lng": 115.8167, "id": "137217", "name": "Salpidae", "sprite": "sp-anchoviella_juruasanga.png", "group": "other", "rarity": 1}, {"lat": -51.8285, "lng": 119.5583, "id": "196874", "name": "Paraeuchaeta", "sprite": "sp-anchoviella_juruasanga.png", "group": "other", "rarity": 1}, {"lat": -54.5853, "lng": 116.7763, "id": "622570", "name": "Thalassionema schraderi", "sprite": "sp-anchoviella_juruasanga.png", "group": "other", "rarity": 1}, {"lat": -51.8438, "lng": 119.7879, "id": "212642", "name": "Pterodroma lessonii", "sprite": "sp-anchoviella_juruasanga.png", "group": "other", "rarity": 1}, {"lat": -53.4691, "lng": 120.013, "id": "225749", "name": "Pelecanoides", "sprite": "sp-anchoviella_juruasanga.png", "group": "other", "rarity": 1}, {"lat": -53.2381, "lng": 114.0965, "id": "225749", "name": "Pelecanoides", "sprite": "sp-anchoviella_juruasanga.png", "group": "other", "rarity": 1}, {"lat": -49.7299, "lng": 116.9207, "id": "212583", "name": "Diomedea exulans", "sprite": "sp-anchoviella_juruasanga.png", "group": "other", "rarity": 1}, {"lat": -55.3409, "lng": 118.4372, "id": "231413", "name": "Mirounga leonina", "sprite": "sp-elephant_seal.png", "group": "seal", "rarity": 1}, {"lat": -54.8649, "lng": 119.5481, "id": "138122", "name": "Limacina", "sprite": "sp-cowrie_shell.png", "group": "sea_snail", "rarity": 1}, {"lat": -53.6125, "lng": 116.4458, "id": "212636", "name": "Macronectes giganteus", "sprite": "sp-anchoviella_juruasanga.png", "group": "other", "rarity": 1}, {"lat": -54.687, "lng": 121.9956, "id": "231413", "name": "Mirounga leonina", "sprite": "sp-elephant_seal.png", "group": "seal", "rarity": 1}, {"lat": -50.3947, "lng": 119.5223, "id": "850801", "name": "Metridia lucens lucens", "sprite": "sp-anchoviella_juruasanga.png", "group": "other", "rarity": 1}, {"lat": -53.3433, "lng": 116.5283, "id": "342443", "name": "Clausocalanus brevipes", "sprite": "sp-anchoviella_juruasanga.png", "group": "other", "rarity": 1}, {"lat": -50.2167, "lng": 116.25, "id": "602836", "name": "Arthronema", "sprite": "sp-anchoviella_juruasanga.png", "group": "other", "rarity": 1}, {"lat": -52.5, "lng": 120.1167, "id": "137199", "name": "Pterodroma mollis", "sprite": "sp-anchoviella_juruasanga.png", "group": "other", "rarity": 1}, {"lat": -54.6975, "lng": 116.4326, "id": "178185", "name": "Chaetoceros peruvianus", "sprite": "sp-anchoviella_juruasanga.png", "group": "other", "rarity": 1}, {"lat": -53.588, "lng": 116.8672, "id": "113434", "name": "Globigerina bulloides", "sprite": "sp-anchoviella_juruasanga.png", "group": "other", "rarity": 1}, {"lat": -51.9176, "lng": 122.3399, "id": "113434", "name": "Globigerina bulloides", "sprite": "sp-anchoviella_juruasanga.png", "group": "other", "rarity": 1}, {"lat": -51.8378, "lng": 119.6908, "id": "342436", "name": "Calanus simillimus", "sprite": "sp-anchoviella_juruasanga.png", "group": "other", "rarity": 1}, {"lat": -53.2458, "lng": 115.7365, "id": "137065", "name": "Puffinus", "sprite": "sp-anchoviella_juruasanga.png", "group": "other", "rarity": 1}, {"lat": -51.2661, "lng": 122.2498, "id": "573621", "name": "Terebraria kerguelensis", "sprite": "sp-anchoviella_juruasanga.png", "group": "other", "rarity": 1}, {"lat": -51.6571, "lng": 114.562, "id": "225761", "name": "Pterodroma inexpectata", "sprite": "sp-anchoviella_juruasanga.png", "group": "other", "rarity": 1}, {"lat": -54.833, "lng": 115.798, "id": "137165", "name": "Sterna paradisaea", "sprite": "sp-anchoviella_juruasanga.png", "group": "other", "rarity": 1}, {"lat": -55.4836, "lng": 113.5493, "id": "841746", "name": "Tripos pentagonus", "sprite": "sp-anchoviella_juruasanga.png", "group": "other", "rarity": 1}, {"lat": -50.492, "lng": 115.883, "id": "101408", "name": "Stegocephalidae", "sprite": "sp-american_lobster.png", "group": "crab_lobster", "rarity": 1}, {"lat": -55.6136, "lng": 120.3901, "id": "178215", "name": "Chaetoceros dichaeta", "sprite": "sp-anchoviella_juruasanga.png", "group": "other", "rarity": 1}, {"lat": -53.0283, "lng": 119.7145, "id": "11676", "name": "Pisces", "sprite": "sp-anchoviella_juruasanga.png", "group": "other", "rarity": 1}, {"lat": -51.887, "lng": 113.7363, "id": "342436", "name": "Calanus simillimus", "sprite": "sp-anchoviella_juruasanga.png", "group": "other", "rarity": 1}, {"lat": -53.038, "lng": 119.735, "id": "1026410", "name": "Globoconella inflata", "sprite": "sp-anchoviella_juruasanga.png", "group": "other", "rarity": 1}, {"lat": -50.5499, "lng": 113.8778, "id": "180759", "name": "Primno macropa", "sprite": "sp-american_lobster.png", "group": "crab_lobster", "rarity": 1}, {"lat": -50.492, "lng": 115.883, "id": "101380", "name": "Eusiridae", "sprite": "sp-american_lobster.png", "group": "crab_lobster", "rarity": 1}, {"lat": -49.3585, "lng": 119.4295, "id": "212652", "name": "Procellaria cinerea", "sprite": "sp-anchoviella_juruasanga.png", "group": "other", "rarity": 1}, {"lat": -52.9169, "lng": 119.2754, "id": "103367", "name": "Oikopleura", "sprite": "sp-anchoviella_juruasanga.png", "group": "other", "rarity": 1}, {"lat": -49.9708, "lng": 122.2743, "id": "11676", "name": "Pisces", "sprite": "sp-anchoviella_juruasanga.png", "group": "other", "rarity": 1}, {"lat": -53.3033, "lng": 116.7892, "id": "220837", "name": "Rhincalanus gigas", "sprite": "sp-anchoviella_juruasanga.png", "group": "other", "rarity": 1}, {"lat": -54.9338, "lng": 122.6297, "id": "341540", "name": "Thalassiothrix antarctica", "sprite": "sp-anchoviella_juruasanga.png", "group": "other", "rarity": 1}, {"lat": -53.4085, "lng": 119.5668, "id": "225770", "name": "Puffinus tenuirostris", "sprite": "sp-anchoviella_juruasanga.png", "group": "other", "rarity": 1}, {"lat": -53.5839, "lng": 120.0706, "id": "341496", "name": "Corethron pennatum", "sprite": "sp-anchoviella_juruasanga.png", "group": "other", "rarity": 1}, {"lat": -52.1296, "lng": 119.3967, "id": "236220", "name": "Euphausia triacantha", "sprite": "sp-antarctic_krill.png", "group": "shrimp", "rarity": 1}, {"lat": -50.099, "lng": 115.123, "id": "1207", "name": "Gammaridea", "sprite": "sp-american_lobster.png", "group": "crab_lobster", "rarity": 1}, {"lat": -50.267, "lng": 115.7, "id": "104229", "name": "Scolecithricella", "sprite": "sp-anchoviella_juruasanga.png", "group": "other", "rarity": 1}, {"lat": -53.5833, "lng": 114.7334, "id": "212639", "name": "Thalassoica antarctica", "sprite": "sp-anchoviella_juruasanga.png", "group": "other", "rarity": 1}, {"lat": -52.15, "lng": 120.25, "id": "212656", "name": "Aptenodytes patagonicus", "sprite": "sp-anchoviella_juruasanga.png", "group": "other", "rarity": 1}, {"lat": -49.8963, "lng": 122.1097, "id": "105416", "name": "Eukrohnia hamata", "sprite": "sp-anchoviella_juruasanga.png", "group": "other", "rarity": 1}, {"lat": -55.4603, "lng": 113.9839, "id": "212696", "name": "Fregetta tropica", "sprite": "sp-anchoviella_juruasanga.png", "group": "other", "rarity": 1}, {"lat": -54.4178, "lng": 114.4456, "id": "113474", "name": "Neogloboquadrina incompta", "sprite": "sp-anchoviella_juruasanga.png", "group": "other", "rarity": 1}, {"lat": -49.717, "lng": 114.283, "id": "879998", "name": "Laetmonice wonda", "sprite": "sp-anchoviella_juruasanga.png", "group": "other", "rarity": 1}, {"lat": -50.6667, "lng": 117.0167, "id": "536010", "name": "Rotundoecia teretivalvata", "sprite": "sp-anchoviella_juruasanga.png", "group": "other", "rarity": 1}, {"lat": -51.3934, "lng": 121.231, "id": "341560", "name": "Fragilariopsis ritscheri", "sprite": "sp-anchoviella_juruasanga.png", "group": "other", "rarity": 1}, {"lat": -53.025, "lng": 117.192, "id": "345247", "name": "Pseudoamallothrix emarginata", "sprite": "sp-anchoviella_juruasanga.png", "group": "other", "rarity": 1}, {"lat": -53.62, "lng": 122.38, "id": "1371", "name": "Siphonophorae", "sprite": "sp-anchoviella_juruasanga.png", "group": "other", "rarity": 1}, {"lat": -53.1367, "lng": 118.7603, "id": "130219", "name": "Pelagobia longicirrata", "sprite": "sp-anchoviella_juruasanga.png", "group": "other", "rarity": 1}, {"lat": -53.025, "lng": 117.192, "id": "104774", "name": "Amallothrix robusta", "sprite": "sp-anchoviella_juruasanga.png", "group": "other", "rarity": 1}, {"lat": -51.8897, "lng": 119.5513, "id": "582421", "name": "Radiozoa", "sprite": "sp-anchoviella_juruasanga.png", "group": "other", "rarity": 1}, {"lat": -53.5202, "lng": 114.0956, "id": "104162", "name": "Ctenocalanus", "sprite": "sp-anchoviella_juruasanga.png", "group": "other", "rarity": 1}, {"lat": -51.9754, "lng": 122.1779, "id": "746007", "name": "Pleuromamma robusta robusta", "sprite": "sp-anchoviella_juruasanga.png", "group": "other", "rarity": 1}, {"lat": -51.2572, "lng": 119.4913, "id": "206129", "name": "Phalacrophorus", "sprite": "sp-anchoviella_juruasanga.png", "group": "other", "rarity": 1}, {"lat": -52.0087, "lng": 113.6167, "id": "138122", "name": "Limacina", "sprite": "sp-cowrie_shell.png", "group": "sea_snail", "rarity": 1}, {"lat": -50.0424, "lng": 116.5345, "id": "138122", "name": "Limacina", "sprite": "sp-cowrie_shell.png", "group": "sea_snail", "rarity": 1}, {"lat": -54.4309, "lng": 115.8435, "id": "149168", "name": "Proboscia alata", "sprite": "sp-anchoviella_juruasanga.png", "group": "other", "rarity": 1}, {"lat": -51.0627, "lng": 119.0254, "id": "344701", "name": "Neocalanus tonsus", "sprite": "sp-anchoviella_juruasanga.png", "group": "other", "rarity": 1}, {"lat": -51.8797, "lng": 117.1272, "id": "104172", "name": "Rhincalanus", "sprite": "sp-anchoviella_juruasanga.png", "group": "other", "rarity": 1}, {"lat": -50.1854, "lng": 119.8222, "id": "1078", "name": "Ostracoda", "sprite": "sp-anchoviella_juruasanga.png", "group": "other", "rarity": 1}, {"lat": -50.0995, "lng": 115.1115, "id": "137222", "name": "Doliolum", "sprite": "sp-anchoviella_juruasanga.png", "group": "other", "rarity": 1}, {"lat": -53.4291, "lng": 120.25, "id": "344020", "name": "Aphrodroma brevirostris", "sprite": "sp-anchoviella_juruasanga.png", "group": "other", "rarity": 1}, {"lat": -49.5969, "lng": 122.4036, "id": "225761", "name": "Pterodroma inexpectata", "sprite": "sp-anchoviella_juruasanga.png", "group": "other", "rarity": 1}, {"lat": -49.7956, "lng": 112.6256, "id": "212636", "name": "Macronectes giganteus", "sprite": "sp-anchoviella_juruasanga.png", "group": "other", "rarity": 1}, {"lat": -52.599, "lng": 119.1377, "id": "1130", "name": "Decapoda", "sprite": "sp-american_lobster.png", "group": "crab_lobster", "rarity": 1}, {"lat": -50.0167, "lng": 123.0667, "id": "1469978", "name": "Neobirsteiniamysis inermis", "sprite": "sp-american_lobster.png", "group": "crab_lobster", "rarity": 1}, {"lat": -53.8945, "lng": 120.9323, "id": "672173", "name": "Nitzschia bicapitata var. faeroensis", "sprite": "sp-anchoviella_juruasanga.png", "group": "other", "rarity": 1}, {"lat": -52.2387, "lng": 115.6847, "id": "1102", "name": "Harpacticoida", "sprite": "sp-anchoviella_juruasanga.png", "group": "other", "rarity": 1}, {"lat": -53.4035, "lng": 117.8978, "id": "325408", "name": "Vibilia antarctica", "sprite": "sp-american_lobster.png", "group": "crab_lobster", "rarity": 1}, {"lat": -55.2732, "lng": 114.0256, "id": "140227", "name": "Limacina retroversa", "sprite": "sp-cowrie_shell.png", "group": "sea_snail", "rarity": 1}, {"lat": -53.3011, "lng": 116.7614, "id": "110671", "name": "Euphausiidae", "sprite": "sp-antarctic_krill.png", "group": "shrimp", "rarity": 1}, {"lat": -54.05, "lng": 119.3833, "id": "145724", "name": "Laminaria digitata", "sprite": "sp-anchoviella_juruasanga.png", "group": "other", "rarity": 1}, {"lat": -54.5383, "lng": 113.705, "id": "212644", "name": "Pterodroma macroptera", "sprite": "sp-anchoviella_juruasanga.png", "group": "other", "rarity": 1}, {"lat": -53.3064, "lng": 116.8164, "id": "266258", "name": "Pseudosagitta gazellae", "sprite": "sp-anchoviella_juruasanga.png", "group": "other", "rarity": 1}, {"lat": -54.1165, "lng": 115.046, "id": "345290", "name": "Scaphocalanus vervoorti", "sprite": "sp-anchoviella_juruasanga.png", "group": "other", "rarity": 1}, {"lat": -53.4611, "lng": 122.4442, "id": "103358", "name": "Fritillaria", "sprite": "sp-anchoviella_juruasanga.png", "group": "other", "rarity": 1}]}