{"zoom": 5, "x": 22, "y": 14, "points": [{"lat": 20.8833, "lng": 76.8667, "id": "2298", "name": "Andura", "fall": "Fell", "recclass": "H6", "massRange": "10-100kg"}, {"lat": 20.8833, "lng": 74.8333, "id": "5037", "name": "Bhagur", "fall": "Fell", "recclass": "L6", "massRange": "<100g"}, {"lat": 20.8333, "lng": 71.4667, "id": "5039", "name": "Bherai", "fall": "Fell", "recclass": "L6", "massRange": "<100g"}, {"lat": 20.2667, "lng": 76.0167, "id": "5320", "name": "Chandakapur", "fall": "Fell", "recclass": "L5", "massRange": "1-10kg"}, {"lat": 14.5, "lng": 76.5, "id": "5344", "name": "Chetrinahatti", "fall": "Fell", "recclass": "Stone-uncl", "massRange": "<100g"}, {"lat": 14.8833, "lng": 75.6, "id": "6699", "name": "Dharwar", "fall": "Fell", "recclass": "OC", "massRange": "1-10kg"}, {"lat": 13.7833, "lng": 78.5667, "id": "11464", "name": "Gurram Konda", "fall": "Fell", "recclass": "L6", "massRange": "<100g"}, {"lat": 18.75, "lng": 75.3333, "id": "12072", "name": "Jamkheir", "fall": "Fell", "recclass": "H6", "massRange": "<100g"}, {"lat": 12.85, "lng": 76.8, "id": "12207", "name": "Judesegeri", "fall": "Fell", "recclass": "H6", "massRange": "100g-1kg"}, {"lat": 12.3833, "lng": 78.5167, "id": "12230", "name": "Kakangari", "fall": "Fell", "recclass": "K3", "massRange": "100g-1kg"}, {"lat": 17.8333, "lng": 73.9833, "id": "12236", "name": "Kalumbi", "fall": "Fell", "recclass": "L6", "massRange": "1-10kg"}, {"lat": 14.1833, "lng": 75.8, "id": "12241", "name": "Kamsagar", "fall": "Fell", "recclass": "L6", "massRange": "1-10kg"}, {"lat": 20.3392, "lng": 73.2233, "id": "47357", "name": "Kaprada", "fall": "Fell", "recclass": "L5/6", "massRange": "1-10kg"}, {"lat": 21.8667, "lng": 76.0333, "id": "12435", "name": "Lakangaon", "fall": "Fell", "recclass": "Eucrite-mmict", "massRange": "100g-1kg"}, {"lat": 20.9667, "lng": 76.1, "id": "15403", "name": "Manegaon", "fall": "Fell", "recclass": "Diogenite", "massRange": "<100g"}, {"lat": 12.6333, "lng": 77.0167, "id": "16841", "name": "Muddoor", "fall": "Fell", "recclass": "L5", "massRange": "1-10kg"}, {"lat": 19.25, "lng": 77.0, "id": "16908", "name": "Naoki", "fall": "Fell", "recclass": "H6", "massRange": "10-100kg"}, {"lat": 12.6667, "lng": 78.0333, "id": "48951", "name": "Sulagiri", "fall": "Fell", "recclass": "LL6", "massRange": ">100kg"}, {"lat": 13.4833, "lng": 74.7833, "id": "24104", "name": "Udipi", "fall": "Fell", "recclass": "H5", "massRange": "1-10kg"}, {"lat": 20.1333, "lng": 75.5, "id": "18810", "name": "Phulmari", "fall": "Found", "recclass": "Stone-uncl", "massRange": "1-10kg"}, {"lat": 18.3167, "lng": 73.9167, "id": "23612", "name": "Singhur", "fall": "Found", "recclass": "Pallasite?", "massRange": "10-100kg"}]}