{"zoom": 5, "x": 7, "y": 11, "points": [{"lat": 45.4167, "lng": -98.3167, "id": "4974", "name": "Bath", "fall": "Fell", "recclass": "H4", "massRange": "10-100kg"}, {"lat": 43.2, "lng": -96.9167, "id": "5307", "name": "Centerville", "fall": "Fell", "recclass": "H5", "massRange": "<100g"}, {"lat": 44.9, "lng": -90.2833, "id": "5395", "name": "Colby (Wisconsin)", "fall": "Fell", "recclass": "L6", "massRange": ">100kg"}, {"lat": 43.4167, "lng": -94.8333, "id": "10059", "name": "Estherville", "fall": "Fell", "recclass": "Mesosiderite-A3/4", "massRange": ">100kg"}, {"lat": 47.8167, "lng": -96.85, "id": "10107", "name": "Fisher", "fall": "Fell", "recclass": "L6", "massRange": "10-100kg"}, {"lat": 43.25, "lng": -93.6667, "id": "10119", "name": "Forest City", "fall": "Fell", "recclass": "H5", "massRange": ">100kg"}, {"lat": 41.8, "lng": -91.8667, "id": "11901", "name": "Homestead", "fall": "Fell", "recclass": "L5", "massRange": ">100kg"}, {"lat": 42.7167, "lng": -99.3833, "id": "15419", "name": "Mariaville", "fall": "Fell", "recclass": "Iron", "massRange": "100g-1kg"}, {"lat": 41.9, "lng": -91.6, "id": "15424", "name": "Marion (Iowa)", "fall": "Fell", "recclass": "L6", "massRange": "10-100kg"}, {"lat": 42.9075, "lng": -90.3656, "id": "52090", "name": "Mifflin", "fall": "Fell", "recclass": "L5", "massRange": "1-10kg"}, {"lat": 45.3458, "lng": -92.0517, "id": "47343", "name": "Turtle Lake", "fall": "Fell", "recclass": "L5", "massRange": "<100g"}, {"lat": 43.5, "lng": -91.1667, "id": "24168", "name": "Vernon County", "fall": "Fell", "recclass": "H6", "massRange": "1-10kg"}, {"lat": 42.6, "lng": -99.8, "id": "422", "name": "Ainsworth", "fall": "Found", "recclass": "Iron, IIAB", "massRange": "10-100kg"}, {"lat": 43.3222, "lng": -96.2889, "id": "2287", "name": "Alvord", "fall": "Found", "recclass": "Iron, IVA", "massRange": "10-100kg"}, {"lat": 45.2, "lng": -93.4333, "id": "2307", "name": "Anoka", "fall": "Found", "recclass": "Iron, IAB-sLM", "massRange": "1-10kg"}, {"lat": 41.4167, "lng": -99.1, "id": "2326", "name": "Arcadia", "fall": "Found", "recclass": "LL6", "massRange": "10-100kg"}, {"lat": 44.6, "lng": -94.1, "id": "2333", "name": "Arlington", "fall": "Found", "recclass": "Iron, IIE-an", "massRange": "1-10kg"}, {"lat": 42.7333, "lng": -90.35, "id": "5008", "name": "Belmont", "fall": "Found", "recclass": "H6", "massRange": "10-100kg"}, {"lat": 41.0, "lng": -97.5333, "id": "5017", "name": "Benedict", "fall": "Found", "recclass": "Iron, IIIAB", "massRange": "10-100kg"}, {"lat": 43.5, "lng": -101.25, "id": "5022", "name": "Bennett County", "fall": "Found", "recclass": "Iron, IIAB", "massRange": "10-100kg"}, {"lat": 48.6833, "lng": -97.1667, "id": "5124", "name": "Bowesmont", "fall": "Found", "recclass": "L6", "massRange": "1-10kg"}, {"lat": 48.7833, "lng": -97.35, "id": "5125", "name": "Bowesmont (b)", "fall": "Found", "recclass": "L5", "massRange": "1-10kg"}, {"lat": 41.1533, "lng": -96.955, "id": "5131", "name": "Brainard", "fall": "Found", "recclass": "Iron, IIIAB", "massRange": ">100kg"}, {"lat": 41.4333, "lng": -99.7, "id": "5145", "name": "Broken Bow", "fall": "Found", "recclass": "H4", "massRange": "1-10kg"}, {"lat": 44.2215, "lng": -98.0592, "id": "5300", "name": "Cavour", "fall": "Found", "recclass": "H6", "massRange": "10-100kg"}, {"lat": 41.35, "lng": -99.1167, "id": "5400", "name": "Cole Creek", "fall": "Found", "recclass": "H5", "massRange": "10-100kg"}, {"lat": 41.3667, "lng": -98.6333, "id": "5454", "name": "Cotesfield", "fall": "Found", "recclass": "L6", "massRange": "1-10kg"}, {"lat": 48.6667, "lng": -97.1167, "id": "7729", "name": "Drayton", "fall": "Found", "recclass": "H4/5", "massRange": "1-10kg"}, {"lat": 42.318, "lng": -90.221, "id": "56566", "name": "Elizabeth", "fall": "Found", "recclass": "Iron, IAB-ung", "massRange": "100g-1kg"}, {"lat": 43.5633, "lng": -97.5833, "id": "10031", "name": "Emery", "fall": "Found", "recclass": "Mesosiderite-A3", "massRange": "10-100kg"}, {"lat": 47.9583, "lng": -96.7, "id": "10063", "name": "Euclid", "fall": "Found", "recclass": "H5", "massRange": "1-10kg"}, {"lat": 44.0483, "lng": -96.5917, "id": "10109", "name": "Flandreau", "fall": "Found", "recclass": "H5", "massRange": "10-100kg"}, {"lat": 44.35, "lng": -100.3833, "id": "10167", "name": "Fort Pierre", "fall": "Found", "recclass": "Iron, IIIAB", "massRange": "10-100kg"}, {"lat": 46.3833, "lng": -101.2333, "id": "10180", "name": "Freda", "fall": "Found", "recclass": "Iron, IAB-sLH", "massRange": "100g-1kg"}, {"lat": 48.7167, "lng": -97.3, "id": "10928", "name": "Glasston", "fall": "Found", "recclass": "L5", "massRange": "1-10kg"}, {"lat": 44.9167, "lng": -92.4333, "id": "11813", "name": "Hammond", "fall": "Found", "recclass": "Iron, ungrouped", "massRange": "10-100kg"}, {"lat": 43.8, "lng": -96.1667, "id": "11828", "name": "Hardwick", "fall": "Found", "recclass": "L4", "massRange": "1-10kg"}, {"lat": 46.6167, "lng": -98.5, "id": "12071", "name": "Jamestown", "fall": "Found", "recclass": "Iron, IVA", "massRange": "1-10kg"}, {"lat": 41.4833, "lng": -96.1667, "id": "12279", "name": "Kennard", "fall": "Found", "recclass": "H5", "massRange": "1-10kg"}, {"lat": 41.4333, "lng": -96.9667, "id": "14657", "name": "Linwood", "fall": "Found", "recclass": "Iron, IAB-MG", "massRange": "10-100kg"}, {"lat": 41.5, "lng": -91.4792, "id": "14683", "name": "Lone Tree", "fall": "Found", "recclass": "H4", "massRange": "10-100kg"}, {"lat": 42.1833, "lng": -95.7167, "id": "15410", "name": "Mapleton", "fall": "Found", "recclass": "Iron, IIIAB", "massRange": "10-100kg"}, {"lat": 43.3167, "lng": -100.7667, "id": "16704", "name": "Mission", "fall": "Found", "recclass": "L", "massRange": "10-100kg"}, {"lat": 48.0, "lng": -97.9333, "id": "16969", "name": "Niagara", "fall": "Found", "recclass": "Iron, IAB-sLL", "massRange": "100g-1kg"}, {"lat": 45.425, "lng": -101.097, "id": "57160", "name": "Timber Lake", "fall": "Found", "recclass": "H3", "massRange": "1-10kg"}, {"lat": 41.55, "lng": -100.9667, "id": "24056", "name": "Tryon", "fall": "Found", "recclass": "L6", "massRange": "10-100kg"}, {"lat": 47.6, "lng": -94.7667, "id": "24085", "name": "Turtle River", "fall": "Found", "recclass": "Iron, IIIAB", "massRange": "10-100kg"}, {"lat": 42.9333, "lng": -100.75, "id": "24148", "name": "Valentine", "fall": "Found", "recclass": "L4", "massRange": "1-10kg"}, {"lat": 44.4, "lng": -98.5333, "id": "24328", "name": "Wolsey", "fall": "Found", "recclass": "Iron, IAB-MG", "massRange": "10-100kg"}, {"lat": 42.3467, "lng": -90.1675, "id": "24330", "name": "Woodbine", "fall": "Found", "recclass": "Iron, IAB-ung", "massRange": "10-100kg"}]}