{"zoom": 7, "x": 0, "y": 54, "points": [{"lat": 26.4307, "lng": -177.8011, "id": "171884", "name": "Walteria flemmingii", "sprite": "sp-barrel_sponge.png", "group": "sponge", "rarity": 1}, {"lat": 26.3771, "lng": -177.8351, "id": "125294", "name": "Chrysogorgia", "sprite": "sp-actiniidae.png", "group": "coral", "rarity": 1}, {"lat": 25.2, "lng": -179.4, "id": "495309", "name": "Sargassum obtusifolium", "sprite": "sp-anchoviella_juruasanga.png", "group": "other", "rarity": 1}, {"lat": 25.98, "lng": -179.3, "id": "135139", "name": "Caryophyllia (Caryophyllia) diomedeae", "sprite": "sp-actiniidae.png", "group": "coral", "rarity": 1}, {"lat": 25.3, "lng": -179.4, "id": "126852", "name": "Marlin sucker", "thumb": "tn_Reost_u3.jpg", "sprite": "sp-anchoviella_juruasanga.png", "group": "other", "rarity": 1, "waterType": "Saltwater"}, {"lat": 25.3599, "lng": -178.4292, "id": "286515", "name": "Narella dichotoma", "sprite": "sp-actiniidae.png", "group": "coral", "rarity": 1}, {"lat": 26.4317, "lng": -177.8053, "id": "409567", "name": "Narella alata", "sprite": "sp-actiniidae.png", "group": "coral", "rarity": 1}, {"lat": 25.3598, "lng": -178.4292, "id": "172066", "name": "Caulophacus (Oxydiscus)", "sprite": "sp-barrel_sponge.png", "group": "sponge", "rarity": 1}, {"lat": 26.0666, "lng": -178.0164, "id": "132112", "name": "Caulophacus", "sprite": "sp-barrel_sponge.png", "group": "sponge", "rarity": 1}, {"lat": 26.4316, "lng": -177.8031, "id": "146534", "name": "Balticina", "sprite": "sp-actiniidae.png", "group": "coral", "rarity": 1}, {"lat": 25.3599, "lng": -178.4297, "id": "1288558", "name": "Chrysogorgia pinnata", "sprite": "sp-actiniidae.png", "group": "coral", "rarity": 1}, {"lat": 26.8833, "lng": -178.5667, "id": "159261", "name": "Spotfin flyingfish", "thumb": "tn_Chfur_u3.jpg", "sprite": "sp-flying_fish.png", "group": "flying_fish", "rarity": 1, "waterType": "Saltwater"}, {"lat": 25.225, "lng": -177.317, "id": "214315", "name": "Stypopodium flabelliforme", "sprite": "sp-anchoviella_juruasanga.png", "group": "other", "rarity": 1}, {"lat": 25.225, "lng": -177.317, "id": "220776", "name": "Dictyota stolonifera", "sprite": "sp-anchoviella_juruasanga.png", "group": "other", "rarity": 1}, {"lat": 26.431, "lng": -177.8027, "id": "128489", "name": "Anthoptilum", "sprite": "sp-actiniidae.png", "group": "coral", "rarity": 1}, {"lat": 25.4, "lng": -178.8833, "id": "272125", "name": "Synodus falcatus", "thumb": "tn_Syfal_u0.jpg", "sprite": "sp-anchoviella_juruasanga.png", "group": "other", "rarity": 1, "waterType": "Saltwater"}, {"lat": 27.0, "lng": -177.7533, "id": "275033", "name": "Astronesthes nigroides", "sprite": "sp-anchoviella_juruasanga.png", "group": "other", "rarity": 1, "waterType": "Saltwater"}, {"lat": 25.9368, "lng": -178.0922, "id": "125278", "name": "Primnoidae", "sprite": "sp-actiniidae.png", "group": "coral", "rarity": 1}, {"lat": 25.3598, "lng": -178.4293, "id": "171842", "name": "Hyalostylus", "sprite": "sp-barrel_sponge.png", "group": "sponge", "rarity": 1}, {"lat": 25.55, "lng": -177.55, "id": "2081", "name": "Chaetognatha", "sprite": "sp-anchoviella_juruasanga.png", "group": "other", "rarity": 1}, {"lat": 26.4308, "lng": -177.8011, "id": "286506", "name": "Candidella helminthophora", "sprite": "sp-actiniidae.png", "group": "coral", "rarity": 1}, {"lat": 25.6505, "lng": -179.6418, "id": "137105", "name": "Stenella attenuata", "sprite": "sp-bottlenose_dolphin.png", "group": "dolphin", "rarity": 1}, {"lat": 26.4313, "lng": -177.8029, "id": "286122", "name": "Chrysogorgia geniculata", "sprite": "sp-actiniidae.png", "group": "coral", "rarity": 1}, {"lat": 25.225, "lng": -177.317, "id": "145381", "name": "Lobophora variegata", "sprite": "sp-anchoviella_juruasanga.png", "group": "other", "rarity": 1}, {"lat": 25.3599, "lng": -178.4302, "id": "177833", "name": "Calyptrophora", "sprite": "sp-actiniidae.png", "group": "coral", "rarity": 1}, {"lat": 25.3599, "lng": -178.4304, "id": "171844", "name": "Saccocalyx", "sprite": "sp-barrel_sponge.png", "group": "sponge", "rarity": 1}, {"lat": 26.4315, "lng": -177.8049, "id": "267808", "name": "Rhodaniridogorgia", "sprite": "sp-actiniidae.png", "group": "coral", "rarity": 1}, {"lat": 26.3241, "lng": -177.8655, "id": "558", "name": "Porifera", "sprite": "sp-barrel_sponge.png", "group": "sponge", "rarity": 1}, {"lat": 26.3516, "lng": -177.8508, "id": "171579", "name": "Poliopogon", "sprite": "sp-barrel_sponge.png", "group": "sponge", "rarity": 1}, {"lat": 25.3599, "lng": -178.4302, "id": "172042", "name": "Caulophacus (Caulodiscus)", "sprite": "sp-barrel_sponge.png", "group": "sponge", "rarity": 1}, {"lat": 26.4314, "lng": -177.8021, "id": "134391", "name": "Farrea occa", "sprite": "sp-barrel_sponge.png", "group": "sponge", "rarity": 1}, {"lat": 25.1824, "lng": -178.7588, "id": "344104", "name": "Phoebastria immutabilis", "sprite": "sp-anchoviella_juruasanga.png", "group": "other", "rarity": 1}, {"lat": 26.0247, "lng": -179.2572, "id": "217718", "name": "Evermann's lantern fish", "thumb": "tn_Syeve_u2.gif", "sprite": "sp-anchoviella_juruasanga.png", "group": "other", "rarity": 1, "waterType": "Saltwater"}, {"lat": 26.6283, "lng": -178.8122, "id": "137104", "name": "Pseudorca crassidens", "sprite": "sp-bottlenose_dolphin.png", "group": "dolphin", "rarity": 1}, {"lat": 26.4314, "lng": -177.8027, "id": "125326", "name": "Paragorgia", "sprite": "sp-actiniidae.png", "group": "coral", "rarity": 1}, {"lat": 25.3599, "lng": -178.4298, "id": "103323", "name": "Bathypathes patula", "sprite": "sp-actiniidae.png", "group": "coral", "rarity": 1}, {"lat": 26.4319, "lng": -177.8042, "id": "605841", "name": "Sceptrulophora", "sprite": "sp-barrel_sponge.png", "group": "sponge", "rarity": 1}, {"lat": 26.4311, "lng": -177.8019, "id": "125320", "name": "Paracalyptrophora", "sprite": "sp-actiniidae.png", "group": "coral", "rarity": 1}, {"lat": 25.36, "lng": -178.4292, "id": "171849", "name": "Amphidiscella", "sprite": "sp-barrel_sponge.png", "group": "sponge", "rarity": 1}, {"lat": 25.55, "lng": -177.55, "id": "2", "name": "Animalia", "sprite": "sp-anchoviella_juruasanga.png", "group": "other", "rarity": 1}, {"lat": 25.3598, "lng": -178.4297, "id": "103304", "name": "Bathypathes", "sprite": "sp-actiniidae.png", "group": "coral", "rarity": 1}, {"lat": 25.5386, "lng": -178.3255, "id": "171837", "name": "Bolosoma", "sprite": "sp-barrel_sponge.png", "group": "sponge", "rarity": 1}, {"lat": 26.3996, "lng": -177.8208, "id": "125285", "name": "Anthomastus", "sprite": "sp-actiniidae.png", "group": "coral", "rarity": 1}, {"lat": 25.2835, "lng": -178.6348, "id": "137119", "name": "Physeter macrocephalus", "sprite": "sp-blue_whale.png", "group": "whale", "rarity": 1}, {"lat": 25.55, "lng": -177.55, "id": "1080", "name": "Copepoda", "sprite": "sp-anchoviella_juruasanga.png", "group": "other", "rarity": 1}, {"lat": 26.074, "lng": -178.0119, "id": "22612", "name": "Hexactinellida", "sprite": "sp-barrel_sponge.png", "group": "sponge", "rarity": 1}, {"lat": 26.4306, "lng": -177.8013, "id": "125295", "name": "Iridogorgia", "sprite": "sp-actiniidae.png", "group": "coral", "rarity": 1}, {"lat": 26.4316, "lng": -177.8043, "id": "286106", "name": "Chrysogorgia chryseis", "sprite": "sp-actiniidae.png", "group": "coral", "rarity": 1}, {"lat": 26.71, "lng": -179.33, "id": "286851", "name": "Stephanocyathus (Odontocyathus) coronatus", "sprite": "sp-actiniidae.png", "group": "coral", "rarity": 1}, {"lat": 25.3599, "lng": -178.4305, "id": "132105", "name": "Periphragella", "sprite": "sp-barrel_sponge.png", "group": "sponge", "rarity": 1}, {"lat": 25.3599, "lng": -178.43, "id": "883738", "name": "Bathygorgia", "sprite": "sp-actiniidae.png", "group": "coral", "rarity": 1}, {"lat": 26.4314, "lng": -177.8055, "id": "125355", "name": "Metallogorgia melanotrichos", "sprite": "sp-actiniidae.png", "group": "coral", "rarity": 1}, {"lat": 26.4317, "lng": -177.8047, "id": "171415", "name": "Hyalonema (Corynonema)", "sprite": "sp-barrel_sponge.png", "group": "sponge", "rarity": 1}, {"lat": 26.4311, "lng": -177.8025, "id": "718773", "name": "Hemicorallium", "sprite": "sp-actiniidae.png", "group": "coral", "rarity": 1}, {"lat": 25.3599, "lng": -178.4296, "id": "125273", "name": "Chrysogorgiidae", "sprite": "sp-actiniidae.png", "group": "coral", "rarity": 1}, {"lat": 25.3598, "lng": -178.4292, "id": "286512", "name": "Narella bowersi", "sprite": "sp-actiniidae.png", "group": "coral", "rarity": 1}, {"lat": 26.1048, "lng": -177.9943, "id": "1419319", "name": "Keratoisidinae", "sprite": "sp-actiniidae.png", "group": "coral", "rarity": 1}, {"lat": 26.0121, "lng": -178.049, "id": "171848", "name": "Corbitellinae", "sprite": "sp-barrel_sponge.png", "group": "sponge", "rarity": 1}, {"lat": 25.3599, "lng": -178.4298, "id": "266964", "name": "Schizopathidae", "sprite": "sp-actiniidae.png", "group": "coral", "rarity": 1}, {"lat": 25.3598, "lng": -178.4311, "id": "131688", "name": "Euretidae", "sprite": "sp-barrel_sponge.png", "group": "sponge", "rarity": 1}, {"lat": 26.431, "lng": -177.8023, "id": "286148", "name": "Chrysogorgia stellata", "sprite": "sp-actiniidae.png", "group": "coral", "rarity": 1}, {"lat": 25.8958, "lng": -178.1167, "id": "883729", "name": "Calyptrophora pileata", "sprite": "sp-actiniidae.png", "group": "coral", "rarity": 1}, {"lat": 26.4318, "lng": -177.803, "id": "171623", "name": "Tretopleura", "sprite": "sp-barrel_sponge.png", "group": "sponge", "rarity": 1}, {"lat": 25.4364, "lng": -178.3851, "id": "1496012", "name": "Ramuligorgia militaris", "sprite": "sp-actiniidae.png", "group": "coral", "rarity": 1}, {"lat": 25.3851, "lng": -178.343, "id": "145636", "name": "Hypnea valentiae", "sprite": "sp-anchoviella_juruasanga.png", "group": "other", "rarity": 1}, {"lat": 26.4316, "lng": -177.8036, "id": "286505", "name": "Candidella gigantea", "sprite": "sp-actiniidae.png", "group": "coral", "rarity": 1}, {"lat": 26.4311, "lng": -177.8021, "id": "171883", "name": "Walteria", "sprite": "sp-barrel_sponge.png", "group": "sponge", "rarity": 1}, {"lat": 26.4308, "lng": -177.8018, "id": "1317082", "name": "Narella virgosa", "sprite": "sp-actiniidae.png", "group": "coral", "rarity": 1}, {"lat": 25.0577, "lng": -178.3989, "id": "220293", "name": "Lepidochelys olivacea", "sprite": "sp-green_sea_turtle.png", "group": "sea_turtle", "rarity": 1}, {"lat": 25.36, "lng": -178.43, "id": "125276", "name": "Isididae", "sprite": "sp-actiniidae.png", "group": "coral", "rarity": 1}, {"lat": 26.0, "lng": -178.5, "id": "137209", "name": "Dermochelys coriacea", "sprite": "sp-green_sea_turtle.png", "group": "sea_turtle", "rarity": 1}, {"lat": 25.3599, "lng": -178.4304, "id": "171836", "name": "Bolosominae", "sprite": "sp-barrel_sponge.png", "group": "sponge", "rarity": 1}, {"lat": 26.363, "lng": -177.8429, "id": "286154", "name": "Iridogorgia magnispiralis", "sprite": "sp-actiniidae.png", "group": "coral", "rarity": 1}, {"lat": 26.1887, "lng": -177.9444, "id": "125319", "name": "Narella", "sprite": "sp-actiniidae.png", "group": "coral", "rarity": 1}, {"lat": 25.3599, "lng": -178.4304, "id": "172048", "name": "Caulophacus (Caulophacus)", "sprite": "sp-barrel_sponge.png", "group": "sponge", "rarity": 1}, {"lat": 25.8727, "lng": -177.2787, "id": "242603", "name": "Balaenoptera brydei", "sprite": "sp-blue_whale.png", "group": "whale", "rarity": 1}]}