{"zoom": 7, "x": 102, "y": 67, "points": [{"lat": -10.0, "lng": 107.5, "id": "273536", "name": "Splitlevel hogfish", "thumb": "tn_Bomes_u5.jpg", "sprite": "sp-cleaner_wrasse.png", "group": "wrasse", "rarity": 1, "waterType": "Saltwater"}, {"lat": -10.0, "lng": 107.5, "id": "212209", "name": "Moon wrasse", "thumb": "tn_Thlun_m0.jpg", "sprite": "sp-cleaner_wrasse.png", "group": "wrasse", "rarity": 1, "waterType": "Saltwater"}, {"lat": -10.0, "lng": 107.5, "id": "275182", "name": "Big-belly seahorse", "thumb": "tn_Hiabd_f0.jpg", "sprite": "sp-cosmocampus_coccineus.png", "group": "seahorse", "rarity": 1, "waterType": "Brackish"}, {"lat": -9.3, "lng": 108.11, "id": "231799", "name": "Lingulodinium", "sprite": "sp-anchoviella_juruasanga.png", "group": "other", "rarity": 1}, {"lat": -10.0, "lng": 107.5, "id": "218972", "name": "Sling-jaw wrasse", "thumb": "tn_Epins_u6.jpg", "sprite": "sp-cleaner_wrasse.png", "group": "wrasse", "rarity": 1, "waterType": "Saltwater"}, {"lat": -10.2914, "lng": 108.7129, "id": "1789", "name": "Phoronida", "sprite": "sp-anchoviella_juruasanga.png", "group": "other", "rarity": 1}, {"lat": -10.2078, "lng": 108.6378, "id": "958", "name": "Tomopteridae", "sprite": "sp-anchoviella_juruasanga.png", "group": "other", "rarity": 1}, {"lat": -10.193, "lng": 108.489, "id": "2", "name": "Animalia", "sprite": "sp-anchoviella_juruasanga.png", "group": "other", "rarity": 1}, {"lat": -10.0, "lng": 107.5, "id": "276851", "name": "Halfmoon triggerfish", "thumb": "tn_Suchr_u5.jpg", "sprite": "sp-balistidae.png", "group": "triggerfish", "rarity": 1, "waterType": "Saltwater"}, {"lat": -10.0, "lng": 107.5, "id": "220051", "name": "Largetooth flounder", "thumb": "tn_Psars_u1.jpg", "sprite": "sp-atlantic_halibut.png", "group": "flatfish", "rarity": 1, "waterType": "Brackish"}, {"lat": -10.0, "lng": 107.5, "id": "279310", "name": "Striped poison-fang blenny", "thumb": "tn_Megra_u6.jpg", "sprite": "sp-helcogramma_ascensionis.png", "group": "blenny", "rarity": 1, "waterType": "Saltwater"}, {"lat": -9.2167, "lng": 108.1233, "id": "602101", "name": "Spiniferites", "sprite": "sp-anchoviella_juruasanga.png", "group": "other", "rarity": 1}, {"lat": -10.0, "lng": 107.5, "id": "277079", "name": "Javan flounder", "thumb": "tn_Psjav_u1.jpg", "sprite": "sp-atlantic_halibut.png", "group": "flatfish", "rarity": 1, "waterType": "Saltwater"}, {"lat": -9.3, "lng": 108.11, "id": "1360982", "name": "Echinidinium transparantum", "sprite": "sp-anchoviella_juruasanga.png", "group": "other", "rarity": 1}, {"lat": -10.3333, "lng": 107.6333, "id": "850553", "name": "Walvisteuthis rancureli", "sprite": "sp-giant_pacific_octopus.png", "group": "octopus_squid", "rarity": 1}, {"lat": -9.8833, "lng": 109.65, "id": "1464945", "name": "Paracalanus aculeatus aculeatus", "sprite": "sp-anchoviella_juruasanga.png", "group": "other", "rarity": 1}, {"lat": -10.0, "lng": 107.5, "id": "217359", "name": "Grey sharpnose shark", "thumb": "tn_Rholi_u0.jpg", "sprite": "sp-great_white_shark.png", "group": "shark", "rarity": 1, "waterType": "Saltwater"}, {"lat": -10.0, "lng": 107.5, "id": "212217", "name": "Sixbar wrasse", "thumb": "tn_Thhar_u1.jpg", "sprite": "sp-cleaner_wrasse.png", "group": "wrasse", "rarity": 1, "waterType": "Saltwater"}, {"lat": -10.3333, "lng": 109.6333, "id": "117263", "name": "Aegina citrea", "sprite": "sp-anchoviella_juruasanga.png", "group": "other", "rarity": 1}, {"lat": -10.2258, "lng": 108.52, "id": "13703", "name": "Thecosomata", "sprite": "sp-cowrie_shell.png", "group": "sea_snail", "rarity": 1}, {"lat": -10.0, "lng": 107.5, "id": "219296", "name": "Lined rockskipper", "thumb": "tn_Islin_u0.jpg", "sprite": "sp-helcogramma_ascensionis.png", "group": "blenny", "rarity": 1, "waterType": "Saltwater"}, {"lat": -10.0, "lng": 107.5, "id": "278536", "name": "Redbelly yellowtail fusilier", "thumb": "tn_Cacun_u5.jpg", "sprite": "sp-anchoviella_juruasanga.png", "group": "other", "rarity": 1, "waterType": "Saltwater"}, {"lat": -10.0, "lng": 107.5, "id": "217572", "name": "Saddled snake-eel", "thumb": "tn_Lesem_u4.jpg", "sprite": "sp-electric_eel.png", "group": "eel", "rarity": 1, "waterType": "Brackish"}, {"lat": -10.0, "lng": 107.5, "id": "277235", "name": "Barred soapfish", "thumb": "tn_Dibif_u3.jpg", "sprite": "sp-chelidoperca_santosi.png", "group": "grouper", "rarity": 1, "waterType": "Saltwater"}, {"lat": -10.2914, "lng": 108.7129, "id": "266708", "name": "Aidanosagitta neglecta", "sprite": "sp-anchoviella_juruasanga.png", "group": "other", "rarity": 1}, {"lat": -10.0, "lng": 107.5, "id": "277294", "name": "Leaping blenny", "thumb": "tn_Alsal_u0.jpg", "sprite": "sp-helcogramma_ascensionis.png", "group": "blenny", "rarity": 1, "waterType": "Saltwater"}, {"lat": -10.2925, "lng": 108.5467, "id": "1128", "name": "Euphausiacea", "sprite": "sp-antarctic_krill.png", "group": "shrimp", "rarity": 1}, {"lat": -10.0, "lng": 107.5, "id": "219063", "name": "Cutribbon wrasse", "thumb": "tn_Stint_u8.jpg", "sprite": "sp-cleaner_wrasse.png", "group": "wrasse", "rarity": 1, "waterType": "Saltwater"}, {"lat": -10.2914, "lng": 108.7129, "id": "391906", "name": "Tornaria", "sprite": "sp-anchoviella_juruasanga.png", "group": "other", "rarity": 1}, {"lat": -10.3916, "lng": 107.75, "id": "341818", "name": "Liocranchia reinhardtii", "sprite": "sp-giant_pacific_octopus.png", "group": "octopus_squid", "rarity": 1}, {"lat": -10.2914, "lng": 108.7129, "id": "105430", "name": "Pterosagitta draco", "sprite": "sp-anchoviella_juruasanga.png", "group": "other", "rarity": 1}, {"lat": -10.0, "lng": 107.5, "id": "219925", "name": "White-spotted puffer", "thumb": "tn_Arhis_ub.jpg", "sprite": "sp-fahaka_pufferfish.png", "group": "pufferfish", "rarity": 1, "waterType": "Brackish"}, {"lat": -10.0, "lng": 107.5, "id": "215627", "name": "Stonefish", "thumb": "tn_Syver_u0.jpg", "sprite": "sp-anchoviella_juruasanga.png", "group": "other", "rarity": 1, "waterType": "Saltwater"}, {"lat": -10.0442, "lng": 109.1589, "id": "1078", "name": "Ostracoda", "sprite": "sp-anchoviella_juruasanga.png", "group": "other", "rarity": 1}, {"lat": -10.2335, "lng": 108.5812, "id": "1248", "name": "Ctenophora", "sprite": "sp-anchoviella_juruasanga.png", "group": "other", "rarity": 1}, {"lat": -10.0, "lng": 107.5, "id": "206186", "name": "Plotosus", "sprite": "sp-blue_catfish.png", "group": "catfish", "rarity": 1}, {"lat": -10.0, "lng": 107.5, "id": "398517", "name": "Elongate ponyfish", "thumb": "tn_Eqelo_u0.jpg", "sprite": "sp-anchoviella_juruasanga.png", "group": "other", "rarity": 1, "waterType": "Saltwater"}, {"lat": -10.24, "lng": 108.3656, "id": "146142", "name": "Bryozoa", "sprite": "sp-anchoviella_juruasanga.png", "group": "other", "rarity": 1}, {"lat": -10.2311, "lng": 108.4851, "id": "103353", "name": "Copelata", "sprite": "sp-anchoviella_juruasanga.png", "group": "other", "rarity": 1}, {"lat": -10.73, "lng": 108.47, "id": "161454", "name": "Hemisiriella parva", "sprite": "sp-american_lobster.png", "group": "crab_lobster", "rarity": 1}, {"lat": -10.2335, "lng": 108.5812, "id": "1131", "name": "Isopoda", "sprite": "sp-american_lobster.png", "group": "crab_lobster", "rarity": 1}, {"lat": -10.2914, "lng": 108.7129, "id": "106795", "name": "Scyllaridae", "sprite": "sp-american_lobster.png", "group": "crab_lobster", "rarity": 1}, {"lat": -10.1962, "lng": 108.8237, "id": "105448", "name": "Sagitta bipunctata", "sprite": "sp-anchoviella_juruasanga.png", "group": "other", "rarity": 1}, {"lat": -10.0, "lng": 107.5, "id": "276862", "name": "Estuarine stonefish", "thumb": "tn_Syhor_u3.jpg", "sprite": "sp-anchoviella_juruasanga.png", "group": "other", "rarity": 1, "waterType": "Brackish"}, {"lat": -10.2335, "lng": 108.5812, "id": "204105", "name": "Halobates", "sprite": "sp-anchoviella_juruasanga.png", "group": "other", "rarity": 1}, {"lat": -10.0, "lng": 107.5, "id": "159427", "name": "Freckled driftfish", "thumb": "tn_Parot_u0.gif", "sprite": "sp-anchoviella_juruasanga.png", "group": "other", "rarity": 1, "waterType": "Saltwater"}, {"lat": -10.2914, "lng": 108.7129, "id": "1268", "name": "Sipuncula", "sprite": "sp-anchoviella_juruasanga.png", "group": "other", "rarity": 1}, {"lat": -9.365, "lng": 108.01, "id": "110213", "name": "Protoperidinium conicum", "sprite": "sp-anchoviella_juruasanga.png", "group": "other", "rarity": 1}, {"lat": -10.0, "lng": 107.5, "id": "218878", "name": "Squaretail mullet", "thumb": "tn_Livai_u2.jpg", "sprite": "sp-anchoviella_juruasanga.png", "group": "other", "rarity": 1, "waterType": "Brackish"}, {"lat": -10.0, "lng": 107.5, "id": "279116", "name": "Pegasus laternarius", "thumb": "tn_Pelat_u1.jpg", "sprite": "sp-anchoviella_juruasanga.png", "group": "other", "rarity": 1, "waterType": "Saltwater"}, {"lat": -10.0, "lng": 107.5, "id": "403462", "name": "Yellow boxfish", "thumb": "tn_Oscub_u1.jpg", "sprite": "sp-anchoviella_juruasanga.png", "group": "other", "rarity": 1, "waterType": "Saltwater"}, {"lat": -10.2335, "lng": 108.5812, "id": "1133", "name": "Tanaidacea", "sprite": "sp-american_lobster.png", "group": "crab_lobster", "rarity": 1}, {"lat": -9.8887, "lng": 109.6539, "id": "105801", "name": "Blue shark", "thumb": "tn_Prgla_j1.jpg", "sprite": "sp-great_white_shark.png", "group": "shark", "rarity": 1, "waterType": "Brackish"}, {"lat": -10.0, "lng": 107.5, "id": "271882", "name": "Richardson's moray", "thumb": "tn_Gyric_u2.jpg", "sprite": "sp-anarchias.png", "group": "moray", "rarity": 1, "waterType": "Saltwater"}, {"lat": -10.0, "lng": 107.5, "id": "203886", "name": "Heniochus", "sprite": "sp-chaetodon.png", "group": "butterflyfish", "rarity": 1}, {"lat": -10.2335, "lng": 108.5812, "id": "155670", "name": "Diplostraca", "sprite": "sp-anchoviella_juruasanga.png", "group": "other", "rarity": 1}, {"lat": -9.175, "lng": 108.13, "id": "670195", "name": "Spiniferites mirabilis", "sprite": "sp-anchoviella_juruasanga.png", "group": "other", "rarity": 1}, {"lat": -10.0, "lng": 107.5, "id": "126991", "name": "Man-of-war fish", "thumb": "tn_Nogro_u0.jpg", "sprite": "sp-anchoviella_juruasanga.png", "group": "other", "rarity": 1, "waterType": "Saltwater"}, {"lat": -10.0, "lng": 107.5, "id": "273867", "name": "Sixbar grouper", "thumb": "tn_Epsex_u2.jpg", "sprite": "sp-chelidoperca_santosi.png", "group": "grouper", "rarity": 1, "waterType": "Saltwater"}, {"lat": -10.3333, "lng": 107.0833, "id": "397173", "name": "Planostrea pestigris", "sprite": "sp-blue_mussel.png", "group": "clam_mussel", "rarity": 1}, {"lat": -10.2335, "lng": 108.5812, "id": "793", "name": "Platyhelminthes", "sprite": "sp-anchoviella_juruasanga.png", "group": "other", "rarity": 1}, {"lat": -10.2078, "lng": 108.6378, "id": "1130", "name": "Decapoda", "sprite": "sp-american_lobster.png", "group": "crab_lobster", "rarity": 1}, {"lat": -10.0, "lng": 107.5, "id": "276785", "name": "Saw-jawed monocle bream", "thumb": "tn_Sccil_u5.jpg", "sprite": "sp-anchoviella_juruasanga.png", "group": "other", "rarity": 1, "waterType": "Brackish"}, {"lat": -10.0, "lng": 107.5, "id": "219359", "name": "Northern mud gudgeon", "thumb": "tn_Oppor_u3.jpg", "sprite": "sp-anchoviella_juruasanga.png", "group": "other", "rarity": 1, "waterType": "Brackish"}, {"lat": -10.39, "lng": 107.16, "id": "445598", "name": "Littoraria ardouiniana", "sprite": "sp-cowrie_shell.png", "group": "sea_snail", "rarity": 1}, {"lat": -10.0, "lng": 107.5, "id": "279676", "name": "Striped cowfish", "thumb": "tn_Araur_f0.jpg", "sprite": "sp-anchoviella_juruasanga.png", "group": "other", "rarity": 1, "waterType": "Saltwater"}, {"lat": -10.2914, "lng": 108.7129, "id": "105429", "name": "Krohnitta subtilis", "sprite": "sp-anchoviella_juruasanga.png", "group": "other", "rarity": 1}, {"lat": -10.0, "lng": 107.5, "id": "219529", "name": "Oxyurichthys tentacularis", "thumb": "tn_Oxten_u0.jpg", "sprite": "sp-eviota_bipunctata.png", "group": "goby", "rarity": 1, "waterType": "Brackish"}, {"lat": -10.39, "lng": 107.16, "id": "208938", "name": "Littoraria intermedia", "sprite": "sp-cowrie_shell.png", "group": "sea_snail", "rarity": 1}, {"lat": -10.0, "lng": 107.5, "id": "278245", "name": "Dark-margined flagtail", "thumb": "tn_Kumar_u5.jpg", "sprite": "sp-anchoviella_juruasanga.png", "group": "other", "rarity": 1, "waterType": "Brackish"}, {"lat": -10.0, "lng": 107.5, "id": "219512", "name": "Flagfin prawn goby", "thumb": "tn_Mamys_u2.jpg", "sprite": "sp-eviota_bipunctata.png", "group": "goby", "rarity": 1, "waterType": "Brackish"}, {"lat": -10.0, "lng": 107.5, "id": "278878", "name": "Hasselt's goby", "thumb": "tn_Cahas_u5.jpg", "sprite": "sp-eviota_bipunctata.png", "group": "goby", "rarity": 1, "waterType": "Brackish"}, {"lat": -10.1442, "lng": 108.5463, "id": "387338", "name": "Pterotracheoidea", "sprite": "sp-cowrie_shell.png", "group": "sea_snail", "rarity": 1}, {"lat": -10.0, "lng": 107.5, "id": "217625", "name": "Milkfish", "thumb": "tn_Chcha_u1.jpg", "sprite": "sp-anchoviella_juruasanga.png", "group": "other", "rarity": 1, "waterType": "Brackish"}, {"lat": -10.0, "lng": 107.5, "id": "217670", "name": "Variegated lizardfish", "thumb": "tn_Syvar_uq.jpg", "sprite": "sp-anchoviella_juruasanga.png", "group": "other", "rarity": 1, "waterType": "Saltwater"}, {"lat": -10.1962, "lng": 108.8237, "id": "266247", "name": "Ferosagitta ferox", "sprite": "sp-anchoviella_juruasanga.png", "group": "other", "rarity": 1}, {"lat": -10.0, "lng": 107.5, "id": "218431", "name": "Black pomfret", "thumb": "tn_Panig_uf.jpg", "sprite": "sp-anchoviella_juruasanga.png", "group": "other", "rarity": 1, "waterType": "Brackish"}, {"lat": -10.0, "lng": 107.5, "id": "215615", "name": "Grey stingfish", "thumb": "tn_Mimon_u2.jpg", "sprite": "sp-anchoviella_juruasanga.png", "group": "other", "rarity": 1, "waterType": "Saltwater"}, {"lat": -10.2914, "lng": 108.7129, "id": "22990", "name": "Atlantidae", "sprite": "sp-cowrie_shell.png", "group": "sea_snail", "rarity": 1}, {"lat": -10.0, "lng": 107.5, "id": "219914", "name": "Shortnose boxfish", "thumb": "tn_Osnas_u2.jpg", "sprite": "sp-anchoviella_juruasanga.png", "group": "other", "rarity": 1, "waterType": "Saltwater"}, {"lat": -9.0051, "lng": 109.0, "id": "113464", "name": "Globigerinita glutinata", "sprite": "sp-anchoviella_juruasanga.png", "group": "other", "rarity": 1}, {"lat": -10.39, "lng": 107.16, "id": "445622", "name": "Littoraria strigata", "sprite": "sp-cowrie_shell.png", "group": "sea_snail", "rarity": 1}, {"lat": -10.0, "lng": 107.5, "id": "279924", "name": "Boddart's goggle-eyed goby", "thumb": "tn_Bobod_u1.jpg", "sprite": "sp-eviota_bipunctata.png", "group": "goby", "rarity": 1, "waterType": "Brackish"}, {"lat": -9.3, "lng": 108.11, "id": "604699", "name": "Quinquecuspis", "sprite": "sp-anchoviella_juruasanga.png", "group": "other", "rarity": 1}, {"lat": -10.9667, "lng": 107.4444, "id": "212634", "name": "Puffinus pacificus", "sprite": "sp-anchoviella_juruasanga.png", "group": "other", "rarity": 1}, {"lat": -10.0, "lng": 107.5, "id": "280130", "name": "Striped snakehead", "thumb": "tn_Chbar_u6.jpg", "sprite": "sp-anchoviella_juruasanga.png", "group": "other", "rarity": 1, "waterType": "Brackish"}, {"lat": -9.8833, "lng": 109.65, "id": "104616", "name": "Mecynocera clausi", "sprite": "sp-anchoviella_juruasanga.png", "group": "other", "rarity": 1}, {"lat": -10.2415, "lng": 109.4937, "id": "137119", "name": "Physeter macrocephalus", "sprite": "sp-blue_whale.png", "group": "whale", "rarity": 1}, {"lat": -10.0, "lng": 107.5, "id": "218360", "name": "Moontail bullseye", "thumb": "tn_Prham_u2.jpg", "sprite": "sp-anchoviella_juruasanga.png", "group": "other", "rarity": 1, "waterType": "Saltwater"}, {"lat": -11.0667, "lng": 107.0167, "id": "212596", "name": "Sula sula", "sprite": "sp-anchoviella_juruasanga.png", "group": "other", "rarity": 1}, {"lat": -9.0051, "lng": 109.0, "id": "113444", "name": "Globigerinoides ruber", "sprite": "sp-anchoviella_juruasanga.png", "group": "other", "rarity": 1}, {"lat": -10.2335, "lng": 108.5812, "id": "106731", "name": "Sergestidae", "sprite": "sp-american_lobster.png", "group": "crab_lobster", "rarity": 1}, {"lat": -10.1518, "lng": 108.5082, "id": "1292", "name": "Anthozoa", "sprite": "sp-actiniidae.png", "group": "coral", "rarity": 1}, {"lat": -10.0, "lng": 107.5, "id": "278340", "name": "Cryptocentrus niveatus", "sprite": "sp-eviota_bipunctata.png", "group": "goby", "rarity": 1, "waterType": "Saltwater"}, {"lat": -11.1333, "lng": 107.1667, "id": "343997", "name": "Fregata andrewsi", "sprite": "sp-anchoviella_juruasanga.png", "group": "other", "rarity": 1}, {"lat": -9.2167, "lng": 108.1233, "id": "601889", "name": "Operculodinium", "sprite": "sp-anchoviella_juruasanga.png", "group": "other", "rarity": 1}, {"lat": -10.1855, "lng": 108.49, "id": "2081", "name": "Chaetognatha", "sprite": "sp-anchoviella_juruasanga.png", "group": "other", "rarity": 1}, {"lat": -10.2335, "lng": 108.5812, "id": "106671", "name": "Anomura", "sprite": "sp-american_lobster.png", "group": "crab_lobster", "rarity": 1}, {"lat": -10.1971, "lng": 108.5233, "id": "11676", "name": "Pisces", "sprite": "sp-anchoviella_juruasanga.png", "group": "other", "rarity": 1}, {"lat": -10.0333, "lng": 109.6, "id": "205469", "name": "Acropora", "sprite": "sp-actiniidae.png", "group": "coral", "rarity": 1}, {"lat": -10.2335, "lng": 108.5812, "id": "128595", "name": "Sapphirinidae", "sprite": "sp-anchoviella_juruasanga.png", "group": "other", "rarity": 1}, {"lat": -10.0, "lng": 107.5, "id": "218182", "name": "Chocolate hind", "thumb": "tn_Ceboe_u9.jpg", "sprite": "sp-chelidoperca_santosi.png", "group": "grouper", "rarity": 1, "waterType": "Saltwater"}, {"lat": -10.2335, "lng": 108.5812, "id": "138092", "name": "Janthina", "sprite": "sp-cowrie_shell.png", "group": "sea_snail", "rarity": 1}, {"lat": -10.0, "lng": 107.5, "id": "279626", "name": "Chacunda gizzard shad", "thumb": "tn_Ancha_u1.jpg", "sprite": "sp-anchoviella_juruasanga.png", "group": "other", "rarity": 1, "waterType": "Brackish"}, {"lat": -10.193, "lng": 108.489, "id": "148378", "name": "Phoronidae", "sprite": "sp-anchoviella_juruasanga.png", "group": "other", "rarity": 1}, {"lat": -9.11, "lng": 108.23, "id": "601728", "name": "Impagidinium", "sprite": "sp-anchoviella_juruasanga.png", "group": "other", "rarity": 1}, {"lat": -10.39, "lng": 107.16, "id": "445608", "name": "Littoraria conica", "sprite": "sp-cowrie_shell.png", "group": "sea_snail", "rarity": 1}, {"lat": -9.9867, "lng": 107.942, "id": "175039", "name": "Phascolion (Montuga) lutense", "sprite": "sp-anchoviella_juruasanga.png", "group": "other", "rarity": 1}, {"lat": -10.0, "lng": 107.5, "id": "218384", "name": "Yellowtail scad", "thumb": "tn_Atmat_u6.jpg", "sprite": "sp-anchoviella_juruasanga.png", "group": "other", "rarity": 1, "waterType": "Brackish"}, {"lat": -10.0, "lng": 107.5, "id": "281121", "name": "Butter hamlet", "thumb": "tn_Hyuni_u4.jpg", "sprite": "sp-chelidoperca_santosi.png", "group": "grouper", "rarity": 1, "waterType": "Saltwater"}, {"lat": -10.0, "lng": 107.5, "id": "218355", "name": "Barred flagtail", "thumb": "tn_Kumug_u0.jpg", "sprite": "sp-anchoviella_juruasanga.png", "group": "other", "rarity": 1, "waterType": "Brackish"}, {"lat": -10.1962, "lng": 108.8237, "id": "105434", "name": "Flaccisagitta enflata", "sprite": "sp-anchoviella_juruasanga.png", "group": "other", "rarity": 1}, {"lat": -10.193, "lng": 108.489, "id": "135382", "name": "Physalia", "sprite": "sp-anchoviella_juruasanga.png", "group": "other", "rarity": 1}, {"lat": -9.175, "lng": 108.13, "id": "418136", "name": "Gonyaulax digitalis", "sprite": "sp-anchoviella_juruasanga.png", "group": "other", "rarity": 1}, {"lat": -10.193, "lng": 108.489, "id": "14260", "name": "Rotifera", "sprite": "sp-anchoviella_juruasanga.png", "group": "other", "rarity": 1}, {"lat": -10.0, "lng": 107.5, "id": "278126", "name": "Red filament threadfin bream", "thumb": "tn_Nemar_u3.jpg", "sprite": "sp-anchoviella_juruasanga.png", "group": "other", "rarity": 1, "waterType": "Saltwater"}, {"lat": -10.28, "lng": 109.2, "id": "215436", "name": "Conus ebraeus", "sprite": "sp-cowrie_shell.png", "group": "sea_snail", "rarity": 1}, {"lat": -9.98, "lng": 109.27, "id": "119906", "name": "Siriella", "sprite": "sp-american_lobster.png", "group": "crab_lobster", "rarity": 1}, {"lat": -9.8887, "lng": 109.6539, "id": "126333", "name": "Long snouted lancetfish", "thumb": "tn_Alfer_u0.jpg", "sprite": "sp-anchoviella_juruasanga.png", "group": "other", "rarity": 1, "waterType": "Saltwater"}, {"lat": -10.2335, "lng": 108.5812, "id": "106673", "name": "Brachyura", "sprite": "sp-american_lobster.png", "group": "crab_lobster", "rarity": 1}]}