{"zoom": 7, "x": 102, "y": 73, "points": [{"lat": -25.3939, "lng": 108.2637, "id": "1080", "name": "Copepoda", "sprite": "sp-anchoviella_juruasanga.png", "group": "other", "rarity": 1}, {"lat": -25.1042, "lng": 107.675, "id": "104468", "name": "Mesocalanus tenuicornis", "sprite": "sp-anchoviella_juruasanga.png", "group": "other", "rarity": 1}, {"lat": -25.26, "lng": 108.2025, "id": "104152", "name": "Calanus", "sprite": "sp-anchoviella_juruasanga.png", "group": "other", "rarity": 1}, {"lat": -25.4592, "lng": 108.2253, "id": "104669", "name": "Calocalanus pavo", "sprite": "sp-anchoviella_juruasanga.png", "group": "other", "rarity": 1}, {"lat": -25.33, "lng": 108.45, "id": "146420", "name": "Tunicata", "sprite": "sp-anchoviella_juruasanga.png", "group": "other", "rarity": 1}, {"lat": -25.8667, "lng": 108.7, "id": "104553", "name": "Euchaeta media", "sprite": "sp-anchoviella_juruasanga.png", "group": "other", "rarity": 1}, {"lat": -25.2454, "lng": 108.6677, "id": "105410", "name": "Sagitta", "sprite": "sp-anchoviella_juruasanga.png", "group": "other", "rarity": 1}, {"lat": -25.0, "lng": 107.0, "id": "156451", "name": "Themisto compressa", "sprite": "sp-american_lobster.png", "group": "crab_lobster", "rarity": 1}, {"lat": -25.2167, "lng": 108.5667, "id": "105429", "name": "Krohnitta subtilis", "sprite": "sp-anchoviella_juruasanga.png", "group": "other", "rarity": 1}, {"lat": -25.2083, "lng": 108.35, "id": "103278", "name": "Scina borealis", "sprite": "sp-american_lobster.png", "group": "crab_lobster", "rarity": 1}, {"lat": -25.5553, "lng": 108.2544, "id": "1461626", "name": "Clausocalanus arcuicornis arcuicornis", "sprite": "sp-anchoviella_juruasanga.png", "group": "other", "rarity": 1}, {"lat": -25.4417, "lng": 108.1917, "id": "387338", "name": "Pterotracheoidea", "sprite": "sp-cowrie_shell.png", "group": "sea_snail", "rarity": 1}, {"lat": -25.0, "lng": 107.0, "id": "104276", "name": "Aetideus giesbrechti", "sprite": "sp-anchoviella_juruasanga.png", "group": "other", "rarity": 1}, {"lat": -24.6658, "lng": 108.6538, "id": "221331", "name": "Pulleniatina obliquiloculata", "sprite": "sp-anchoviella_juruasanga.png", "group": "other", "rarity": 1}, {"lat": -25.33, "lng": 108.45, "id": "138092", "name": "Janthina", "sprite": "sp-cowrie_shell.png", "group": "sea_snail", "rarity": 1}, {"lat": -25.5083, "lng": 107.7834, "id": "104171", "name": "Eucalanus", "sprite": "sp-anchoviella_juruasanga.png", "group": "other", "rarity": 1}, {"lat": -25.5, "lng": 108.275, "id": "148378", "name": "Phoronidae", "sprite": "sp-anchoviella_juruasanga.png", "group": "other", "rarity": 1}, {"lat": -25.1042, "lng": 107.675, "id": "128957", "name": "Triconia conifera", "sprite": "sp-anchoviella_juruasanga.png", "group": "other", "rarity": 1}, {"lat": -24.6358, "lng": 107.755, "id": "919", "name": "Cirratulidae", "sprite": "sp-anchoviella_juruasanga.png", "group": "other", "rarity": 1}, {"lat": -25.1042, "lng": 107.675, "id": "104422", "name": "Haloptilus acutifrons", "sprite": "sp-anchoviella_juruasanga.png", "group": "other", "rarity": 1}, {"lat": -25.4417, "lng": 108.1917, "id": "13703", "name": "Thecosomata", "sprite": "sp-cowrie_shell.png", "group": "sea_snail", "rarity": 1}, {"lat": -25.2899, "lng": 108.5092, "id": "104597", "name": "Lucicutia flavicornis", "sprite": "sp-anchoviella_juruasanga.png", "group": "other", "rarity": 1}, {"lat": -25.4398, "lng": 108.6117, "id": "104821", "name": "Scolecithrix danae", "sprite": "sp-anchoviella_juruasanga.png", "group": "other", "rarity": 1}, {"lat": -25.1042, "lng": 107.675, "id": "1464945", "name": "Paracalanus aculeatus aculeatus", "sprite": "sp-anchoviella_juruasanga.png", "group": "other", "rarity": 1}, {"lat": -25.0, "lng": 107.0, "id": "104546", "name": "Subeucalanus mucronatus", "sprite": "sp-anchoviella_juruasanga.png", "group": "other", "rarity": 1}, {"lat": -25.33, "lng": 108.45, "id": "204105", "name": "Halobates", "sprite": "sp-anchoviella_juruasanga.png", "group": "other", "rarity": 1}, {"lat": -25.24, "lng": 108.61, "id": "104140", "name": "Haloptilus", "sprite": "sp-anchoviella_juruasanga.png", "group": "other", "rarity": 1}, {"lat": -25.2167, "lng": 108.5667, "id": "1268", "name": "Sipuncula", "sprite": "sp-anchoviella_juruasanga.png", "group": "other", "rarity": 1}, {"lat": -25.2083, "lng": 108.35, "id": "841751", "name": "Tripos pulchellus", "sprite": "sp-anchoviella_juruasanga.png", "group": "other", "rarity": 1}, {"lat": -25.8125, "lng": 108.9611, "id": "104491", "name": "Centropages bradyi", "sprite": "sp-anchoviella_juruasanga.png", "group": "other", "rarity": 1}, {"lat": -25.3945, "lng": 108.1222, "id": "104471", "name": "Neocalanus gracilis", "sprite": "sp-anchoviella_juruasanga.png", "group": "other", "rarity": 1}, {"lat": -25.8667, "lng": 108.7, "id": "104552", "name": "Euchaeta marina", "sprite": "sp-anchoviella_juruasanga.png", "group": "other", "rarity": 1}, {"lat": -24.6658, "lng": 108.6538, "id": "113444", "name": "Globigerinoides ruber", "sprite": "sp-anchoviella_juruasanga.png", "group": "other", "rarity": 1}, {"lat": -25.0, "lng": 107.0, "id": "346037", "name": "Acartia (Acartiura) longiremis", "sprite": "sp-anchoviella_juruasanga.png", "group": "other", "rarity": 1}, {"lat": -25.33, "lng": 108.45, "id": "106731", "name": "Sergestidae", "sprite": "sp-american_lobster.png", "group": "crab_lobster", "rarity": 1}, {"lat": -25.33, "lng": 108.45, "id": "155670", "name": "Diplostraca", "sprite": "sp-anchoviella_juruasanga.png", "group": "other", "rarity": 1}, {"lat": -25.33, "lng": 108.45, "id": "106673", "name": "Brachyura", "sprite": "sp-american_lobster.png", "group": "crab_lobster", "rarity": 1}, {"lat": -25.2167, "lng": 108.5667, "id": "266249", "name": "Ferosagitta robusta", "sprite": "sp-anchoviella_juruasanga.png", "group": "other", "rarity": 1}, {"lat": -25.2167, "lng": 108.5667, "id": "105435", "name": "Flaccisagitta hexaptera", "sprite": "sp-anchoviella_juruasanga.png", "group": "other", "rarity": 1}, {"lat": -25.2083, "lng": 108.35, "id": "235749", "name": "Acanthometra", "sprite": "sp-anchoviella_juruasanga.png", "group": "other", "rarity": 1}, {"lat": -24.9345, "lng": 108.3834, "id": "104645", "name": "Acrocalanus gibber", "sprite": "sp-anchoviella_juruasanga.png", "group": "other", "rarity": 1}, {"lat": -24.8889, "lng": 108.3889, "id": "220915", "name": "Candacia bispinosa", "sprite": "sp-anchoviella_juruasanga.png", "group": "other", "rarity": 1}, {"lat": -25.0625, "lng": 108.7125, "id": "266247", "name": "Ferosagitta ferox", "sprite": "sp-anchoviella_juruasanga.png", "group": "other", "rarity": 1}, {"lat": -25.4, "lng": 108.5167, "id": "104275", "name": "Aetideus armatus", "sprite": "sp-anchoviella_juruasanga.png", "group": "other", "rarity": 1}, {"lat": -25.65, "lng": 108.525, "id": "1436445", "name": "Pleuromamma gracilis gracilis", "sprite": "sp-anchoviella_juruasanga.png", "group": "other", "rarity": 1}, {"lat": -25.1042, "lng": 107.675, "id": "128938", "name": "Oncaea media", "sprite": "sp-anchoviella_juruasanga.png", "group": "other", "rarity": 1}, {"lat": -25.0, "lng": 107.0, "id": "233273", "name": "Ceratium tenue", "sprite": "sp-anchoviella_juruasanga.png", "group": "other", "rarity": 1}, {"lat": -25.0567, "lng": 108.3033, "id": "745865", "name": "Paracalanus parvus parvus", "sprite": "sp-anchoviella_juruasanga.png", "group": "other", "rarity": 1}, {"lat": -24.6658, "lng": 108.6538, "id": "113453", "name": "Globorotalia truncatulinoides", "sprite": "sp-anchoviella_juruasanga.png", "group": "other", "rarity": 1}, {"lat": -25.2167, "lng": 108.5667, "id": "266708", "name": "Aidanosagitta neglecta", "sprite": "sp-anchoviella_juruasanga.png", "group": "other", "rarity": 1}, {"lat": -25.0, "lng": 107.0, "id": "104296", "name": "Euchirella amoena", "sprite": "sp-anchoviella_juruasanga.png", "group": "other", "rarity": 1}, {"lat": -25.3667, "lng": 108.6833, "id": "104228", "name": "Scaphocalanus", "sprite": "sp-anchoviella_juruasanga.png", "group": "other", "rarity": 1}, {"lat": -25.9333, "lng": 109.0833, "id": "104510", "name": "Ctenocalanus vanus", "sprite": "sp-anchoviella_juruasanga.png", "group": "other", "rarity": 1}, {"lat": -25.33, "lng": 108.45, "id": "1137", "name": "Cumacea", "sprite": "sp-american_lobster.png", "group": "crab_lobster", "rarity": 1}, {"lat": -25.1042, "lng": 107.675, "id": "734517", "name": "Oithona setigera setigera", "sprite": "sp-anchoviella_juruasanga.png", "group": "other", "rarity": 1}, {"lat": -25.1042, "lng": 107.675, "id": "1066", "name": "Crustacea", "sprite": "sp-anchoviella_juruasanga.png", "group": "other", "rarity": 1}, {"lat": -25.2167, "lng": 108.5667, "id": "391906", "name": "Tornaria", "sprite": "sp-anchoviella_juruasanga.png", "group": "other", "rarity": 1}, {"lat": -25.0, "lng": 107.0, "id": "128795", "name": "Agetus flaccus", "sprite": "sp-anchoviella_juruasanga.png", "group": "other", "rarity": 1}, {"lat": -25.33, "lng": 108.45, "id": "14355", "name": "Stomatopoda", "sprite": "sp-american_lobster.png", "group": "crab_lobster", "rarity": 1}, {"lat": -25.33, "lng": 108.45, "id": "104902", "name": "Branchiostoma", "sprite": "sp-anchoviella_juruasanga.png", "group": "other", "rarity": 1}, {"lat": -24.6658, "lng": 108.6538, "id": "113450", "name": "Globorotalia menardii", "sprite": "sp-anchoviella_juruasanga.png", "group": "other", "rarity": 1}, {"lat": -25.3786, "lng": 108.4, "id": "1806", "name": "Echinodermata", "sprite": "sp-sea_cucumber.png", "group": "starfish", "rarity": 1}, {"lat": -25.2167, "lng": 108.5667, "id": "105437", "name": "Mesosagitta minima", "sprite": "sp-anchoviella_juruasanga.png", "group": "other", "rarity": 1}, {"lat": -25.0, "lng": 107.0, "id": "346476", "name": "Farranula concinna", "sprite": "sp-anchoviella_juruasanga.png", "group": "other", "rarity": 1}, {"lat": -24.6658, "lng": 108.6538, "id": "906779", "name": "Globorotalia inflata", "sprite": "sp-anchoviella_juruasanga.png", "group": "other", "rarity": 1}, {"lat": -25.1042, "lng": 107.675, "id": "106485", "name": "Oithona", "sprite": "sp-anchoviella_juruasanga.png", "group": "other", "rarity": 1}, {"lat": -25.0, "lng": 107.0, "id": "129041", "name": "Sapphirina angusta", "sprite": "sp-anchoviella_juruasanga.png", "group": "other", "rarity": 1}, {"lat": -25.2167, "lng": 108.5667, "id": "1789", "name": "Phoronida", "sprite": "sp-anchoviella_juruasanga.png", "group": "other", "rarity": 1}, {"lat": -24.8667, "lng": 108.6667, "id": "346439", "name": "Euchaeta longicornis", "sprite": "sp-anchoviella_juruasanga.png", "group": "other", "rarity": 1}, {"lat": -24.8667, "lng": 108.6667, "id": "137233", "name": "Salpa", "sprite": "sp-anchoviella_juruasanga.png", "group": "other", "rarity": 1}, {"lat": -25.33, "lng": 108.45, "id": "958", "name": "Tomopteridae", "sprite": "sp-anchoviella_juruasanga.png", "group": "other", "rarity": 1}, {"lat": -25.3681, "lng": 108.075, "id": "2", "name": "Animalia", "sprite": "sp-anchoviella_juruasanga.png", "group": "other", "rarity": 1}, {"lat": -25.1042, "lng": 107.675, "id": "104472", "name": "Neocalanus robustior", "sprite": "sp-anchoviella_juruasanga.png", "group": "other", "rarity": 1}, {"lat": -25.2222, "lng": 108.1333, "id": "104196", "name": "Paracalanus", "sprite": "sp-anchoviella_juruasanga.png", "group": "other", "rarity": 1}, {"lat": -25.33, "lng": 108.45, "id": "1248", "name": "Ctenophora", "sprite": "sp-anchoviella_juruasanga.png", "group": "other", "rarity": 1}, {"lat": -25.3465, "lng": 108.3696, "id": "1078", "name": "Ostracoda", "sprite": "sp-anchoviella_juruasanga.png", "group": "other", "rarity": 1}, {"lat": -25.1042, "lng": 107.675, "id": "128799", "name": "Corycaeus crassiusculus", "sprite": "sp-anchoviella_juruasanga.png", "group": "other", "rarity": 1}, {"lat": -24.6658, "lng": 108.6538, "id": "113464", "name": "Globigerinita glutinata", "sprite": "sp-anchoviella_juruasanga.png", "group": "other", "rarity": 1}, {"lat": -24.6167, "lng": 108.6167, "id": "212634", "name": "Puffinus pacificus", "sprite": "sp-anchoviella_juruasanga.png", "group": "other", "rarity": 1}, {"lat": -25.5065, "lng": 108.5163, "id": "104616", "name": "Mecynocera clausi", "sprite": "sp-anchoviella_juruasanga.png", "group": "other", "rarity": 1}, {"lat": -25.8932, "lng": 108.2205, "id": "137119", "name": "Physeter macrocephalus", "sprite": "sp-blue_whale.png", "group": "whale", "rarity": 1}, {"lat": -25.0, "lng": 107.0, "id": "128819", "name": "Onychocorycaeus ovalis", "sprite": "sp-anchoviella_juruasanga.png", "group": "other", "rarity": 1}, {"lat": -25.2167, "lng": 108.5667, "id": "22990", "name": "Atlantidae", "sprite": "sp-cowrie_shell.png", "group": "sea_snail", "rarity": 1}, {"lat": -25.0695, "lng": 108.5994, "id": "237968", "name": "Pareucalanus attenuatus", "sprite": "sp-anchoviella_juruasanga.png", "group": "other", "rarity": 1}, {"lat": -25.1167, "lng": 108.675, "id": "1384339", "name": "Cosmocalanus darwinii darwinii", "sprite": "sp-anchoviella_juruasanga.png", "group": "other", "rarity": 1}, {"lat": -25.8667, "lng": 108.7, "id": "104483", "name": "Candacia pachydactyla", "sprite": "sp-anchoviella_juruasanga.png", "group": "other", "rarity": 1}, {"lat": -25.5, "lng": 108.275, "id": "1128", "name": "Euphausiacea", "sprite": "sp-antarctic_krill.png", "group": "shrimp", "rarity": 1}, {"lat": -25.2809, "lng": 108.0048, "id": "104651", "name": "Calocalanus contractus", "sprite": "sp-anchoviella_juruasanga.png", "group": "other", "rarity": 1}, {"lat": -25.0, "lng": 107.0, "id": "129052", "name": "Sapphirina metallina", "sprite": "sp-anchoviella_juruasanga.png", "group": "other", "rarity": 1}, {"lat": -25.5262, "lng": 108.5833, "id": "110673", "name": "Euphausia", "sprite": "sp-antarctic_krill.png", "group": "shrimp", "rarity": 1}, {"lat": -25.4583, "lng": 108.1125, "id": "346026", "name": "Acartia (Acartia) danae", "sprite": "sp-anchoviella_juruasanga.png", "group": "other", "rarity": 1}, {"lat": -25.1042, "lng": 107.675, "id": "129045", "name": "Sapphirina gastrica", "sprite": "sp-anchoviella_juruasanga.png", "group": "other", "rarity": 1}, {"lat": -25.5334, "lng": 108.6889, "id": "603038", "name": "Heterorhabdus", "sprite": "sp-anchoviella_juruasanga.png", "group": "other", "rarity": 1}, {"lat": -25.5417, "lng": 108.1778, "id": "104682", "name": "Paracalanus denudatus", "sprite": "sp-anchoviella_juruasanga.png", "group": "other", "rarity": 1}, {"lat": -25.0, "lng": 107.0, "id": "149168", "name": "Proboscia alata", "sprite": "sp-anchoviella_juruasanga.png", "group": "other", "rarity": 1}, {"lat": -25.2083, "lng": 108.35, "id": "157083", "name": "Thalassiothrix longissima", "sprite": "sp-anchoviella_juruasanga.png", "group": "other", "rarity": 1}, {"lat": -24.6658, "lng": 108.6538, "id": "580633", "name": "Globorotalia crassaformis subsp. imbricata", "sprite": "sp-anchoviella_juruasanga.png", "group": "other", "rarity": 1}, {"lat": -25.2834, "lng": 108.3433, "id": "104469", "name": "Nannocalanus minor", "sprite": "sp-anchoviella_juruasanga.png", "group": "other", "rarity": 1}, {"lat": -25.275, "lng": 108.65, "id": "1292", "name": "Anthozoa", "sprite": "sp-actiniidae.png", "group": "coral", "rarity": 1}, {"lat": -25.1042, "lng": 107.675, "id": "104431", "name": "Haloptilus longicornis", "sprite": "sp-anchoviella_juruasanga.png", "group": "other", "rarity": 1}, {"lat": -25.2167, "lng": 108.5667, "id": "266888", "name": "Zonosagitta pulchra", "sprite": "sp-anchoviella_juruasanga.png", "group": "other", "rarity": 1}, {"lat": -25.0625, "lng": 108.7125, "id": "105430", "name": "Pterosagitta draco", "sprite": "sp-anchoviella_juruasanga.png", "group": "other", "rarity": 1}, {"lat": -25.6571, "lng": 108.1857, "id": "104503", "name": "Clausocalanus furcatus", "sprite": "sp-anchoviella_juruasanga.png", "group": "other", "rarity": 1}, {"lat": -25.0, "lng": 107.0, "id": "110687", "name": "Euphausia krohnii", "sprite": "sp-antarctic_krill.png", "group": "shrimp", "rarity": 1}, {"lat": -25.1042, "lng": 107.675, "id": "110328", "name": "Pyrocystis fusiformis", "sprite": "sp-anchoviella_juruasanga.png", "group": "other", "rarity": 1}, {"lat": -25.33, "lng": 108.45, "id": "1133", "name": "Tanaidacea", "sprite": "sp-american_lobster.png", "group": "crab_lobster", "rarity": 1}, {"lat": -25.2655, "lng": 108.2286, "id": "2081", "name": "Chaetognatha", "sprite": "sp-anchoviella_juruasanga.png", "group": "other", "rarity": 1}, {"lat": -25.3308, "lng": 108.5154, "id": "11676", "name": "Pisces", "sprite": "sp-anchoviella_juruasanga.png", "group": "other", "rarity": 1}, {"lat": -25.33, "lng": 108.45, "id": "106671", "name": "Anomura", "sprite": "sp-american_lobster.png", "group": "crab_lobster", "rarity": 1}, {"lat": -25.33, "lng": 108.45, "id": "128595", "name": "Sapphirinidae", "sprite": "sp-anchoviella_juruasanga.png", "group": "other", "rarity": 1}, {"lat": -25.1042, "lng": 107.675, "id": "129053", "name": "Sapphirina nigromaculata", "sprite": "sp-anchoviella_juruasanga.png", "group": "other", "rarity": 1}, {"lat": -25.4258, "lng": 108.2687, "id": "104174", "name": "Euchaeta", "sprite": "sp-anchoviella_juruasanga.png", "group": "other", "rarity": 1}, {"lat": -25.0, "lng": 107.0, "id": "236602", "name": "Parascelus edwardsi", "sprite": "sp-american_lobster.png", "group": "crab_lobster", "rarity": 1}, {"lat": -25.1042, "lng": 107.675, "id": "104161", "name": "Clausocalanus", "sprite": "sp-anchoviella_juruasanga.png", "group": "other", "rarity": 1}, {"lat": -25.33, "lng": 108.45, "id": "793", "name": "Platyhelminthes", "sprite": "sp-anchoviella_juruasanga.png", "group": "other", "rarity": 1}, {"lat": -25.4437, "lng": 108.5621, "id": "1130", "name": "Decapoda", "sprite": "sp-american_lobster.png", "group": "crab_lobster", "rarity": 1}, {"lat": -25.1042, "lng": 107.675, "id": "104492", "name": "Centropages calaninus", "sprite": "sp-anchoviella_juruasanga.png", "group": "other", "rarity": 1}, {"lat": -25.1042, "lng": 107.675, "id": "106644", "name": "Oithona decipiens", "sprite": "sp-anchoviella_juruasanga.png", "group": "other", "rarity": 1}, {"lat": -25.1042, "lng": 107.675, "id": "765217", "name": "Urocorycaeus longistylis", "sprite": "sp-anchoviella_juruasanga.png", "group": "other", "rarity": 1}, {"lat": -25.2083, "lng": 108.35, "id": "110721", "name": "Thysanopoda tricuspidata", "sprite": "sp-antarctic_krill.png", "group": "shrimp", "rarity": 1}]}