{"zoom": 7, "x": 103, "y": 67, "points": [{"lat": -10.1926, "lng": 110.3113, "id": "1648", "name": "Sipunculidae", "sprite": "sp-anchoviella_juruasanga.png", "group": "other", "rarity": 1}, {"lat": -10.1787, "lng": 110.407, "id": "106794", "name": "Palinuridae", "sprite": "sp-american_lobster.png", "group": "crab_lobster", "rarity": 1}, {"lat": -8.667, "lng": 110.35, "id": "104580", "name": "Heterorhabdus papilliger", "sprite": "sp-anchoviella_juruasanga.png", "group": "other", "rarity": 1}, {"lat": -8.667, "lng": 110.35, "id": "847452", "name": "Eucalanus elongatus elongatus", "sprite": "sp-anchoviella_juruasanga.png", "group": "other", "rarity": 1}, {"lat": -8.667, "lng": 110.35, "id": "346476", "name": "Farranula concinna", "sprite": "sp-anchoviella_juruasanga.png", "group": "other", "rarity": 1}, {"lat": -8.667, "lng": 110.35, "id": "104466", "name": "Calanus helgolandicus", "sprite": "sp-anchoviella_juruasanga.png", "group": "other", "rarity": 1}, {"lat": -10.75, "lng": 109.9013, "id": "103367", "name": "Oikopleura", "sprite": "sp-anchoviella_juruasanga.png", "group": "other", "rarity": 1}, {"lat": -10.1124, "lng": 110.2673, "id": "1292", "name": "Anthozoa", "sprite": "sp-actiniidae.png", "group": "coral", "rarity": 1}, {"lat": -8.667, "lng": 110.35, "id": "104669", "name": "Calocalanus pavo", "sprite": "sp-anchoviella_juruasanga.png", "group": "other", "rarity": 1}, {"lat": -10.1683, "lng": 110.3057, "id": "106673", "name": "Brachyura", "sprite": "sp-american_lobster.png", "group": "crab_lobster", "rarity": 1}, {"lat": -10.5, "lng": 110.0, "id": "161473", "name": "Siriella gracilis", "sprite": "sp-american_lobster.png", "group": "crab_lobster", "rarity": 1}, {"lat": -10.1403, "lng": 110.335, "id": "101", "name": "Gastropoda", "sprite": "sp-cowrie_shell.png", "group": "sea_snail", "rarity": 1}, {"lat": -10.3333, "lng": 109.9167, "id": "117860", "name": "Pantachogon haeckeli", "sprite": "sp-anchoviella_juruasanga.png", "group": "other", "rarity": 1}, {"lat": -10.1559, "lng": 110.3255, "id": "2", "name": "Animalia", "sprite": "sp-anchoviella_juruasanga.png", "group": "other", "rarity": 1}, {"lat": -8.667, "lng": 110.35, "id": "137272", "name": "Salpa fusiformis", "sprite": "sp-anchoviella_juruasanga.png", "group": "other", "rarity": 1}, {"lat": -8.5833, "lng": 112.2167, "id": "129238", "name": "Paleanotus", "sprite": "sp-anchoviella_juruasanga.png", "group": "other", "rarity": 1}, {"lat": -10.25, "lng": 110.0, "id": "161438", "name": "Pseudanchialina inermis", "sprite": "sp-american_lobster.png", "group": "crab_lobster", "rarity": 1}, {"lat": -8.58, "lng": 111.18, "id": "215525", "name": "Conus capitaneus", "sprite": "sp-cowrie_shell.png", "group": "sea_snail", "rarity": 1}, {"lat": -9.2288, "lng": 111.26, "id": "137119", "name": "Physeter macrocephalus", "sprite": "sp-blue_whale.png", "group": "whale", "rarity": 1}, {"lat": -11.0, "lng": 110.0, "id": "129054", "name": "Sapphirina opalina", "sprite": "sp-anchoviella_juruasanga.png", "group": "other", "rarity": 1}, {"lat": -11.0, "lng": 110.0, "id": "1488083", "name": "Rhincalanus cornutus cornutus", "sprite": "sp-anchoviella_juruasanga.png", "group": "other", "rarity": 1}, {"lat": -8.65, "lng": 111.9167, "id": "1018635", "name": "Scalicus amiscus", "sprite": "sp-anchoviella_juruasanga.png", "group": "other", "rarity": 1, "waterType": "Saltwater"}, {"lat": -9.45, "lng": 109.85, "id": "161474", "name": "Siriella aequiremis", "sprite": "sp-american_lobster.png", "group": "crab_lobster", "rarity": 1}, {"lat": -10.1645, "lng": 110.3195, "id": "138092", "name": "Janthina", "sprite": "sp-cowrie_shell.png", "group": "sea_snail", "rarity": 1}, {"lat": -8.71, "lng": 111.39, "id": "601889", "name": "Operculodinium", "sprite": "sp-anchoviella_juruasanga.png", "group": "other", "rarity": 1}, {"lat": -10.3333, "lng": 109.9165, "id": "464392", "name": "Vesicomya sundaensis", "sprite": "sp-blue_mussel.png", "group": "clam_mussel", "rarity": 1}, {"lat": -8.667, "lng": 110.35, "id": "128800", "name": "Corycaeus speciosus", "sprite": "sp-anchoviella_juruasanga.png", "group": "other", "rarity": 1}, {"lat": -8.71, "lng": 111.39, "id": "570552", "name": "Nematosphaeropsis", "sprite": "sp-anchoviella_juruasanga.png", "group": "other", "rarity": 1}, {"lat": -10.4845, "lng": 112.0845, "id": "212601", "name": "Calidris ruficollis", "sprite": "sp-anchoviella_juruasanga.png", "group": "other", "rarity": 1}, {"lat": -10.1522, "lng": 110.3198, "id": "14355", "name": "Stomatopoda", "sprite": "sp-american_lobster.png", "group": "crab_lobster", "rarity": 1}, {"lat": -10.7847, "lng": 111.0036, "id": "106485", "name": "Oithona", "sprite": "sp-anchoviella_juruasanga.png", "group": "other", "rarity": 1}, {"lat": -8.667, "lng": 110.35, "id": "128954", "name": "Oncaea venusta", "sprite": "sp-anchoviella_juruasanga.png", "group": "other", "rarity": 1}, {"lat": -10.1879, "lng": 110.2411, "id": "266268", "name": "Serratosagitta pacifica", "sprite": "sp-anchoviella_juruasanga.png", "group": "other", "rarity": 1}, {"lat": -10.1732, "lng": 110.3136, "id": "266888", "name": "Zonosagitta pulchra", "sprite": "sp-anchoviella_juruasanga.png", "group": "other", "rarity": 1}, {"lat": -8.565, "lng": 109.8333, "id": "217970", "name": "Grooved razor-fish", "thumb": "tn_Cescu_u4.jpg", "sprite": "sp-anchoviella_juruasanga.png", "group": "other", "rarity": 1, "waterType": "Brackish"}, {"lat": -10.1617, "lng": 110.3215, "id": "1806", "name": "Echinodermata", "sprite": "sp-sea_cucumber.png", "group": "starfish", "rarity": 1}, {"lat": -10.1645, "lng": 110.3195, "id": "196151", "name": "Eryonidae", "sprite": "sp-american_lobster.png", "group": "crab_lobster", "rarity": 1}, {"lat": -10.1875, "lng": 110.3063, "id": "13703", "name": "Thecosomata", "sprite": "sp-cowrie_shell.png", "group": "sea_snail", "rarity": 1}, {"lat": -8.667, "lng": 110.35, "id": "104548", "name": "Subeucalanus subcrassus", "sprite": "sp-anchoviella_juruasanga.png", "group": "other", "rarity": 1}, {"lat": -10.1645, "lng": 110.3195, "id": "1133", "name": "Tanaidacea", "sprite": "sp-american_lobster.png", "group": "crab_lobster", "rarity": 1}, {"lat": -10.35, "lng": 110.2, "id": "428792", "name": "Rhachotropis flemmingi", "sprite": "sp-american_lobster.png", "group": "crab_lobster", "rarity": 1}, {"lat": -10.936, "lng": 111.0503, "id": "353999", "name": "Oithona fragilis", "sprite": "sp-anchoviella_juruasanga.png", "group": "other", "rarity": 1}, {"lat": -10.35, "lng": 110.2, "id": "272800", "name": "Holcomycteronus profundissimus", "thumb": "tn_Hopro_u0.gif", "sprite": "sp-anchoviella_juruasanga.png", "group": "other", "rarity": 1, "waterType": "Saltwater"}, {"lat": -8.5833, "lng": 109.95, "id": "217619", "name": "Alcock's boafish", "thumb": "tn_Stneb_u0.jpg", "sprite": "sp-anchoviella_juruasanga.png", "group": "other", "rarity": 1, "waterType": "Saltwater"}, {"lat": -10.1732, "lng": 110.3136, "id": "266249", "name": "Ferosagitta robusta", "sprite": "sp-anchoviella_juruasanga.png", "group": "other", "rarity": 1}, {"lat": -8.65, "lng": 111.9167, "id": "215622", "name": "Peristedion weberi", "thumb": "tn_Peweb_u1.gif", "sprite": "sp-anchoviella_juruasanga.png", "group": "other", "rarity": 1, "waterType": "Saltwater"}, {"lat": -10.68, "lng": 112.2, "id": "10331", "name": "Pleuronectiformes", "sprite": "sp-atlantic_halibut.png", "group": "flatfish", "rarity": 1}, {"lat": -8.667, "lng": 110.35, "id": "149724", "name": "Euchirella galeata", "sprite": "sp-anchoviella_juruasanga.png", "group": "other", "rarity": 1}, {"lat": -8.667, "lng": 110.35, "id": "841751", "name": "Tripos pulchellus", "sprite": "sp-anchoviella_juruasanga.png", "group": "other", "rarity": 1}, {"lat": -10.1732, "lng": 110.3136, "id": "105429", "name": "Krohnitta subtilis", "sprite": "sp-anchoviella_juruasanga.png", "group": "other", "rarity": 1}, {"lat": -10.1732, "lng": 110.3136, "id": "22990", "name": "Atlantidae", "sprite": "sp-cowrie_shell.png", "group": "sea_snail", "rarity": 1}, {"lat": -8.667, "lng": 110.35, "id": "1383454", "name": "Acartia (Odontacartia) erythraea erythraea", "sprite": "sp-anchoviella_juruasanga.png", "group": "other", "rarity": 1}, {"lat": -10.8333, "lng": 109.8833, "id": "104193", "name": "Calocalanus", "sprite": "sp-anchoviella_juruasanga.png", "group": "other", "rarity": 1}, {"lat": -10.1354, "lng": 110.2448, "id": "105430", "name": "Pterosagitta draco", "sprite": "sp-anchoviella_juruasanga.png", "group": "other", "rarity": 1}, {"lat": -10.2029, "lng": 110.3039, "id": "793", "name": "Platyhelminthes", "sprite": "sp-anchoviella_juruasanga.png", "group": "other", "rarity": 1}, {"lat": -8.58, "lng": 111.18, "id": "215441", "name": "Conus catus", "sprite": "sp-cowrie_shell.png", "group": "sea_snail", "rarity": 1}, {"lat": -10.3333, "lng": 109.916, "id": "284026", "name": "Aglaophenia galatheae", "sprite": "sp-anchoviella_juruasanga.png", "group": "other", "rarity": 1}, {"lat": -8.667, "lng": 110.35, "id": "232122", "name": "Amphisolenia thrinax", "sprite": "sp-anchoviella_juruasanga.png", "group": "other", "rarity": 1}, {"lat": -10.1732, "lng": 110.3136, "id": "105428", "name": "Krohnitta pacifica", "sprite": "sp-anchoviella_juruasanga.png", "group": "other", "rarity": 1}, {"lat": -10.35, "lng": 110.2, "id": "766258", "name": "Elpidia sundensis", "sprite": "sp-sea_cucumber.png", "group": "starfish", "rarity": 1}, {"lat": -8.71, "lng": 111.39, "id": "233555", "name": "Gonyaulax membranacea", "sprite": "sp-anchoviella_juruasanga.png", "group": "other", "rarity": 1}, {"lat": -10.1386, "lng": 110.3419, "id": "117199", "name": "Porpita", "sprite": "sp-anchoviella_juruasanga.png", "group": "other", "rarity": 1}, {"lat": -10.8333, "lng": 109.8833, "id": "138007", "name": "Fiona", "sprite": "sp-cowrie_shell.png", "group": "sea_snail", "rarity": 1}, {"lat": -8.667, "lng": 110.35, "id": "220916", "name": "Candacia truncata", "sprite": "sp-anchoviella_juruasanga.png", "group": "other", "rarity": 1}, {"lat": -8.667, "lng": 110.35, "id": "127520", "name": "Cypridina", "sprite": "sp-anchoviella_juruasanga.png", "group": "other", "rarity": 1}, {"lat": -10.1779, "lng": 110.3768, "id": "146142", "name": "Bryozoa", "sprite": "sp-anchoviella_juruasanga.png", "group": "other", "rarity": 1}, {"lat": -9.5, "lng": 110.0, "id": "220731", "name": "Oxycephalus clausi", "sprite": "sp-american_lobster.png", "group": "crab_lobster", "rarity": 1}, {"lat": -8.667, "lng": 110.35, "id": "220903", "name": "Centropages gracilis", "sprite": "sp-anchoviella_juruasanga.png", "group": "other", "rarity": 1}, {"lat": -8.58, "lng": 111.18, "id": "215522", "name": "Conus litteratus", "sprite": "sp-cowrie_shell.png", "group": "sea_snail", "rarity": 1}, {"lat": -10.3333, "lng": 109.916, "id": "234904", "name": "Eremicaster pacificus", "sprite": "sp-sea_cucumber.png", "group": "starfish", "rarity": 1}, {"lat": -8.58, "lng": 111.18, "id": "1079154", "name": "Naria eburnea", "sprite": "sp-cowrie_shell.png", "group": "sea_snail", "rarity": 1}, {"lat": -9.5, "lng": 110.0, "id": "280372", "name": "Congriscus maldivensis", "sprite": "sp-electric_eel.png", "group": "eel", "rarity": 1, "waterType": "Saltwater"}, {"lat": -10.1559, "lng": 110.3255, "id": "146996", "name": "Leptostraca", "sprite": "sp-american_lobster.png", "group": "crab_lobster", "rarity": 1}, {"lat": -10.225, "lng": 109.925, "id": "161375", "name": "Doxomysis quadrispinosa", "sprite": "sp-american_lobster.png", "group": "crab_lobster", "rarity": 1}, {"lat": -8.667, "lng": 110.35, "id": "220898", "name": "Temora discaudata", "sprite": "sp-anchoviella_juruasanga.png", "group": "other", "rarity": 1}, {"lat": -8.667, "lng": 110.35, "id": "177604", "name": "Trichodesmium", "sprite": "sp-anchoviella_juruasanga.png", "group": "other", "rarity": 1}, {"lat": -10.4722, "lng": 109.9611, "id": "104469", "name": "Nannocalanus minor", "sprite": "sp-anchoviella_juruasanga.png", "group": "other", "rarity": 1}, {"lat": -8.667, "lng": 110.35, "id": "110673", "name": "Euphausia", "sprite": "sp-antarctic_krill.png", "group": "shrimp", "rarity": 1}, {"lat": -10.1396, "lng": 110.3469, "id": "1337", "name": "Hydrozoa", "sprite": "sp-anchoviella_juruasanga.png", "group": "other", "rarity": 1}, {"lat": -8.667, "lng": 110.35, "id": "116382", "name": "Macrosetella gracilis", "sprite": "sp-anchoviella_juruasanga.png", "group": "other", "rarity": 1}, {"lat": -10.4722, "lng": 109.9611, "id": "104821", "name": "Scolecithrix danae", "sprite": "sp-anchoviella_juruasanga.png", "group": "other", "rarity": 1}, {"lat": -9.7667, "lng": 110.8333, "id": "104366", "name": "Paraugaptilus buchani", "sprite": "sp-anchoviella_juruasanga.png", "group": "other", "rarity": 1}, {"lat": -10.1645, "lng": 110.3195, "id": "155670", "name": "Diplostraca", "sprite": "sp-anchoviella_juruasanga.png", "group": "other", "rarity": 1}, {"lat": -10.1645, "lng": 110.3195, "id": "1803", "name": "Brachiopoda", "sprite": "sp-anchoviella_juruasanga.png", "group": "other", "rarity": 1}, {"lat": -11.0, "lng": 110.0, "id": "104544", "name": "Subeucalanus crassus", "sprite": "sp-anchoviella_juruasanga.png", "group": "other", "rarity": 1}, {"lat": -10.936, "lng": 111.0503, "id": "106652", "name": "Oithona plumifera", "sprite": "sp-anchoviella_juruasanga.png", "group": "other", "rarity": 1}, {"lat": -10.936, "lng": 111.0503, "id": "106646", "name": "Oithona hamata", "sprite": "sp-anchoviella_juruasanga.png", "group": "other", "rarity": 1}, {"lat": -8.667, "lng": 110.35, "id": "128822", "name": "Urocorycaeus lautus", "sprite": "sp-anchoviella_juruasanga.png", "group": "other", "rarity": 1}, {"lat": -9.5, "lng": 110.0, "id": "421621", "name": "Lycaea vincentii", "sprite": "sp-american_lobster.png", "group": "crab_lobster", "rarity": 1}, {"lat": -10.1335, "lng": 110.3451, "id": "1130", "name": "Decapoda", "sprite": "sp-american_lobster.png", "group": "crab_lobster", "rarity": 1}, {"lat": -10.1559, "lng": 110.3255, "id": "558", "name": "Porifera", "sprite": "sp-barrel_sponge.png", "group": "sponge", "rarity": 1}, {"lat": -9.5, "lng": 110.0, "id": "236570", "name": "Lestrigonus macrophthalmus", "sprite": "sp-american_lobster.png", "group": "crab_lobster", "rarity": 1}, {"lat": -10.1559, "lng": 110.3255, "id": "14260", "name": "Rotifera", "sprite": "sp-anchoviella_juruasanga.png", "group": "other", "rarity": 1}, {"lat": -8.667, "lng": 110.35, "id": "104209", "name": "Pontella", "sprite": "sp-anchoviella_juruasanga.png", "group": "other", "rarity": 1}, {"lat": -11.0, "lng": 110.0, "id": "360662", "name": "Subeucalanus dentatus", "sprite": "sp-anchoviella_juruasanga.png", "group": "other", "rarity": 1}, {"lat": -10.1599, "lng": 110.2589, "id": "105448", "name": "Sagitta bipunctata", "sprite": "sp-anchoviella_juruasanga.png", "group": "other", "rarity": 1}, {"lat": -8.667, "lng": 110.35, "id": "129060", "name": "Sapphirina stellata", "sprite": "sp-anchoviella_juruasanga.png", "group": "other", "rarity": 1}, {"lat": -10.1732, "lng": 110.3136, "id": "391906", "name": "Tornaria", "sprite": "sp-anchoviella_juruasanga.png", "group": "other", "rarity": 1}, {"lat": -11.0, "lng": 110.0, "id": "104547", "name": "Subeucalanus pileatus", "sprite": "sp-anchoviella_juruasanga.png", "group": "other", "rarity": 1}, {"lat": -8.58, "lng": 111.18, "id": "215478", "name": "Conus sanguinolentus", "sprite": "sp-cowrie_shell.png", "group": "sea_snail", "rarity": 1}, {"lat": -8.667, "lng": 110.35, "id": "841193", "name": "Tripos candelabrum", "sprite": "sp-anchoviella_juruasanga.png", "group": "other", "rarity": 1}, {"lat": -10.2175, "lng": 110.3102, "id": "149668", "name": "Mysida", "sprite": "sp-american_lobster.png", "group": "crab_lobster", "rarity": 1}, {"lat": -8.667, "lng": 110.35, "id": "220902", "name": "Centropages elongatus", "sprite": "sp-anchoviella_juruasanga.png", "group": "other", "rarity": 1}, {"lat": -10.1645, "lng": 110.3195, "id": "1082", "name": "Cirripedia", "sprite": "sp-anchoviella_juruasanga.png", "group": "other", "rarity": 1}, {"lat": -10.8333, "lng": 109.8833, "id": "128634", "name": "Corycaeus", "sprite": "sp-anchoviella_juruasanga.png", "group": "other", "rarity": 1}, {"lat": -10.3417, "lng": 110.058, "id": "124726", "name": "Elpidia glacialis", "sprite": "sp-sea_cucumber.png", "group": "starfish", "rarity": 1}, {"lat": -8.667, "lng": 110.35, "id": "346030", "name": "Acartia (Acartia) negligens", "sprite": "sp-anchoviella_juruasanga.png", "group": "other", "rarity": 1}, {"lat": -8.667, "lng": 110.35, "id": "359855", "name": "Paraeuchaeta flava", "sprite": "sp-anchoviella_juruasanga.png", "group": "other", "rarity": 1}, {"lat": -8.667, "lng": 110.35, "id": "129045", "name": "Sapphirina gastrica", "sprite": "sp-anchoviella_juruasanga.png", "group": "other", "rarity": 1}, {"lat": -8.667, "lng": 110.35, "id": "360239", "name": "Pontellopsis armata", "sprite": "sp-anchoviella_juruasanga.png", "group": "other", "rarity": 1}, {"lat": -10.1428, "lng": 110.3144, "id": "883", "name": "Polychaeta", "sprite": "sp-anchoviella_juruasanga.png", "group": "other", "rarity": 1}, {"lat": -10.2, "lng": 110.8322, "id": "161454", "name": "Hemisiriella parva", "sprite": "sp-american_lobster.png", "group": "crab_lobster", "rarity": 1}, {"lat": -10.68, "lng": 112.2, "id": "125576", "name": "Bothidae", "sprite": "sp-atlantic_halibut.png", "group": "flatfish", "rarity": 1}, {"lat": -11.0, "lng": 110.0, "id": "359874", "name": "Paraeuchaeta russelli", "sprite": "sp-anchoviella_juruasanga.png", "group": "other", "rarity": 1}, {"lat": -10.1683, "lng": 110.3057, "id": "958", "name": "Tomopteridae", "sprite": "sp-anchoviella_juruasanga.png", "group": "other", "rarity": 1}, {"lat": -8.71, "lng": 111.39, "id": "688196", "name": "Spiniferites ramosus subsp. cavispinosus", "sprite": "sp-anchoviella_juruasanga.png", "group": "other", "rarity": 1}, {"lat": -8.667, "lng": 110.35, "id": "113434", "name": "Globigerina bulloides", "sprite": "sp-anchoviella_juruasanga.png", "group": "other", "rarity": 1}, {"lat": -8.71, "lng": 111.39, "id": "670195", "name": "Spiniferites mirabilis", "sprite": "sp-anchoviella_juruasanga.png", "group": "other", "rarity": 1}, {"lat": -8.667, "lng": 110.35, "id": "237968", "name": "Pareucalanus attenuatus", "sprite": "sp-anchoviella_juruasanga.png", "group": "other", "rarity": 1}, {"lat": -9.8335, "lng": 110.175, "id": "129038", "name": "Copilia mirabilis", "sprite": "sp-anchoviella_juruasanga.png", "group": "other", "rarity": 1}]}