{"zoom": 7, "x": 104, "y": 60, "points": [{"lat": 10.8983, "lng": 115.305, "id": "112887", "name": "Cibicidoides robertsonianus", "sprite": "sp-anchoviella_juruasanga.png", "group": "other", "rarity": 1}, {"lat": 10.3776, "lng": 114.3648, "id": "219476", "name": "Eyebar goby", "thumb": "tn_Gncau_u8.jpg", "sprite": "sp-eviota_bipunctata.png", "group": "goby", "rarity": 1, "waterType": "Brackish"}, {"lat": 9.7105, "lng": 112.6525, "id": "13703", "name": "Thecosomata", "sprite": "sp-cowrie_shell.png", "group": "sea_snail", "rarity": 1}, {"lat": 10.379, "lng": 114.378, "id": "318699", "name": "Old glory", "thumb": "tn_Amrai_u0.jpg", "sprite": "sp-eviota_bipunctata.png", "group": "goby", "rarity": 1, "waterType": "Saltwater"}, {"lat": 10.38, "lng": 114.3716, "id": "208914", "name": "Eight-lined wrasse", "thumb": "tn_Psoct_u4.jpg", "sprite": "sp-cleaner_wrasse.png", "group": "wrasse", "rarity": 1, "waterType": "Saltwater"}, {"lat": 9.015, "lng": 114.8, "id": "287129", "name": "Peponocyathus minimus", "sprite": "sp-actiniidae.png", "group": "coral", "rarity": 1}, {"lat": 10.371, "lng": 114.3625, "id": "209363", "name": "Longspine cardinalfish", "thumb": "tn_Apdor_u0.jpg", "sprite": "sp-anchoviella_juruasanga.png", "group": "other", "rarity": 1, "waterType": "Saltwater"}, {"lat": 10.383, "lng": 114.367, "id": "212037", "name": "Needle-tooth moray", "thumb": "tn_Urmac_u1.jpg", "sprite": "sp-anarchias.png", "group": "moray", "rarity": 1, "waterType": "Saltwater"}, {"lat": 9.3619, "lng": 113.285, "id": "113162", "name": "Laticarinina pauperata", "sprite": "sp-anchoviella_juruasanga.png", "group": "other", "rarity": 1}, {"lat": 10.3542, "lng": 112.7292, "id": "1525960", "name": "Spiny lantern fish", "thumb": "tn_Myspi_u1.gif", "sprite": "sp-anchoviella_juruasanga.png", "group": "other", "rarity": 1, "waterType": "Saltwater"}, {"lat": 10.0, "lng": 114.0, "id": "1465792", "name": "Merulina cylindrica", "sprite": "sp-actiniidae.png", "group": "coral", "rarity": 1}, {"lat": 9.9567, "lng": 114.0669, "id": "417990", "name": "Anomalinoides globulosus", "sprite": "sp-anchoviella_juruasanga.png", "group": "other", "rarity": 1}, {"lat": 10.383, "lng": 114.3725, "id": "218261", "name": "Leopard coralgrouper", "thumb": "tn_Plleo_u2.jpg", "sprite": "sp-chelidoperca_santosi.png", "group": "grouper", "rarity": 1, "waterType": "Saltwater"}, {"lat": 10.9018, "lng": 115.3047, "id": "113441", "name": "Globigerinoides conglobatus", "sprite": "sp-anchoviella_juruasanga.png", "group": "other", "rarity": 1}, {"lat": 10.3762, "lng": 114.3649, "id": "277164", "name": "Philippine damsel", "thumb": "tn_Pophi_u0.jpg", "sprite": "sp-chrysiptera_caesifrons.png", "group": "clownfish", "rarity": 1, "waterType": "Saltwater"}, {"lat": 9.1235, "lng": 112.9775, "id": "277832", "name": "Whitespotted bambooshark", "thumb": "tn_Chpla_u2.jpg", "sprite": "sp-great_white_shark.png", "group": "shark", "rarity": 1, "waterType": "Saltwater"}, {"lat": 10.4146, "lng": 114.7693, "id": "123384", "name": "Echinocyamus", "sprite": "sp-sea_cucumber.png", "group": "starfish", "rarity": 1}, {"lat": 10.0, "lng": 114.0, "id": "207146", "name": "Montipora verrucosa", "sprite": "sp-actiniidae.png", "group": "coral", "rarity": 1}, {"lat": 11.1, "lng": 113.25, "id": "19494", "name": "Hydroidolina", "sprite": "sp-anchoviella_juruasanga.png", "group": "other", "rarity": 1}, {"lat": 10.3767, "lng": 114.357, "id": "218945", "name": "Humphead wrasse", "thumb": "tn_Chund_ua.jpg", "sprite": "sp-cleaner_wrasse.png", "group": "wrasse", "rarity": 1, "waterType": "Saltwater"}, {"lat": 9.3619, "lng": 113.285, "id": "556436", "name": "Coronatoplanulina okinawaensis", "sprite": "sp-anchoviella_juruasanga.png", "group": "other", "rarity": 1}, {"lat": 10.379, "lng": 114.378, "id": "218414", "name": "Giant trevally", "thumb": "tn_Caign_u4.jpg", "sprite": "sp-anchoviella_juruasanga.png", "group": "other", "rarity": 1, "waterType": "Brackish"}, {"lat": 10.5667, "lng": 112.85, "id": "126572", "name": "Bulbous dreamer", "thumb": "tn_Onesc_u0.gif", "sprite": "sp-deep_sea_anglerfish.png", "group": "anglerfish", "rarity": 1, "waterType": "Saltwater"}, {"lat": 10.5417, "lng": 112.8917, "id": "272682", "name": "Diaphus megalops", "sprite": "sp-anchoviella_juruasanga.png", "group": "other", "rarity": 1, "waterType": "Saltwater"}, {"lat": 10.8658, "lng": 115.2757, "id": "113440", "name": "Globigerinella siphonifera", "sprite": "sp-anchoviella_juruasanga.png", "group": "other", "rarity": 1}, {"lat": 10.0, "lng": 114.0, "id": "207449", "name": "Favites abdita", "sprite": "sp-actiniidae.png", "group": "coral", "rarity": 1}, {"lat": 9.3619, "lng": 113.285, "id": "112101", "name": "Bolivina", "sprite": "sp-anchoviella_juruasanga.png", "group": "other", "rarity": 1}, {"lat": 10.3767, "lng": 114.3657, "id": "212312", "name": "Nardoa frianti", "sprite": "sp-sea_cucumber.png", "group": "starfish", "rarity": 1}, {"lat": 10.375, "lng": 114.3677, "id": "273367", "name": "Pearlscale butterflyfish", "thumb": "tn_Chxan_ul.jpg", "sprite": "sp-chaetodon.png", "group": "butterflyfish", "rarity": 1, "waterType": "Saltwater"}, {"lat": 10.0, "lng": 114.0, "id": "207373", "name": "Mycedium elephantotus", "sprite": "sp-actiniidae.png", "group": "coral", "rarity": 1}, {"lat": 10.381, "lng": 114.367, "id": "218764", "name": "Masked bannerfish", "thumb": "tn_Hemon_u5.jpg", "sprite": "sp-chaetodon.png", "group": "butterflyfish", "rarity": 1, "waterType": "Saltwater"}, {"lat": 10.3744, "lng": 114.3653, "id": "368977", "name": "Neoferdina cumingi", "sprite": "sp-sea_cucumber.png", "group": "starfish", "rarity": 1}, {"lat": 10.0, "lng": 114.0, "id": "207059", "name": "Acropora pharaonis", "sprite": "sp-actiniidae.png", "group": "coral", "rarity": 1}, {"lat": 10.0, "lng": 114.0, "id": "207095", "name": "Acropora cytherea", "sprite": "sp-actiniidae.png", "group": "coral", "rarity": 1}, {"lat": 9.7105, "lng": 112.6525, "id": "1135", "name": "Amphipoda", "sprite": "sp-american_lobster.png", "group": "crab_lobster", "rarity": 1}, {"lat": 10.0, "lng": 114.0, "id": "207413", "name": "Cyphastrea serailia", "sprite": "sp-actiniidae.png", "group": "coral", "rarity": 1}, {"lat": 10.3775, "lng": 114.3675, "id": "218304", "name": "Yellow-edged lyretail", "thumb": "tn_Valou_uc.jpg", "sprite": "sp-chelidoperca_santosi.png", "group": "grouper", "rarity": 1, "waterType": "Saltwater"}, {"lat": 9.7105, "lng": 112.6525, "id": "14355", "name": "Stomatopoda", "sprite": "sp-american_lobster.png", "group": "crab_lobster", "rarity": 1}, {"lat": 10.381, "lng": 114.3725, "id": "278980", "name": "Randall's prawn-goby", "thumb": "tn_Amran_u4.jpg", "sprite": "sp-eviota_bipunctata.png", "group": "goby", "rarity": 1, "waterType": "Saltwater"}, {"lat": 9.3619, "lng": 113.285, "id": "113060", "name": "Globobulimina affinis", "sprite": "sp-anchoviella_juruasanga.png", "group": "other", "rarity": 1}, {"lat": 9.7105, "lng": 112.6525, "id": "883", "name": "Polychaeta", "sprite": "sp-anchoviella_juruasanga.png", "group": "other", "rarity": 1}, {"lat": 10.376, "lng": 114.371, "id": "212059", "name": "Red snout emperor", "thumb": "tn_Leret_u2.jpg", "sprite": "sp-anchoviella_juruasanga.png", "group": "other", "rarity": 1, "waterType": "Saltwater"}, {"lat": 10.378, "lng": 114.3642, "id": "218920", "name": "Bluespotted wrasse", "thumb": "tn_Ancae_f0.jpg", "sprite": "sp-cleaner_wrasse.png", "group": "wrasse", "rarity": 1, "waterType": "Saltwater"}, {"lat": 10.0, "lng": 114.0, "id": "430645", "name": "Acropora globiceps", "sprite": "sp-actiniidae.png", "group": "coral", "rarity": 1}, {"lat": 10.374, "lng": 114.374, "id": "219113", "name": "Bridled parrotfish", "thumb": "tn_Scfre_m0.jpg", "sprite": "sp-rainbow_parrotfish.png", "group": "parrotfish", "rarity": 1, "waterType": "Saltwater"}, {"lat": 10.3655, "lng": 114.367, "id": "282205", "name": "Small-toothed whiptail", "thumb": "tn_Pecan_u0.jpg", "sprite": "sp-anchoviella_juruasanga.png", "group": "other", "rarity": 1, "waterType": "Saltwater"}, {"lat": 9.3619, "lng": 113.285, "id": "736954", "name": "Heterolepa bradyi", "sprite": "sp-anchoviella_juruasanga.png", "group": "other", "rarity": 1}, {"lat": 9.3619, "lng": 113.285, "id": "723134", "name": "Cibicides pachyderma", "sprite": "sp-anchoviella_juruasanga.png", "group": "other", "rarity": 1}, {"lat": 10.374, "lng": 114.374, "id": "219928", "name": "Stellate puffer", "thumb": "tn_Arste_u4.jpg", "sprite": "sp-fahaka_pufferfish.png", "group": "pufferfish", "rarity": 1, "waterType": "Brackish"}, {"lat": 10.5417, "lng": 112.8917, "id": "221417", "name": "Bigtooth pomfret", "thumb": "tn_Brorc_u1.jpg", "sprite": "sp-anchoviella_juruasanga.png", "group": "other", "rarity": 1, "waterType": "Saltwater"}, {"lat": 10.3755, "lng": 114.3655, "id": "217947", "name": "Crown squirrelfish", "thumb": "tn_Sadia_u1.jpg", "sprite": "sp-anchoviella_juruasanga.png", "group": "other", "rarity": 1, "waterType": "Saltwater"}, {"lat": 10.3748, "lng": 114.3665, "id": "210881", "name": "Holothuria (Mertensiothuria) leucospilota", "sprite": "sp-sea_cucumber.png", "group": "starfish", "rarity": 1}, {"lat": 10.5417, "lng": 112.8917, "id": "127283", "name": "Bristlemouth", "thumb": "tn_Cyalb_u2.gif", "sprite": "sp-anchoviella_juruasanga.png", "group": "other", "rarity": 1, "waterType": "Saltwater"}, {"lat": 10.374, "lng": 114.374, "id": "275766", "name": "Hartzfeld's wrasse", "thumb": "tn_Hahar_m0.jpg", "sprite": "sp-cleaner_wrasse.png", "group": "wrasse", "rarity": 1, "waterType": "Saltwater"}, {"lat": 10.378, "lng": 114.365, "id": "1605310", "name": "Pycnochromis margaritifer", "sprite": "sp-chrysiptera_caesifrons.png", "group": "clownfish", "rarity": 1}, {"lat": 10.8687, "lng": 115.2835, "id": "113460", "name": "Orbulina universa", "sprite": "sp-anchoviella_juruasanga.png", "group": "other", "rarity": 1}, {"lat": 10.3772, "lng": 114.3643, "id": "218990", "name": "Zigzag wrasse", "thumb": "tn_Hasca_m3.jpg", "sprite": "sp-cleaner_wrasse.png", "group": "wrasse", "rarity": 1, "waterType": "Saltwater"}, {"lat": 10.4188, "lng": 114.3894, "id": "278400", "name": "Clown anemonefish", "thumb": "tn_Amoce_u0.jpg", "sprite": "sp-chrysiptera_caesifrons.png", "group": "clownfish", "rarity": 1, "waterType": "Saltwater"}, {"lat": 10.381, "lng": 114.367, "id": "218765", "name": "Pennant coralfish", "thumb": "tn_Heacu_u3.jpg", "sprite": "sp-chaetodon.png", "group": "butterflyfish", "rarity": 1, "waterType": "Brackish"}, {"lat": 10.0, "lng": 114.0, "id": "1445491", "name": "Truncatoflabellum compressum", "sprite": "sp-actiniidae.png", "group": "coral", "rarity": 1}, {"lat": 10.3764, "lng": 114.3607, "id": "275804", "name": "Threespot wrasse", "thumb": "tn_Hatri_m0.jpg", "sprite": "sp-cleaner_wrasse.png", "group": "wrasse", "rarity": 1, "waterType": "Saltwater"}, {"lat": 9.3619, "lng": 113.285, "id": "112281", "name": "Uvigerina", "sprite": "sp-anchoviella_juruasanga.png", "group": "other", "rarity": 1}, {"lat": 10.0, "lng": 114.0, "id": "206952", "name": "Pocillopora grandis", "sprite": "sp-actiniidae.png", "group": "coral", "rarity": 1}, {"lat": 10.3765, "lng": 114.374, "id": "218342", "name": "Crimsontip longfin", "thumb": "tn_Plcoe_u8.jpg", "sprite": "sp-anchoviella_juruasanga.png", "group": "other", "rarity": 1, "waterType": "Saltwater"}, {"lat": 10.3777, "lng": 114.3547, "id": "159582", "name": "Lined surgeonfish", "thumb": "tn_Aclin_ud.jpg", "sprite": "sp-acanthurus_albimento.png", "group": "surgeonfish", "rarity": 1, "waterType": "Saltwater"}, {"lat": 9.746, "lng": 113.79, "id": "466352", "name": "Bulimina truncana", "sprite": "sp-anchoviella_juruasanga.png", "group": "other", "rarity": 1}, {"lat": 10.0, "lng": 114.0, "id": "869430", "name": "Galaxea aequalis", "sprite": "sp-actiniidae.png", "group": "coral", "rarity": 1}, {"lat": 10.374, "lng": 114.374, "id": "218932", "name": "Tarry hogfish", "thumb": "tn_Bobil_u1.jpg", "sprite": "sp-cleaner_wrasse.png", "group": "wrasse", "rarity": 1, "waterType": "Saltwater"}, {"lat": 10.3777, "lng": 114.364, "id": "277145", "name": "Neon damselfish", "thumb": "tn_Pocae_u7.jpg", "sprite": "sp-chrysiptera_caesifrons.png", "group": "clownfish", "rarity": 1, "waterType": "Saltwater"}, {"lat": 10.8712, "lng": 115.2512, "id": "113454", "name": "Globoturborotalita rubescens", "sprite": "sp-anchoviella_juruasanga.png", "group": "other", "rarity": 1}, {"lat": 10.383, "lng": 114.378, "id": "219081", "name": "Palecheek parrotfish", "thumb": "tn_Chjap_m0.jpg", "sprite": "sp-rainbow_parrotfish.png", "group": "parrotfish", "rarity": 1, "waterType": "Saltwater"}, {"lat": 10.3655, "lng": 114.367, "id": "217915", "name": "Shoulderbar soldierfish", "thumb": "tn_Mykun_u1.jpg", "sprite": "sp-anchoviella_juruasanga.png", "group": "other", "rarity": 1, "waterType": "Saltwater"}, {"lat": 10.4, "lng": 114.5, "id": "207015", "name": "Acropora pulchra", "sprite": "sp-actiniidae.png", "group": "coral", "rarity": 1}, {"lat": 9.693, "lng": 112.637, "id": "149668", "name": "Mysida", "sprite": "sp-american_lobster.png", "group": "crab_lobster", "rarity": 1}, {"lat": 10.383, "lng": 114.367, "id": "209301", "name": "Graceful-tailed cardinalfish", "thumb": "tn_Psgra_u2.jpg", "sprite": "sp-anchoviella_juruasanga.png", "group": "other", "rarity": 1, "waterType": "Saltwater"}, {"lat": 9.7823, "lng": 113.8377, "id": "113652", "name": "Pleurostomella alternans", "sprite": "sp-anchoviella_juruasanga.png", "group": "other", "rarity": 1}, {"lat": 10.3533, "lng": 114.3463, "id": "206282", "name": "Fusigobius", "sprite": "sp-eviota_bipunctata.png", "group": "goby", "rarity": 1}, {"lat": 10.3745, "lng": 114.3637, "id": "218985", "name": "Checkerboard wrasse", "thumb": "tn_Hahor_u0.jpg", "sprite": "sp-cleaner_wrasse.png", "group": "wrasse", "rarity": 1, "waterType": "Saltwater"}, {"lat": 9.3619, "lng": 113.285, "id": "112110", "name": "Bulimina", "sprite": "sp-anchoviella_juruasanga.png", "group": "other", "rarity": 1}, {"lat": 10.3785, "lng": 114.376, "id": "281406", "name": "Whitecap goby", "thumb": "tn_Logra_u3.jpg", "sprite": "sp-eviota_bipunctata.png", "group": "goby", "rarity": 1, "waterType": "Saltwater"}, {"lat": 10.3785, "lng": 114.369, "id": "273357", "name": "Latticed butterflyfish", "thumb": "tn_Chraf_u0.jpg", "sprite": "sp-chaetodon.png", "group": "butterflyfish", "rarity": 1, "waterType": "Brackish"}, {"lat": 10.3779, "lng": 114.365, "id": "273352", "name": "Ornate butterflyfish", "thumb": "tn_Chorn_u5.jpg", "sprite": "sp-chaetodon.png", "group": "butterflyfish", "rarity": 1, "waterType": "Saltwater"}, {"lat": 10.0, "lng": 114.0, "id": "430655", "name": "Acropora speciosa", "sprite": "sp-actiniidae.png", "group": "coral", "rarity": 1}, {"lat": 10.3766, "lng": 114.3659, "id": "212817", "name": "Weber's chromis", "thumb": "tn_Chweb_u9.jpg", "sprite": "sp-chrysiptera_caesifrons.png", "group": "clownfish", "rarity": 1, "waterType": "Saltwater"}, {"lat": 10.371, "lng": 114.333, "id": "219004", "name": "Peacock wrasse", "thumb": "tn_Xypav_m0.jpg", "sprite": "sp-cleaner_wrasse.png", "group": "wrasse", "rarity": 1, "waterType": "Saltwater"}, {"lat": 10.4148, "lng": 114.7682, "id": "124002", "name": "Tremaster mirabilis", "sprite": "sp-sea_cucumber.png", "group": "starfish", "rarity": 1}, {"lat": 10.374, "lng": 114.361, "id": "218474", "name": "One-spot snapper", "thumb": "tn_Lumon_u5.jpg", "sprite": "sp-mutton_snapper.png", "group": "snapper", "rarity": 1, "waterType": "Brackish"}, {"lat": 10.376, "lng": 114.355, "id": "219250", "name": "Striped rockskipper", "thumb": "tn_Blcya_u4.jpg", "sprite": "sp-helcogramma_ascensionis.png", "group": "blenny", "rarity": 1, "waterType": "Saltwater"}, {"lat": 9.3619, "lng": 113.285, "id": "112120", "name": "Cassidulina", "sprite": "sp-anchoviella_juruasanga.png", "group": "other", "rarity": 1}, {"lat": 10.381, "lng": 114.361, "id": "320012", "name": "Barred angelfish", "thumb": "tn_Pamul_ua.jpg", "sprite": "sp-holacanthus.png", "group": "angelfish", "rarity": 1, "waterType": "Saltwater"}, {"lat": 10.371, "lng": 114.3638, "id": "209274", "name": "Gorgeous prawn-goby", "thumb": "tn_Amwhe_u9.jpg", "sprite": "sp-eviota_bipunctata.png", "group": "goby", "rarity": 1, "waterType": "Saltwater"}, {"lat": 10.3774, "lng": 114.3637, "id": "218730", "name": "Threadfin butterflyfish", "thumb": "tn_Chaur_uv.jpg", "sprite": "sp-chaetodon.png", "group": "butterflyfish", "rarity": 1, "waterType": "Saltwater"}, {"lat": 9.3619, "lng": 113.285, "id": "522713", "name": "Vulvulina spinosa", "sprite": "sp-anchoviella_juruasanga.png", "group": "other", "rarity": 1}, {"lat": 10.379, "lng": 114.378, "id": "218197", "name": "Camouflage grouper", "thumb": "tn_Eppol_u0.jpg", "sprite": "sp-chelidoperca_santosi.png", "group": "grouper", "rarity": 1, "waterType": "Saltwater"}, {"lat": 10.3765, "lng": 114.373, "id": "212453", "name": "Tripneustes gratilla", "sprite": "sp-sea_cucumber.png", "group": "starfish", "rarity": 1}, {"lat": 10.0, "lng": 114.0, "id": "207326", "name": "Cycloseris distorta", "sprite": "sp-actiniidae.png", "group": "coral", "rarity": 1}, {"lat": 10.375, "lng": 114.366, "id": "218708", "name": "Blue sea chub", "thumb": "tn_Kycin_u7.jpg", "sprite": "sp-anchoviella_juruasanga.png", "group": "other", "rarity": 1, "waterType": "Saltwater"}, {"lat": 10.3767, "lng": 114.3608, "id": "319874", "name": "Broadstriped cardinalfish", "thumb": "tn_Apang_u0.jpg", "sprite": "sp-anchoviella_juruasanga.png", "group": "other", "rarity": 1, "waterType": "Saltwater"}, {"lat": 10.3823, "lng": 114.3687, "id": "218931", "name": "Diana's hogfish", "thumb": "tn_Bodia_u7.jpg", "sprite": "sp-cleaner_wrasse.png", "group": "wrasse", "rarity": 1, "waterType": "Saltwater"}, {"lat": 10.5417, "lng": 112.8917, "id": "125436", "name": "Synaphobranchidae", "sprite": "sp-electric_eel.png", "group": "eel", "rarity": 1}, {"lat": 10.4415, "lng": 113.4335, "id": "127027", "name": "Yellowfin tuna", "thumb": "tn_Thalb_u0.jpg", "sprite": "sp-bluefin_tuna.png", "group": "tuna_mackerel", "rarity": 1, "waterType": "Brackish"}, {"lat": 10.3798, "lng": 114.3742, "id": "278353", "name": "Tangaroa shrimpgoby", "thumb": "tn_Cttan_u3.jpg", "sprite": "sp-eviota_bipunctata.png", "group": "goby", "rarity": 1, "waterType": "Saltwater"}, {"lat": 10.4446, "lng": 114.7085, "id": "991800", "name": "Triloculina tricarinata", "sprite": "sp-anchoviella_juruasanga.png", "group": "other", "rarity": 1}, {"lat": 10.3784, "lng": 114.3636, "id": "218744", "name": "Speckled butterflyfish", "thumb": "tn_Chcit_u6.jpg", "sprite": "sp-chaetodon.png", "group": "butterflyfish", "rarity": 1, "waterType": "Saltwater"}, {"lat": 9.3619, "lng": 113.285, "id": "113554", "name": "Chilostomella ovoidea", "sprite": "sp-anchoviella_juruasanga.png", "group": "other", "rarity": 1}, {"lat": 10.382, "lng": 114.3695, "id": "218738", "name": "Sunburst butterflyfish", "thumb": "tn_Chkle_u6.jpg", "sprite": "sp-chaetodon.png", "group": "butterflyfish", "rarity": 1, "waterType": "Saltwater"}, {"lat": 9.3619, "lng": 113.285, "id": "112394", "name": "Textularia", "sprite": "sp-anchoviella_juruasanga.png", "group": "other", "rarity": 1}, {"lat": 10.0, "lng": 114.0, "id": "718748", "name": "Dipsastraea favus", "sprite": "sp-actiniidae.png", "group": "coral", "rarity": 1}, {"lat": 10.378, "lng": 114.358, "id": "212063", "name": "Thumbprint emperor", "thumb": "tn_Lehar_u6.jpg", "sprite": "sp-anchoviella_juruasanga.png", "group": "other", "rarity": 1, "waterType": "Brackish"}, {"lat": 10.371, "lng": 114.333, "id": "278179", "name": "Brown dottyback", "thumb": "tn_Psxan_u0.jpg", "sprite": "sp-anchoviella_juruasanga.png", "group": "other", "rarity": 1, "waterType": "Saltwater"}, {"lat": 10.3735, "lng": 114.352, "id": "211864", "name": "Goldenstriped soapfish", "thumb": "tn_Grsex_u0.jpg", "sprite": "sp-chelidoperca_santosi.png", "group": "grouper", "rarity": 1, "waterType": "Saltwater"}, {"lat": 10.383, "lng": 114.378, "id": "219947", "name": "Valentin's sharpnose puffer", "thumb": "tn_Caval_u2.jpg", "sprite": "sp-fahaka_pufferfish.png", "group": "pufferfish", "rarity": 1, "waterType": "Saltwater"}, {"lat": 10.0, "lng": 114.0, "id": "207227", "name": "Porites solida", "sprite": "sp-actiniidae.png", "group": "coral", "rarity": 1}, {"lat": 10.3752, "lng": 114.369, "id": "278394", "name": "Tomato clownfish", "thumb": "tn_Amfre_ud.jpg", "sprite": "sp-chrysiptera_caesifrons.png", "group": "clownfish", "rarity": 1, "waterType": "Saltwater"}, {"lat": 10.3762, "lng": 114.3615, "id": "217670", "name": "Variegated lizardfish", "thumb": "tn_Syvar_uq.jpg", "sprite": "sp-anchoviella_juruasanga.png", "group": "other", "rarity": 1, "waterType": "Saltwater"}, {"lat": 10.3743, "lng": 114.355, "id": "277652", "name": "Bicolor blenny", "thumb": "tn_Ecbic_u0.jpg", "sprite": "sp-helcogramma_ascensionis.png", "group": "blenny", "rarity": 1, "waterType": "Saltwater"}, {"lat": 10.3783, "lng": 114.3667, "id": "213384", "name": "Echinostrephus molaris", "sprite": "sp-sea_cucumber.png", "group": "starfish", "rarity": 1}, {"lat": 9.3619, "lng": 113.285, "id": "111935", "name": "Nodosariidae", "sprite": "sp-anchoviella_juruasanga.png", "group": "other", "rarity": 1}, {"lat": 10.37, "lng": 114.36, "id": "288453", "name": "Palythoa australiae", "sprite": "sp-actiniidae.png", "group": "coral", "rarity": 1}, {"lat": 10.3717, "lng": 114.358, "id": "218941", "name": "Floral wrasse", "thumb": "tn_Chchl_u0.jpg", "sprite": "sp-cleaner_wrasse.png", "group": "wrasse", "rarity": 1, "waterType": "Saltwater"}]}