{"zoom": 7, "x": 107, "y": 75, "points": [{"lat": -30.8167, "lng": 121.35, "id": "377980", "name": "Acanthina", "sprite": "sp-cowrie_shell.png", "group": "sea_snail", "rarity": 1}, {"lat": -30.9461, "lng": 121.6231, "id": "343955", "name": "Phalacrocorax sulcirostris", "sprite": "sp-anchoviella_juruasanga.png", "group": "other", "rarity": 1}, {"lat": -30.4167, "lng": 122.1667, "id": "567416", "name": "Erythrogonys cinctus", "sprite": "sp-anchoviella_juruasanga.png", "group": "other", "rarity": 1}, {"lat": -31.2145, "lng": 121.633, "id": "137179", "name": "Phalacrocorax carbo", "sprite": "sp-anchoviella_juruasanga.png", "group": "other", "rarity": 1}, {"lat": -30.9244, "lng": 121.6885, "id": "212603", "name": "Actitis hypoleucos", "sprite": "sp-anchoviella_juruasanga.png", "group": "other", "rarity": 1}, {"lat": -29.7166, "lng": 121.5167, "id": "131868", "name": "Clathria", "sprite": "sp-barrel_sponge.png", "group": "sponge", "rarity": 1}, {"lat": -30.8059, "lng": 121.4014, "id": "366619", "name": "Poliocephalus poliocephalus", "sprite": "sp-anchoviella_juruasanga.png", "group": "other", "rarity": 1}, {"lat": -30.016, "lng": 122.333, "id": "882", "name": "Annelida", "sprite": "sp-anchoviella_juruasanga.png", "group": "other", "rarity": 1}, {"lat": -30.75, "lng": 121.466, "id": "342638", "name": "Elapidae", "sprite": "sp-banded_sea_krait.png", "group": "sea_snake", "rarity": 1}, {"lat": -31.0085, "lng": 121.5645, "id": "137135", "name": "Chlidonias hybrida", "sprite": "sp-anchoviella_juruasanga.png", "group": "other", "rarity": 1}, {"lat": -30.8036, "lng": 121.4965, "id": "343915", "name": "Larus novaehollandiae", "sprite": "sp-anchoviella_juruasanga.png", "group": "other", "rarity": 1}, {"lat": -29.9686, "lng": 121.2011, "id": "366777", "name": "Recurvirostra novaehollandiae", "sprite": "sp-anchoviella_juruasanga.png", "group": "other", "rarity": 1}, {"lat": -30.95, "lng": 121.15, "id": "281283", "name": "Spangled perch", "thumb": "tn_Leuni_u0.jpg", "sprite": "sp-anchoviella_juruasanga.png", "group": "other", "rarity": 1, "waterType": "Brackish"}, {"lat": -30.75, "lng": 121.41, "id": "343934", "name": "Pelecanus conspicillatus", "sprite": "sp-anchoviella_juruasanga.png", "group": "other", "rarity": 1}, {"lat": -30.8314, "lng": 121.525, "id": "225983", "name": "Phalacrocorax melanoleucos", "sprite": "sp-anchoviella_juruasanga.png", "group": "other", "rarity": 1}, {"lat": -29.8242, "lng": 121.3573, "id": "366775", "name": "Cladorhynchus leucocephalus", "sprite": "sp-anchoviella_juruasanga.png", "group": "other", "rarity": 1}]}