{"zoom": 7, "x": 108, "y": 77, "points": [{"lat": -34.6183, "lng": 124.537, "id": "131757", "name": "Hippospongia", "sprite": "sp-barrel_sponge.png", "group": "sponge", "rarity": 1}, {"lat": -35.3951, "lng": 126.2271, "id": "417136", "name": "Codonella galea", "sprite": "sp-anchoviella_juruasanga.png", "group": "other", "rarity": 1}, {"lat": -35.392, "lng": 125.4117, "id": "104597", "name": "Lucicutia flavicornis", "sprite": "sp-anchoviella_juruasanga.png", "group": "other", "rarity": 1}, {"lat": -34.8489, "lng": 125.1681, "id": "280011", "name": "Butterfly perch", "thumb": "tn_Calep_u2.jpg", "sprite": "sp-chelidoperca_santosi.png", "group": "grouper", "rarity": 1, "waterType": "Saltwater"}, {"lat": -35.3935, "lng": 125.6155, "id": "104503", "name": "Clausocalanus furcatus", "sprite": "sp-anchoviella_juruasanga.png", "group": "other", "rarity": 1}, {"lat": -34.4435, "lng": 123.9511, "id": "279784", "name": "Asymbolus rubiginosus", "thumb": "tn_Asrub_m0.jpg", "sprite": "sp-great_white_shark.png", "group": "shark", "rarity": 1, "waterType": "Saltwater"}, {"lat": -35.6757, "lng": 125.023, "id": "837448", "name": "Tripos carriensis", "sprite": "sp-anchoviella_juruasanga.png", "group": "other", "rarity": 1}, {"lat": -35.3835, "lng": 124.5964, "id": "841186", "name": "Tripos biceps", "sprite": "sp-anchoviella_juruasanga.png", "group": "other", "rarity": 1}, {"lat": -34.383, "lng": 124.216, "id": "126603", "name": "Bermuda lantern fish", "thumb": "tn_Hyhyg_u1.jpg", "sprite": "sp-anchoviella_juruasanga.png", "group": "other", "rarity": 1, "waterType": "Saltwater"}, {"lat": -34.7801, "lng": 124.1793, "id": "975692", "name": "Leptocylindrus danicus var. danicus", "sprite": "sp-anchoviella_juruasanga.png", "group": "other", "rarity": 1}, {"lat": -35.0517, "lng": 125.7767, "id": "218122", "name": "Bluefin gurnard", "thumb": "tn_Chkum_u2.jpg", "sprite": "sp-anchoviella_juruasanga.png", "group": "other", "rarity": 1, "waterType": "Brackish"}, {"lat": -34.7294, "lng": 124.6042, "id": "279562", "name": "Deep-water burrfish", "thumb": "tn_Alpil_u1.jpg", "sprite": "sp-fahaka_pufferfish.png", "group": "pufferfish", "rarity": 1, "waterType": "Saltwater"}, {"lat": -35.7706, "lng": 124.2673, "id": "109612", "name": "Dinophysis caudata", "sprite": "sp-anchoviella_juruasanga.png", "group": "other", "rarity": 1}, {"lat": -35.7014, "lng": 124.9047, "id": "1436445", "name": "Pleuromamma gracilis gracilis", "sprite": "sp-anchoviella_juruasanga.png", "group": "other", "rarity": 1}, {"lat": -34.4435, "lng": 123.9511, "id": "282469", "name": "Southern bastard codling", "thumb": "tn_Psbar_u3.jpg", "sprite": "sp-anchoviella_juruasanga.png", "group": "other", "rarity": 1, "waterType": "Brackish"}, {"lat": -34.383, "lng": 124.216, "id": "158916", "name": "Patchwork lampfish", "thumb": "tn_Nores_u0.jpg", "sprite": "sp-anchoviella_juruasanga.png", "group": "other", "rarity": 1, "waterType": "Saltwater"}, {"lat": -34.4297, "lng": 125.1083, "id": "281653", "name": "Tarakihi", "thumb": "tn_Nemac_u0.jpg", "sprite": "sp-anchoviella_juruasanga.png", "group": "other", "rarity": 1, "waterType": "Saltwater"}, {"lat": -34.8489, "lng": 125.1681, "id": "280685", "name": "Old wife", "thumb": "tn_Enarm_u0.jpg", "sprite": "sp-anchoviella_juruasanga.png", "group": "other", "rarity": 1, "waterType": "Brackish"}, {"lat": -34.7931, "lng": 123.9487, "id": "375970", "name": "Octactis octonaria", "sprite": "sp-anchoviella_juruasanga.png", "group": "other", "rarity": 1}, {"lat": -34.4343, "lng": 124.7226, "id": "277050", "name": "Latchet", "thumb": "tn_Ptpol_u0.jpg", "sprite": "sp-anchoviella_juruasanga.png", "group": "other", "rarity": 1, "waterType": "Saltwater"}, {"lat": -35.3935, "lng": 125.6155, "id": "341673", "name": "Rhabdonella amor", "sprite": "sp-anchoviella_juruasanga.png", "group": "other", "rarity": 1}, {"lat": -34.4, "lng": 123.984, "id": "151449", "name": "Scombropidae", "sprite": "sp-anchoviella_juruasanga.png", "group": "other", "rarity": 1}, {"lat": -36.533, "lng": 124.8622, "id": "841261", "name": "Tripos massiliensis", "sprite": "sp-anchoviella_juruasanga.png", "group": "other", "rarity": 1}, {"lat": -35.9882, "lng": 124.6195, "id": "128938", "name": "Oncaea media", "sprite": "sp-anchoviella_juruasanga.png", "group": "other", "rarity": 1}, {"lat": -35.906, "lng": 124.5965, "id": "104683", "name": "Paracalanus indicus", "sprite": "sp-anchoviella_juruasanga.png", "group": "other", "rarity": 1}, {"lat": -35.0, "lng": 125.0, "id": "148742", "name": "Diomedeidae", "sprite": "sp-anchoviella_juruasanga.png", "group": "other", "rarity": 1}, {"lat": -34.6812, "lng": 125.1442, "id": "277895", "name": "Knifejaw", "thumb": "tn_Opwoo_u0.gif", "sprite": "sp-anchoviella_juruasanga.png", "group": "other", "rarity": 1, "waterType": "Saltwater"}, {"lat": -34.8489, "lng": 125.1681, "id": "282111", "name": "Varied carpetshark", "thumb": "tn_Pavar_u0.gif", "sprite": "sp-great_white_shark.png", "group": "shark", "rarity": 1, "waterType": "Saltwater"}, {"lat": -36.4939, "lng": 124.4514, "id": "128814", "name": "Farranula rostrata", "sprite": "sp-anchoviella_juruasanga.png", "group": "other", "rarity": 1}, {"lat": -36.4186, "lng": 123.8307, "id": "344701", "name": "Neocalanus tonsus", "sprite": "sp-anchoviella_juruasanga.png", "group": "other", "rarity": 1}, {"lat": -36.1778, "lng": 126.0, "id": "137202", "name": "Puffinus griseus", "sprite": "sp-anchoviella_juruasanga.png", "group": "other", "rarity": 1}, {"lat": -35.0517, "lng": 125.7767, "id": "278738", "name": "Striped trawl wrasse", "sprite": "sp-cleaner_wrasse.png", "group": "wrasse", "rarity": 1, "waterType": "Saltwater"}, {"lat": -34.4367, "lng": 123.808, "id": "469901", "name": "Calyptotheca triangula", "sprite": "sp-anchoviella_juruasanga.png", "group": "other", "rarity": 1}, {"lat": -36.5142, "lng": 124.6566, "id": "104506", "name": "Clausocalanus mastigophorus", "sprite": "sp-anchoviella_juruasanga.png", "group": "other", "rarity": 1}, {"lat": -36.5533, "lng": 125.0674, "id": "129058", "name": "Sapphirina scarlata", "sprite": "sp-anchoviella_juruasanga.png", "group": "other", "rarity": 1}, {"lat": -35.3874, "lng": 125.2079, "id": "235763", "name": "Rhabdonella spiralis", "sprite": "sp-anchoviella_juruasanga.png", "group": "other", "rarity": 1}, {"lat": -35.3858, "lng": 124.9633, "id": "841260", "name": "Tripos macroceros", "sprite": "sp-anchoviella_juruasanga.png", "group": "other", "rarity": 1}, {"lat": -35.1264, "lng": 125.0577, "id": "106274", "name": "Evadne spinifera", "sprite": "sp-anchoviella_juruasanga.png", "group": "other", "rarity": 1}, {"lat": -35.4894, "lng": 125.0736, "id": "840626", "name": "Tripos fusus", "sprite": "sp-anchoviella_juruasanga.png", "group": "other", "rarity": 1}, {"lat": -36.4664, "lng": 124.2437, "id": "345778", "name": "Clausocalanus ingens", "sprite": "sp-anchoviella_juruasanga.png", "group": "other", "rarity": 1}, {"lat": -36.5, "lng": 125.5, "id": "212631", "name": "Phoebetria palpebrata", "sprite": "sp-anchoviella_juruasanga.png", "group": "other", "rarity": 1}, {"lat": -34.4435, "lng": 123.9511, "id": "279676", "name": "Striped cowfish", "thumb": "tn_Araur_f0.jpg", "sprite": "sp-anchoviella_juruasanga.png", "group": "other", "rarity": 1, "waterType": "Saltwater"}, {"lat": -34.383, "lng": 124.2, "id": "218507", "name": "Sharptooth jobfish", "thumb": "tn_Prtyp_u2.jpg", "sprite": "sp-mutton_snapper.png", "group": "snapper", "rarity": 1, "waterType": "Saltwater"}, {"lat": -34.55, "lng": 123.75, "id": "342375", "name": "Nototodarus gouldi", "sprite": "sp-giant_pacific_octopus.png", "group": "octopus_squid", "rarity": 1}, {"lat": -34.4297, "lng": 125.1083, "id": "105925", "name": "Shortnose spurdog", "thumb": "tn_Sqmeg_u1.jpg", "sprite": "sp-great_white_shark.png", "group": "shark", "rarity": 1, "waterType": "Saltwater"}, {"lat": -34.4435, "lng": 123.9511, "id": "127417", "name": "Blunthead puffer", "thumb": "tn_Sppac_m0.jpg", "sprite": "sp-fahaka_pufferfish.png", "group": "pufferfish", "rarity": 1, "waterType": "Saltwater"}, {"lat": -35.2153, "lng": 125.1422, "id": "346026", "name": "Acartia (Acartia) danae", "sprite": "sp-anchoviella_juruasanga.png", "group": "other", "rarity": 1}, {"lat": -34.8804, "lng": 124.9606, "id": "104638", "name": "Pleuromamma borealis", "sprite": "sp-anchoviella_juruasanga.png", "group": "other", "rarity": 1}, {"lat": -34.55, "lng": 123.75, "id": "105699", "name": "Hexanchidae", "sprite": "sp-great_white_shark.png", "group": "shark", "rarity": 1}, {"lat": -34.55, "lng": 123.75, "id": "279326", "name": "Bigscale rubyfish", "thumb": "tn_Plmac_u3.jpg", "sprite": "sp-anchoviella_juruasanga.png", "group": "other", "rarity": 1, "waterType": "Saltwater"}, {"lat": -34.55, "lng": 123.7611, "id": "275994", "name": "Deepwater stargazer", "thumb": "tn_Kanig_u1.gif", "sprite": "sp-anchoviella_juruasanga.png", "group": "other", "rarity": 1, "waterType": "Saltwater"}, {"lat": -35.0517, "lng": 125.7767, "id": "280731", "name": "Bluetail leatherjacket", "sprite": "sp-anchoviella_juruasanga.png", "group": "other", "rarity": 1, "waterType": "Saltwater"}, {"lat": -34.4435, "lng": 123.9511, "id": "282354", "name": "Southern sawshark", "thumb": "tn_Prnud_u0.gif", "sprite": "sp-great_white_shark.png", "group": "shark", "rarity": 1, "waterType": "Saltwater"}, {"lat": -34.4435, "lng": 123.9511, "id": "270257", "name": "Parascyllium", "sprite": "sp-great_white_shark.png", "group": "shark", "rarity": 1}, {"lat": -34.55, "lng": 123.77, "id": "138423", "name": "Pyroteuthis", "sprite": "sp-giant_pacific_octopus.png", "group": "octopus_squid", "rarity": 1}, {"lat": -34.55, "lng": 123.75, "id": "276890", "name": "Silver gemfish", "thumb": "tn_Resol_u0.jpg", "sprite": "sp-anchoviella_juruasanga.png", "group": "other", "rarity": 1, "waterType": "Saltwater"}, {"lat": -35.0, "lng": 125.0, "id": "159069", "name": "Thalassarche chlororhynchos", "sprite": "sp-anchoviella_juruasanga.png", "group": "other", "rarity": 1}, {"lat": -34.3831, "lng": 124.2082, "id": "279259", "name": "Smallspine turretfish", "thumb": "tn_Terei_u0.jpg", "sprite": "sp-anchoviella_juruasanga.png", "group": "other", "rarity": 1, "waterType": "Saltwater"}, {"lat": -35.33, "lng": 125.9485, "id": "104880", "name": "Temora turbinata", "sprite": "sp-anchoviella_juruasanga.png", "group": "other", "rarity": 1}, {"lat": -34.5, "lng": 124.5033, "id": "125498", "name": "Myctophidae", "sprite": "sp-anchoviella_juruasanga.png", "group": "other", "rarity": 1}, {"lat": -34.7294, "lng": 124.6042, "id": "283207", "name": "Longfin boarfish", "thumb": "tn_Zaele_u0.gif", "sprite": "sp-anchoviella_juruasanga.png", "group": "other", "rarity": 1, "waterType": "Saltwater"}, {"lat": -36.4186, "lng": 123.8307, "id": "573437", "name": "Coscinodiscus sol", "sprite": "sp-anchoviella_juruasanga.png", "group": "other", "rarity": 1}, {"lat": -34.383, "lng": 124.216, "id": "272079", "name": "Ahlstrom's waryfish", "thumb": "tn_Scahl_u0.jpg", "sprite": "sp-anchoviella_juruasanga.png", "group": "other", "rarity": 1, "waterType": "Saltwater"}, {"lat": -34.5, "lng": 124.5, "id": "157031", "name": "Pyroteuthis margaritifera", "sprite": "sp-giant_pacific_octopus.png", "group": "octopus_squid", "rarity": 1}, {"lat": -35.6757, "lng": 124.969, "id": "841193", "name": "Tripos candelabrum", "sprite": "sp-anchoviella_juruasanga.png", "group": "other", "rarity": 1}, {"lat": -34.383, "lng": 124.216, "id": "217704", "name": "Hector's lanternfish", "thumb": "tn_Lahec_u0.gif", "sprite": "sp-anchoviella_juruasanga.png", "group": "other", "rarity": 1, "waterType": "Saltwater"}, {"lat": -36.4186, "lng": 123.8307, "id": "841767", "name": "Tripos symmetricus", "sprite": "sp-anchoviella_juruasanga.png", "group": "other", "rarity": 1}, {"lat": -34.8313, "lng": 125.0461, "id": "221047", "name": "Euphausia recurva", "sprite": "sp-antarctic_krill.png", "group": "shrimp", "rarity": 1}, {"lat": -35.3737, "lng": 123.985, "id": "196804", "name": "Climacodium frauenfeldianum", "sprite": "sp-anchoviella_juruasanga.png", "group": "other", "rarity": 1}, {"lat": -34.4435, "lng": 123.9511, "id": "219715", "name": "Blue mackerel", "thumb": "tn_Scaus_u2.jpg", "sprite": "sp-bluefin_tuna.png", "group": "tuna_mackerel", "rarity": 1, "waterType": "Saltwater"}, {"lat": -36.4186, "lng": 123.8307, "id": "841182", "name": "Tripos arietinus", "sprite": "sp-anchoviella_juruasanga.png", "group": "other", "rarity": 1}, {"lat": -35.0517, "lng": 125.7767, "id": "273548", "name": "Western king wrasse", "thumb": "tn_Coaur_u0.jpg", "sprite": "sp-cleaner_wrasse.png", "group": "wrasse", "rarity": 1, "waterType": "Saltwater"}, {"lat": -34.7141, "lng": 125.4928, "id": "276894", "name": "Bight redfish", "thumb": "tn_Ceger_u0.jpg", "sprite": "sp-anchoviella_juruasanga.png", "group": "other", "rarity": 1, "waterType": "Saltwater"}, {"lat": -36.5533, "lng": 125.0674, "id": "232466", "name": "Phalacroma doryphorum", "sprite": "sp-anchoviella_juruasanga.png", "group": "other", "rarity": 1}, {"lat": -35.48, "lng": 125.32, "id": "212635", "name": "Puffinus carneipes", "sprite": "sp-anchoviella_juruasanga.png", "group": "other", "rarity": 1}, {"lat": -36.3833, "lng": 126.3833, "id": "105820", "name": "Tope shark", "thumb": "tn_Gagal_u0.jpg", "sprite": "sp-great_white_shark.png", "group": "shark", "rarity": 1, "waterType": "Saltwater"}, {"lat": -35.6443, "lng": 124.9367, "id": "840627", "name": "Tripos furca", "sprite": "sp-anchoviella_juruasanga.png", "group": "other", "rarity": 1}, {"lat": -35.0517, "lng": 125.7767, "id": "220020", "name": "Blacktip tope", "thumb": "tn_Hyhyu_u0.jpg", "sprite": "sp-great_white_shark.png", "group": "shark", "rarity": 1, "waterType": "Saltwater"}, {"lat": -34.7931, "lng": 123.9487, "id": "149288", "name": "Chaetoceros atlanticus", "sprite": "sp-anchoviella_juruasanga.png", "group": "other", "rarity": 1}, {"lat": -34.8489, "lng": 125.1681, "id": "277923", "name": "White-barred boxfish", "thumb": "tn_Anlen_u0.jpg", "sprite": "sp-anchoviella_juruasanga.png", "group": "other", "rarity": 1, "waterType": "Saltwater"}, {"lat": -34.4435, "lng": 123.9511, "id": "318742", "name": "Sergeant baker", "thumb": "tn_Aupur_u0.jpg", "sprite": "sp-anchoviella_juruasanga.png", "group": "other", "rarity": 1, "waterType": "Saltwater"}, {"lat": -34.55, "lng": 123.7663, "id": "279785", "name": "Variegated catshark", "sprite": "sp-great_white_shark.png", "group": "shark", "rarity": 1, "waterType": "Saltwater"}, {"lat": -35.0517, "lng": 125.7767, "id": "212524", "name": "Splendid sea perch", "thumb": "tn_Caall_u0.jpg", "sprite": "sp-anchoviella_juruasanga.png", "group": "other", "rarity": 1, "waterType": "Saltwater"}, {"lat": -34.5, "lng": 124.5, "id": "125604", "name": "Stomiidae", "sprite": "sp-anchoviella_juruasanga.png", "group": "other", "rarity": 1}, {"lat": -34.8551, "lng": 124.8346, "id": "104475", "name": "Candacia bipinnata", "sprite": "sp-anchoviella_juruasanga.png", "group": "other", "rarity": 1}, {"lat": -35.3129, "lng": 124.3193, "id": "106652", "name": "Oithona plumifera", "sprite": "sp-anchoviella_juruasanga.png", "group": "other", "rarity": 1}, {"lat": -34.383, "lng": 124.216, "id": "126619", "name": "Pygmy lanternfish", "thumb": "tn_Lapus_u0.jpg", "sprite": "sp-anchoviella_juruasanga.png", "group": "other", "rarity": 1, "waterType": "Saltwater"}, {"lat": -36.5, "lng": 125.8333, "id": "212642", "name": "Pterodroma lessonii", "sprite": "sp-anchoviella_juruasanga.png", "group": "other", "rarity": 1}, {"lat": -34.8008, "lng": 124.7675, "id": "281877", "name": "Ringed toadfish", "thumb": "tn_Omarm_u0.jpg", "sprite": "sp-fahaka_pufferfish.png", "group": "pufferfish", "rarity": 1, "waterType": "Saltwater"}, {"lat": -35.1627, "lng": 124.4579, "id": "104640", "name": "Pleuromamma piseki", "sprite": "sp-anchoviella_juruasanga.png", "group": "other", "rarity": 1}, {"lat": -35.9753, "lng": 124.9165, "id": "1461626", "name": "Clausocalanus arcuicornis arcuicornis", "sprite": "sp-anchoviella_juruasanga.png", "group": "other", "rarity": 1}, {"lat": -34.55, "lng": 123.7584, "id": "1469679", "name": "Threespine cardinalfish", "thumb": "tn_Apano_u0.gif", "sprite": "sp-anchoviella_juruasanga.png", "group": "other", "rarity": 1, "waterType": "Brackish"}, {"lat": -34.4435, "lng": 123.9511, "id": "271491", "name": "Eagle ray", "thumb": "tn_Myten_u0.jpg", "sprite": "sp-himantura_australis.png", "group": "ray", "rarity": 1, "waterType": "Brackish"}, {"lat": -34.55, "lng": 123.75, "id": "342239", "name": "Sepioteuthis australis", "sprite": "sp-giant_pacific_octopus.png", "group": "octopus_squid", "rarity": 1}, {"lat": -34.55, "lng": 123.77, "id": "342104", "name": "Pterygioteuthis gemmata", "sprite": "sp-giant_pacific_octopus.png", "group": "octopus_squid", "rarity": 1}, {"lat": -35.1417, "lng": 125.0646, "id": "157463", "name": "Dictyocha fibula", "sprite": "sp-anchoviella_juruasanga.png", "group": "other", "rarity": 1}, {"lat": -35.7739, "lng": 125.187, "id": "343995", "name": "Thalassarche melanophris", "sprite": "sp-anchoviella_juruasanga.png", "group": "other", "rarity": 1}, {"lat": -34.383, "lng": 124.216, "id": "126197", "name": "Maurolicus", "sprite": "sp-anchoviella_juruasanga.png", "group": "other", "rarity": 1}, {"lat": -35.3863, "lng": 124.8002, "id": "837459", "name": "Tripos lineatus", "sprite": "sp-anchoviella_juruasanga.png", "group": "other", "rarity": 1}, {"lat": -34.383, "lng": 124.2, "id": "273325", "name": "West Australian butterflyfish", "thumb": "tn_Chass_u0.jpg", "sprite": "sp-chaetodon.png", "group": "butterflyfish", "rarity": 1, "waterType": "Saltwater"}, {"lat": -35.2723, "lng": 125.3413, "id": "212583", "name": "Diomedea exulans", "sprite": "sp-anchoviella_juruasanga.png", "group": "other", "rarity": 1}, {"lat": -34.55, "lng": 123.7667, "id": "282150", "name": "Giant boarfish", "thumb": "tn_Palab_u1.gif", "sprite": "sp-anchoviella_juruasanga.png", "group": "other", "rarity": 1, "waterType": "Saltwater"}, {"lat": -35.682, "lng": 126.1072, "id": "212632", "name": "Phoebetria fusca", "sprite": "sp-anchoviella_juruasanga.png", "group": "other", "rarity": 1}, {"lat": -36.4732, "lng": 124.2464, "id": "104509", "name": "Clausocalanus pergens", "sprite": "sp-anchoviella_juruasanga.png", "group": "other", "rarity": 1}, {"lat": -36.4318, "lng": 123.8363, "id": "104508", "name": "Clausocalanus paululus", "sprite": "sp-anchoviella_juruasanga.png", "group": "other", "rarity": 1}, {"lat": -34.55, "lng": 123.75, "id": "282149", "name": "Yellowspotted boarfish", "thumb": "tn_Pagal_u0.jpg", "sprite": "sp-anchoviella_juruasanga.png", "group": "other", "rarity": 1, "waterType": "Saltwater"}, {"lat": -34.4435, "lng": 123.9511, "id": "219697", "name": "Snoek", "thumb": "tn_Thatu_u1.jpg", "sprite": "sp-anchoviella_juruasanga.png", "group": "other", "rarity": 1, "waterType": "Brackish"}, {"lat": -34.4435, "lng": 123.9511, "id": "283064", "name": "Eastern fiddler ray", "thumb": "tn_Trfas_u3.jpg", "sprite": "sp-himantura_australis.png", "group": "ray", "rarity": 1, "waterType": "Saltwater"}, {"lat": -35.15, "lng": 125.3611, "id": "212644", "name": "Pterodroma macroptera", "sprite": "sp-anchoviella_juruasanga.png", "group": "other", "rarity": 1}, {"lat": -36.233, "lng": 124.416, "id": "205376", "name": "Pleuroscopus", "sprite": "sp-anchoviella_juruasanga.png", "group": "other", "rarity": 1}, {"lat": -35.4461, "lng": 123.9262, "id": "220834", "name": "Canthocalanus pauper", "sprite": "sp-anchoviella_juruasanga.png", "group": "other", "rarity": 1}, {"lat": -34.3133, "lng": 124.387, "id": "131868", "name": "Clathria", "sprite": "sp-barrel_sponge.png", "group": "sponge", "rarity": 1}, {"lat": -35.8443, "lng": 124.8748, "id": "842517", "name": "Tripos trichoceros", "sprite": "sp-anchoviella_juruasanga.png", "group": "other", "rarity": 1}, {"lat": -34.5, "lng": 124.5, "id": "11774", "name": "Cranchiidae", "sprite": "sp-giant_pacific_octopus.png", "group": "octopus_squid", "rarity": 1}, {"lat": -34.5, "lng": 124.0, "id": "137854", "name": "Teuthowenia", "sprite": "sp-giant_pacific_octopus.png", "group": "octopus_squid", "rarity": 1}, {"lat": -34.4435, "lng": 123.9511, "id": "271380", "name": "Gummy shark", "thumb": "tn_Muant_u0.jpg", "sprite": "sp-great_white_shark.png", "group": "shark", "rarity": 1, "waterType": "Saltwater"}, {"lat": -34.383, "lng": 124.216, "id": "217720", "name": "Barnards lanternfishes", "thumb": "tn_Sybar_u0.jpg", "sprite": "sp-anchoviella_juruasanga.png", "group": "other", "rarity": 1, "waterType": "Saltwater"}, {"lat": -36.5, "lng": 125.8333, "id": "344000", "name": "Diomedea epomophora", "sprite": "sp-anchoviella_juruasanga.png", "group": "other", "rarity": 1}, {"lat": -34.4435, "lng": 123.9511, "id": "281655", "name": "Sea carp", "thumb": "tn_Neval_u0.gif", "sprite": "sp-anchoviella_juruasanga.png", "group": "other", "rarity": 1, "waterType": "Saltwater"}, {"lat": -34.4435, "lng": 123.9511, "id": "283083", "name": "Bluespotted goatfish", "thumb": "tn_Upvla_u0.jpg", "sprite": "sp-anchoviella_juruasanga.png", "group": "other", "rarity": 1, "waterType": "Saltwater"}]}