{"zoom": 7, "x": 108, "y": 57, "points": [{"lat": 19.0333, "lng": 125.7583, "id": "127293", "name": "Atlantic fangjaw", "thumb": "tn_Goatl_u0.gif", "sprite": "sp-anchoviella_juruasanga.png", "group": "other", "rarity": 1, "waterType": "Saltwater"}, {"lat": 17.9335, "lng": 125.1729, "id": "106794", "name": "Palinuridae", "sprite": "sp-american_lobster.png", "group": "crab_lobster", "rarity": 1}, {"lat": 17.6687, "lng": 126.1158, "id": "127303", "name": "Oceanic lightfish", "thumb": "tn_Vinim_u1.gif", "sprite": "sp-anchoviella_juruasanga.png", "group": "other", "rarity": 1, "waterType": "Saltwater"}, {"lat": 19.0825, "lng": 125.865, "id": "127316", "name": "Constellationfish", "thumb": "tn_Vatri_u0.jpg", "sprite": "sp-anchoviella_juruasanga.png", "group": "other", "rarity": 1, "waterType": "Saltwater"}, {"lat": 19.1317, "lng": 125.9717, "id": "126593", "name": "Spotlight lanternfish", "thumb": "tn_Diluc_u0.gif", "sprite": "sp-anchoviella_juruasanga.png", "group": "other", "rarity": 1, "waterType": "Saltwater"}, {"lat": 17.9335, "lng": 125.1729, "id": "387338", "name": "Pterotracheoidea", "sprite": "sp-cowrie_shell.png", "group": "sea_snail", "rarity": 1}, {"lat": 19.0825, "lng": 125.865, "id": "126615", "name": "Diamondcheek lanternfish", "thumb": "tn_Laint_u1.jpg", "sprite": "sp-anchoviella_juruasanga.png", "group": "other", "rarity": 1, "waterType": "Saltwater"}, {"lat": 17.0017, "lng": 126.2725, "id": "125445", "name": "Notosudidae", "sprite": "sp-anchoviella_juruasanga.png", "group": "other", "rarity": 1}, {"lat": 19.0136, "lng": 125.8485, "id": "127307", "name": "Pacific hatchet fish", "thumb": "tn_Araff_u0.jpg", "sprite": "sp-anchoviella_juruasanga.png", "group": "other", "rarity": 1, "waterType": "Saltwater"}, {"lat": 17.5046, "lng": 126.2042, "id": "125432", "name": "Nemichthyidae", "sprite": "sp-electric_eel.png", "group": "eel", "rarity": 1}, {"lat": 19.0333, "lng": 125.7583, "id": "126864", "name": "Black snake mackerel", "thumb": "tn_Netri_u0.jpg", "sprite": "sp-anchoviella_juruasanga.png", "group": "other", "rarity": 1, "waterType": "Saltwater"}, {"lat": 17.9335, "lng": 125.1729, "id": "103357", "name": "Appendicularia", "sprite": "sp-anchoviella_juruasanga.png", "group": "other", "rarity": 1}, {"lat": 17.4992, "lng": 126.195, "id": "126385", "name": "Tropical two-wing flyingfish", "thumb": "tn_Exvol_u2.gif", "sprite": "sp-flying_fish.png", "group": "flying_fish", "rarity": 1, "waterType": "Saltwater"}, {"lat": 19.0825, "lng": 125.865, "id": "127314", "name": "Diaphanous hatchet fish", "thumb": "tn_Stdia_u7.jpg", "sprite": "sp-anchoviella_juruasanga.png", "group": "other", "rarity": 1, "waterType": "Saltwater"}, {"lat": 18.935, "lng": 126.2092, "id": "125468", "name": "Bregmacerotidae", "sprite": "sp-anchoviella_juruasanga.png", "group": "other", "rarity": 1}, {"lat": 18.935, "lng": 126.2092, "id": "110702", "name": "Stylocheiron elongatum", "sprite": "sp-antarctic_krill.png", "group": "shrimp", "rarity": 1}, {"lat": 19.0661, "lng": 125.8294, "id": "127292", "name": "Pacific portholefish", "thumb": "tn_Ditae_u0.jpg", "sprite": "sp-anchoviella_juruasanga.png", "group": "other", "rarity": 1, "waterType": "Saltwater"}, {"lat": 17.0483, "lng": 126.2692, "id": "126629", "name": "Topside lampfish", "thumb": "tn_Noval_m0.gif", "sprite": "sp-anchoviella_juruasanga.png", "group": "other", "rarity": 1, "waterType": "Saltwater"}, {"lat": 19.0825, "lng": 125.865, "id": "158896", "name": "Luminous lanternfish", "thumb": "tn_Lalum_u1.jpg", "sprite": "sp-anchoviella_juruasanga.png", "group": "other", "rarity": 1, "waterType": "Saltwater"}, {"lat": 18.0368, "lng": 126.0855, "id": "1525495", "name": "Bluntsnout lanternfish", "thumb": "tn_Myobt_u0.jpg", "sprite": "sp-anchoviella_juruasanga.png", "group": "other", "rarity": 1, "waterType": "Saltwater"}, {"lat": 17.025, "lng": 126.2708, "id": "125576", "name": "Bothidae", "sprite": "sp-atlantic_halibut.png", "group": "flatfish", "rarity": 1}, {"lat": 17.9335, "lng": 125.1729, "id": "883", "name": "Polychaeta", "sprite": "sp-anchoviella_juruasanga.png", "group": "other", "rarity": 1}, {"lat": 19.1317, "lng": 125.9717, "id": "217706", "name": "Mermaid lanternfish", "thumb": "tn_Lalep_u0.gif", "sprite": "sp-anchoviella_juruasanga.png", "group": "other", "rarity": 1, "waterType": "Saltwater"}, {"lat": 17.9335, "lng": 125.1729, "id": "14355", "name": "Stomatopoda", "sprite": "sp-american_lobster.png", "group": "crab_lobster", "rarity": 1}, {"lat": 18.1894, "lng": 126.0981, "id": "217700", "name": "Firefly lanternfish", "thumb": "tn_Hypro_u1.gif", "sprite": "sp-anchoviella_juruasanga.png", "group": "other", "rarity": 1, "waterType": "Saltwater"}, {"lat": 19.06, "lng": 125.6625, "id": "272723", "name": "Myctophum lychnobium", "sprite": "sp-anchoviella_juruasanga.png", "group": "other", "rarity": 1, "waterType": "Saltwater"}, {"lat": 17.3575, "lng": 126.2311, "id": "221052", "name": "Euphausia tenera", "sprite": "sp-antarctic_krill.png", "group": "shrimp", "rarity": 1}, {"lat": 17.7519, "lng": 126.2256, "id": "125447", "name": "Paralepididae", "sprite": "sp-anchoviella_juruasanga.png", "group": "other", "rarity": 1}, {"lat": 17.0017, "lng": 126.2725, "id": "158887", "name": "Fragile lantern fish", "thumb": "tn_Difra_u1.jpg", "sprite": "sp-anchoviella_juruasanga.png", "group": "other", "rarity": 1, "waterType": "Saltwater"}, {"lat": 18.935, "lng": 126.2092, "id": "221048", "name": "Euphausia similis", "sprite": "sp-antarctic_krill.png", "group": "shrimp", "rarity": 1}, {"lat": 18.8683, "lng": 123.9533, "id": "158837", "name": "Sladen's hatchet fish", "thumb": "tn_Arsla_u0.jpg", "sprite": "sp-anchoviella_juruasanga.png", "group": "other", "rarity": 1, "waterType": "Saltwater"}, {"lat": 17.9335, "lng": 125.1729, "id": "2081", "name": "Chaetognatha", "sprite": "sp-anchoviella_juruasanga.png", "group": "other", "rarity": 1}, {"lat": 19.0333, "lng": 125.7583, "id": "125811", "name": "Oneirodes", "sprite": "sp-deep_sea_anglerfish.png", "group": "anglerfish", "rarity": 1}, {"lat": 17.9335, "lng": 125.1729, "id": "1082", "name": "Cirripedia", "sprite": "sp-anchoviella_juruasanga.png", "group": "other", "rarity": 1}, {"lat": 17.1404, "lng": 126.2569, "id": "126188", "name": "Diplophos", "sprite": "sp-anchoviella_juruasanga.png", "group": "other", "rarity": 1}, {"lat": 19.0333, "lng": 125.7583, "id": "126217", "name": "Photonectes", "sprite": "sp-anchoviella_juruasanga.png", "group": "other", "rarity": 1}, {"lat": 17.4, "lng": 124.195, "id": "382857", "name": "Metanephrops sinensis", "sprite": "sp-american_lobster.png", "group": "crab_lobster", "rarity": 1}, {"lat": 17.9335, "lng": 125.1729, "id": "1135", "name": "Amphipoda", "sprite": "sp-american_lobster.png", "group": "crab_lobster", "rarity": 1}, {"lat": 19.0825, "lng": 125.865, "id": "282973", "name": "Broomfin dragonfish", "thumb": "tn_Thden_u0.gif", "sprite": "sp-anchoviella_juruasanga.png", "group": "other", "rarity": 1, "waterType": "Saltwater"}, {"lat": 17.2114, "lng": 126.2464, "id": "125427", "name": "Congridae", "sprite": "sp-electric_eel.png", "group": "eel", "rarity": 1}, {"lat": 19.1317, "lng": 125.9717, "id": "126865", "name": "Black gemfish", "thumb": "tn_Nenas_u4.jpg", "sprite": "sp-anchoviella_juruasanga.png", "group": "other", "rarity": 1, "waterType": "Saltwater"}, {"lat": 18.9783, "lng": 125.1566, "id": "127309", "name": "Half-naked hatchetfish", "thumb": "tn_Arhem_u6.jpg", "sprite": "sp-anchoviella_juruasanga.png", "group": "other", "rarity": 1, "waterType": "Saltwater"}, {"lat": 18.504, "lng": 124.589, "id": "1086", "name": "Eumalacostraca", "sprite": "sp-american_lobster.png", "group": "crab_lobster", "rarity": 1}, {"lat": 17.9335, "lng": 125.1729, "id": "1248", "name": "Ctenophora", "sprite": "sp-anchoviella_juruasanga.png", "group": "other", "rarity": 1}, {"lat": 17.9335, "lng": 125.1729, "id": "109571", "name": "Pyrocystis", "sprite": "sp-anchoviella_juruasanga.png", "group": "other", "rarity": 1}, {"lat": 17.9335, "lng": 125.1729, "id": "1078", "name": "Ostracoda", "sprite": "sp-anchoviella_juruasanga.png", "group": "other", "rarity": 1}, {"lat": 18.3889, "lng": 126.0008, "id": "221512", "name": "Elongated bristlemouth fish", "thumb": "tn_Goelo_u3.jpg", "sprite": "sp-anchoviella_juruasanga.png", "group": "other", "rarity": 1, "waterType": "Saltwater"}, {"lat": 18.0175, "lng": 126.0154, "id": "158897", "name": "Noble lampfish", "thumb": "tn_Lanob_u0.jpg", "sprite": "sp-anchoviella_juruasanga.png", "group": "other", "rarity": 1, "waterType": "Saltwater"}, {"lat": 19.1317, "lng": 125.9717, "id": "127349", "name": "Eustomias simplex", "sprite": "sp-anchoviella_juruasanga.png", "group": "other", "rarity": 1, "waterType": "Saltwater"}, {"lat": 17.9335, "lng": 125.1729, "id": "1080", "name": "Copepoda", "sprite": "sp-anchoviella_juruasanga.png", "group": "other", "rarity": 1}, {"lat": 18.6033, "lng": 125.6323, "id": "127338", "name": "Sloane's viperfish", "thumb": "tn_Chslo_u5.jpg", "sprite": "sp-anchoviella_juruasanga.png", "group": "other", "rarity": 1, "waterType": "Saltwater"}, {"lat": 19.0541, "lng": 125.4737, "id": "127302", "name": "Slender lightfish", "thumb": "tn_Viatt_u1.gif", "sprite": "sp-anchoviella_juruasanga.png", "group": "other", "rarity": 1, "waterType": "Saltwater"}, {"lat": 17.9755, "lng": 125.2734, "id": "2", "name": "Animalia", "sprite": "sp-anchoviella_juruasanga.png", "group": "other", "rarity": 1}, {"lat": 17.0017, "lng": 126.2725, "id": "126207", "name": "Echiostoma", "sprite": "sp-anchoviella_juruasanga.png", "group": "other", "rarity": 1}, {"lat": 17.0209, "lng": 126.5049, "id": "212601", "name": "Calidris ruficollis", "sprite": "sp-anchoviella_juruasanga.png", "group": "other", "rarity": 1}, {"lat": 17.9814, "lng": 126.2058, "id": "221056", "name": "Euphausia diomedeae", "sprite": "sp-antarctic_krill.png", "group": "shrimp", "rarity": 1}, {"lat": 17.1881, "lng": 126.2508, "id": "110680", "name": "Thysanopoda", "sprite": "sp-antarctic_krill.png", "group": "shrimp", "rarity": 1}, {"lat": 18.126, "lng": 124.9655, "id": "109506", "name": "Ceratium", "sprite": "sp-anchoviella_juruasanga.png", "group": "other", "rarity": 1}, {"lat": 19.0333, "lng": 125.7583, "id": "126367", "name": "Short fin pearleye", "thumb": "tn_Scana_u0.gif", "sprite": "sp-anchoviella_juruasanga.png", "group": "other", "rarity": 1, "waterType": "Saltwater"}, {"lat": 19.0333, "lng": 125.7583, "id": "126365", "name": "Zugmayer's pearleye", "thumb": "tn_Beinf_u0.gif", "sprite": "sp-anchoviella_juruasanga.png", "group": "other", "rarity": 1, "waterType": "Saltwater"}, {"lat": 18.935, "lng": 126.2092, "id": "110691", "name": "Nematobrachion boopis", "sprite": "sp-antarctic_krill.png", "group": "shrimp", "rarity": 1}, {"lat": 19.0333, "lng": 125.7583, "id": "127279", "name": "Ragged bigscale", "thumb": "tn_Scmiz_u1.jpg", "sprite": "sp-anchoviella_juruasanga.png", "group": "other", "rarity": 1, "waterType": "Saltwater"}, {"lat": 17.51, "lng": 126.2133, "id": "125431", "name": "Muraenidae", "sprite": "sp-anarchias.png", "group": "moray", "rarity": 1}, {"lat": 18.3233, "lng": 126.08, "id": "217721", "name": "Highseas lampfish", "thumb": "tn_Trnig_u0.gif", "sprite": "sp-anchoviella_juruasanga.png", "group": "other", "rarity": 1, "waterType": "Saltwater"}, {"lat": 18.935, "lng": 126.2092, "id": "1649787", "name": "Hansarsia gracilis", "sprite": "sp-antarctic_krill.png", "group": "shrimp", "rarity": 1}, {"lat": 19.0333, "lng": 125.7583, "id": "125665", "name": "Coccorella", "sprite": "sp-anchoviella_juruasanga.png", "group": "other", "rarity": 1}, {"lat": 18.935, "lng": 126.2092, "id": "126196", "name": "Argyropelecus", "sprite": "sp-anchoviella_juruasanga.png", "group": "other", "rarity": 1}, {"lat": 18.09, "lng": 126.1204, "id": "125819", "name": "Diaphus", "sprite": "sp-anchoviella_juruasanga.png", "group": "other", "rarity": 1}, {"lat": 17.504, "lng": 126.2345, "id": "110683", "name": "Euphausia brevis", "sprite": "sp-antarctic_krill.png", "group": "shrimp", "rarity": 1}, {"lat": 17.8875, "lng": 126.0946, "id": "126208", "name": "Eustomias", "sprite": "sp-anchoviella_juruasanga.png", "group": "other", "rarity": 1}, {"lat": 19.1575, "lng": 126.0917, "id": "275093", "name": "Eustomias gibbsi", "sprite": "sp-anchoviella_juruasanga.png", "group": "other", "rarity": 1, "waterType": "Saltwater"}, {"lat": 19.0825, "lng": 125.865, "id": "301537", "name": "Black lantern fish", "sprite": "sp-anchoviella_juruasanga.png", "group": "other", "rarity": 1, "waterType": "Saltwater"}, {"lat": 17.9335, "lng": 125.1729, "id": "22626", "name": "Thaliacea", "sprite": "sp-anchoviella_juruasanga.png", "group": "other", "rarity": 1}, {"lat": 17.72, "lng": 126.17, "id": "793", "name": "Platyhelminthes", "sprite": "sp-anchoviella_juruasanga.png", "group": "other", "rarity": 1}, {"lat": 19.0333, "lng": 125.7583, "id": "125801", "name": "Linophryne", "sprite": "sp-deep_sea_anglerfish.png", "group": "anglerfish", "rarity": 1}, {"lat": 17.8311, "lng": 126.2306, "id": "126187", "name": "Cyclothone", "sprite": "sp-anchoviella_juruasanga.png", "group": "other", "rarity": 1}, {"lat": 17.146, "lng": 126.256, "id": "110701", "name": "Stylocheiron carinatum", "sprite": "sp-antarctic_krill.png", "group": "shrimp", "rarity": 1}, {"lat": 18.9883, "lng": 125.3533, "id": "126584", "name": "Roundnose lanternfish", "thumb": "tn_Cenig_u5.gif", "sprite": "sp-anchoviella_juruasanga.png", "group": "other", "rarity": 1, "waterType": "Saltwater"}, {"lat": 17.9683, "lng": 126.2408, "id": "272656", "name": "Dogtooth lampfish", "sprite": "sp-anchoviella_juruasanga.png", "group": "other", "rarity": 1, "waterType": "Saltwater"}, {"lat": 17.4992, "lng": 126.195, "id": "125548", "name": "Nomeidae", "sprite": "sp-anchoviella_juruasanga.png", "group": "other", "rarity": 1}, {"lat": 17.9335, "lng": 125.1729, "id": "1806", "name": "Echinodermata", "sprite": "sp-sea_cucumber.png", "group": "starfish", "rarity": 1}, {"lat": 17.0017, "lng": 126.2725, "id": "125685", "name": "Saurida", "sprite": "sp-anchoviella_juruasanga.png", "group": "other", "rarity": 1}, {"lat": 19.1575, "lng": 126.0917, "id": "126609", "name": "Sunbeam lampfish", "thumb": "tn_Lauro_u0.jpg", "sprite": "sp-anchoviella_juruasanga.png", "group": "other", "rarity": 1, "waterType": "Saltwater"}, {"lat": 17.9335, "lng": 125.1729, "id": "137224", "name": "Pyrosoma", "sprite": "sp-anchoviella_juruasanga.png", "group": "other", "rarity": 1}, {"lat": 19.0825, "lng": 125.865, "id": "126586", "name": "Warming's lantern fish", "thumb": "tn_Cewar_u0.jpg", "sprite": "sp-anchoviella_juruasanga.png", "group": "other", "rarity": 1, "waterType": "Saltwater"}, {"lat": 17.2813, "lng": 126.24, "id": "125601", "name": "Gonostomatidae", "sprite": "sp-anchoviella_juruasanga.png", "group": "other", "rarity": 1}, {"lat": 18.0175, "lng": 126.0154, "id": "279335", "name": "Ebeling's fangjaw", "sprite": "sp-anchoviella_juruasanga.png", "group": "other", "rarity": 1, "waterType": "Saltwater"}, {"lat": 17.0017, "lng": 126.2725, "id": "272292", "name": "Japanese codlet", "thumb": "tn_Brjap_u6.jpg", "sprite": "sp-anchoviella_juruasanga.png", "group": "other", "rarity": 1, "waterType": "Saltwater"}, {"lat": 19.0333, "lng": 125.7583, "id": "272649", "name": "Bolinichthys distofax", "sprite": "sp-anchoviella_juruasanga.png", "group": "other", "rarity": 1, "waterType": "Saltwater"}, {"lat": 17.2813, "lng": 126.24, "id": "125559", "name": "Scombridae", "sprite": "sp-bluefin_tuna.png", "group": "tuna_mackerel", "rarity": 1}, {"lat": 19.0333, "lng": 125.7583, "id": "126181", "name": "Melamphaes", "sprite": "sp-anchoviella_juruasanga.png", "group": "other", "rarity": 1}, {"lat": 17.5921, "lng": 126.1656, "id": "217718", "name": "Evermann's lantern fish", "thumb": "tn_Syeve_u2.gif", "sprite": "sp-anchoviella_juruasanga.png", "group": "other", "rarity": 1, "waterType": "Saltwater"}, {"lat": 19.1317, "lng": 125.9717, "id": "217694", "name": "Malayan lanternfish", "thumb": "tn_Dimal_f0.jpg", "sprite": "sp-anchoviella_juruasanga.png", "group": "other", "rarity": 1, "waterType": "Saltwater"}, {"lat": 17.4892, "lng": 126.185, "id": "204480", "name": "Engyprosopon", "sprite": "sp-atlantic_halibut.png", "group": "flatfish", "rarity": 1}, {"lat": 18.935, "lng": 126.2092, "id": "110681", "name": "Bentheuphausia amblyops", "sprite": "sp-antarctic_krill.png", "group": "shrimp", "rarity": 1}, {"lat": 17.0017, "lng": 126.2725, "id": "126211", "name": "Idiacanthus", "sprite": "sp-anchoviella_juruasanga.png", "group": "other", "rarity": 1}, {"lat": 18.935, "lng": 126.2092, "id": "110719", "name": "Thysanopoda obtusifrons", "sprite": "sp-antarctic_krill.png", "group": "shrimp", "rarity": 1}, {"lat": 18.2479, "lng": 125.7825, "id": "126845", "name": "Pompano dolphinfish", "thumb": "tn_Coequ_m0.jpg", "sprite": "sp-anchoviella_juruasanga.png", "group": "other", "rarity": 1, "waterType": "Saltwater"}, {"lat": 17.504, "lng": 126.2345, "id": "110688", "name": "Euphausia mutica", "sprite": "sp-antarctic_krill.png", "group": "shrimp", "rarity": 1}, {"lat": 17.7148, "lng": 125.5857, "id": "1128", "name": "Euphausiacea", "sprite": "sp-antarctic_krill.png", "group": "shrimp", "rarity": 1}, {"lat": 18.5547, "lng": 125.975, "id": "158888", "name": "Garman's lanternfish", "thumb": "tn_Digar_u0.jpg", "sprite": "sp-anchoviella_juruasanga.png", "group": "other", "rarity": 1, "waterType": "Saltwater"}, {"lat": 17.025, "lng": 126.2708, "id": "125818", "name": "Ceratoscopelus", "sprite": "sp-anchoviella_juruasanga.png", "group": "other", "rarity": 1}, {"lat": 17.6248, "lng": 126.2404, "id": "1649790", "name": "Hansarsia microps", "sprite": "sp-antarctic_krill.png", "group": "shrimp", "rarity": 1}, {"lat": 19.0511, "lng": 125.6944, "id": "1525960", "name": "Spiny lantern fish", "thumb": "tn_Myspi_u1.gif", "sprite": "sp-anchoviella_juruasanga.png", "group": "other", "rarity": 1, "waterType": "Saltwater"}, {"lat": 17.504, "lng": 126.2345, "id": "110721", "name": "Thysanopoda tricuspidata", "sprite": "sp-antarctic_krill.png", "group": "shrimp", "rarity": 1}, {"lat": 19.1317, "lng": 125.9717, "id": "126583", "name": "Stubby lanternfish", "thumb": "tn_Bosup_u0.jpg", "sprite": "sp-anchoviella_juruasanga.png", "group": "other", "rarity": 1, "waterType": "Saltwater"}, {"lat": 17.9335, "lng": 125.1729, "id": "132", "name": "Epitoniidae", "sprite": "sp-cowrie_shell.png", "group": "sea_snail", "rarity": 1}, {"lat": 19.0333, "lng": 125.7583, "id": "125727", "name": "Bregmaceros", "sprite": "sp-anchoviella_juruasanga.png", "group": "other", "rarity": 1}, {"lat": 19.1317, "lng": 125.9717, "id": "217683", "name": "Jensen's lanternfish", "thumb": "tn_Dijen_u0.jpg", "sprite": "sp-anchoviella_juruasanga.png", "group": "other", "rarity": 1, "waterType": "Saltwater"}, {"lat": 18.5092, "lng": 125.733, "id": "279336", "name": "Slender fangjaw", "thumb": "tn_Sigra_u0.gif", "sprite": "sp-anchoviella_juruasanga.png", "group": "other", "rarity": 1, "waterType": "Saltwater"}, {"lat": 17.055, "lng": 126.2683, "id": "125493", "name": "Lophiidae", "sprite": "sp-deep_sea_anglerfish.png", "group": "anglerfish", "rarity": 1}, {"lat": 18.2212, "lng": 126.2104, "id": "110700", "name": "Stylocheiron affine", "sprite": "sp-antarctic_krill.png", "group": "shrimp", "rarity": 1}, {"lat": 19.0825, "lng": 125.865, "id": "217619", "name": "Alcock's boafish", "thumb": "tn_Stneb_u0.jpg", "sprite": "sp-anchoviella_juruasanga.png", "group": "other", "rarity": 1, "waterType": "Saltwater"}, {"lat": 17.8341, "lng": 124.544, "id": "225934", "name": "Numenius madagascariensis", "sprite": "sp-anchoviella_juruasanga.png", "group": "other", "rarity": 1}, {"lat": 19.1317, "lng": 125.9717, "id": "301545", "name": "Pinpoint lampfish", "thumb": "tn_Nareg_u0.jpg", "sprite": "sp-anchoviella_juruasanga.png", "group": "other", "rarity": 1, "waterType": "Saltwater"}, {"lat": 17.02, "lng": 126.2717, "id": "127288", "name": "Tan bristlemouth", "thumb": "tn_Cypal_u0.gif", "sprite": "sp-anchoviella_juruasanga.png", "group": "other", "rarity": 1, "waterType": "Saltwater"}, {"lat": 17.2577, "lng": 126.2381, "id": "125435", "name": "Serrivomeridae", "sprite": "sp-electric_eel.png", "group": "eel", "rarity": 1}, {"lat": 17.9335, "lng": 125.1729, "id": "1410", "name": "Foraminifera", "sprite": "sp-anchoviella_juruasanga.png", "group": "other", "rarity": 1}, {"lat": 19.1317, "lng": 125.9717, "id": "127328", "name": "Astronesthes niger", "thumb": "tn_Asnig_u1.gif", "sprite": "sp-anchoviella_juruasanga.png", "group": "other", "rarity": 1, "waterType": "Saltwater"}, {"lat": 17.8962, "lng": 126.2335, "id": "125498", "name": "Myctophidae", "sprite": "sp-anchoviella_juruasanga.png", "group": "other", "rarity": 1}]}