{"zoom": 7, "x": 109, "y": 67, "points": [{"lat": -8.473, "lng": 127.227, "id": "204831", "name": "Ambassis", "sprite": "sp-anchoviella_juruasanga.png", "group": "other", "rarity": 1}, {"lat": -10.9028, "lng": 128.7833, "id": "218713", "name": "Humpback batfish", "thumb": "tn_Plbat_u3.jpg", "sprite": "sp-anchoviella_juruasanga.png", "group": "other", "rarity": 1, "waterType": "Saltwater"}, {"lat": -8.4227, "lng": 127.316, "id": "1605310", "name": "Pycnochromis margaritifer", "sprite": "sp-chrysiptera_caesifrons.png", "group": "clownfish", "rarity": 1}, {"lat": -8.611, "lng": 126.9795, "id": "206460", "name": "Redigobius", "sprite": "sp-eviota_bipunctata.png", "group": "goby", "rarity": 1}, {"lat": -10.1189, "lng": 129.3192, "id": "256752", "name": "Cymothoa epimerica", "sprite": "sp-american_lobster.png", "group": "crab_lobster", "rarity": 1}, {"lat": -8.4301, "lng": 127.3263, "id": "1605312", "name": "Azurina lepidolepis", "sprite": "sp-chrysiptera_caesifrons.png", "group": "clownfish", "rarity": 1}, {"lat": -11.0167, "lng": 127.4458, "id": "125498", "name": "Myctophidae", "sprite": "sp-anchoviella_juruasanga.png", "group": "other", "rarity": 1}, {"lat": -8.412, "lng": 127.3138, "id": "212810", "name": "Ternate chromis", "thumb": "tn_Chter_u5.jpg", "sprite": "sp-chrysiptera_caesifrons.png", "group": "clownfish", "rarity": 1, "waterType": "Saltwater"}, {"lat": -10.8353, "lng": 129.2182, "id": "118291", "name": "Cyathura", "sprite": "sp-american_lobster.png", "group": "crab_lobster", "rarity": 1}, {"lat": -9.45, "lng": 127.9767, "id": "286725", "name": "Caryophyllia (Caryophyllia) ambrosia ambrosia", "sprite": "sp-actiniidae.png", "group": "coral", "rarity": 1}, {"lat": -11.0698, "lng": 126.6127, "id": "405962", "name": "Diacavolinia longirostris", "sprite": "sp-cowrie_shell.png", "group": "sea_snail", "rarity": 1}, {"lat": -10.8369, "lng": 129.2192, "id": "167787", "name": "Clathria (Thalysias) vulpina", "sprite": "sp-barrel_sponge.png", "group": "sponge", "rarity": 1}, {"lat": -10.4631, "lng": 128.7647, "id": "271474", "name": "Australian butterfly ray", "thumb": "tn_Gyaus_u0.jpg", "sprite": "sp-himantura_australis.png", "group": "ray", "rarity": 1, "waterType": "Saltwater"}, {"lat": -8.473, "lng": 127.227, "id": "270992", "name": "Stiphodon", "sprite": "sp-eviota_bipunctata.png", "group": "goby", "rarity": 1}, {"lat": -10.15, "lng": 129.367, "id": "158570", "name": "Rhynchoconger", "sprite": "sp-electric_eel.png", "group": "eel", "rarity": 1}, {"lat": -9.725, "lng": 129.159, "id": "206188", "name": "Halaelurus", "sprite": "sp-great_white_shark.png", "group": "shark", "rarity": 1}, {"lat": -10.1333, "lng": 129.323, "id": "267529", "name": "Keroeides", "sprite": "sp-actiniidae.png", "group": "coral", "rarity": 1}, {"lat": -9.8361, "lng": 129.1278, "id": "278643", "name": "Champsodon longipinnis", "thumb": "tn_Chlon_u0.jpg", "sprite": "sp-anchoviella_juruasanga.png", "group": "other", "rarity": 1, "waterType": "Saltwater"}, {"lat": -10.8683, "lng": 127.9049, "id": "217662", "name": "Gracile lizardfish", "thumb": "tn_Bagra_u3.jpg", "sprite": "sp-anchoviella_juruasanga.png", "group": "other", "rarity": 1, "waterType": "Saltwater"}, {"lat": -10.8248, "lng": 129.2092, "id": "392229", "name": "Galathea corallicola", "sprite": "sp-american_lobster.png", "group": "crab_lobster", "rarity": 1}, {"lat": -10.1333, "lng": 129.323, "id": "415194", "name": "Chironephthya", "sprite": "sp-actiniidae.png", "group": "coral", "rarity": 1}, {"lat": -8.4108, "lng": 127.3122, "id": "218999", "name": "Barred thicklip", "thumb": "tn_Hefas_f0.jpg", "sprite": "sp-cleaner_wrasse.png", "group": "wrasse", "rarity": 1, "waterType": "Saltwater"}, {"lat": -8.4108, "lng": 127.3122, "id": "220058", "name": "Honeycomb filefish", "thumb": "tn_Capar_u3.jpg", "sprite": "sp-anchoviella_juruasanga.png", "group": "other", "rarity": 1, "waterType": "Saltwater"}, {"lat": -8.6126, "lng": 126.9781, "id": "125537", "name": "Gobiidae", "sprite": "sp-eviota_bipunctata.png", "group": "goby", "rarity": 1}, {"lat": -8.4455, "lng": 127.3309, "id": "218539", "name": "Harry hotlips", "thumb": "tn_Plgib_u6.jpg", "sprite": "sp-anchoviella_juruasanga.png", "group": "other", "rarity": 1, "waterType": "Brackish"}, {"lat": -8.4327, "lng": 127.3147, "id": "219629", "name": "Palelipped surgeonfish", "thumb": "tn_Acleu_u0.jpg", "sprite": "sp-acanthurus_albimento.png", "group": "surgeonfish", "rarity": 1, "waterType": "Saltwater"}, {"lat": -10.9256, "lng": 128.0919, "id": "212045", "name": "Pickhandle barracuda", "thumb": "tn_Spjel_u6.jpg", "sprite": "sp-sphyraena.png", "group": "barracuda", "rarity": 1, "waterType": "Brackish"}, {"lat": -10.033, "lng": 128.983, "id": "212077", "name": "Spotcheek emperor", "thumb": "tn_Lerub_u5.jpg", "sprite": "sp-anchoviella_juruasanga.png", "group": "other", "rarity": 1, "waterType": "Saltwater"}, {"lat": -8.9777, "lng": 127.8943, "id": "113444", "name": "Globigerinoides ruber", "sprite": "sp-anchoviella_juruasanga.png", "group": "other", "rarity": 1}, {"lat": -8.6715, "lng": 126.9065, "id": "125434", "name": "Ophichthidae", "sprite": "sp-electric_eel.png", "group": "eel", "rarity": 1}, {"lat": -10.4293, "lng": 129.292, "id": "267242", "name": "Astrogorgia", "sprite": "sp-actiniidae.png", "group": "coral", "rarity": 1}, {"lat": -10.7792, "lng": 128.8875, "id": "219915", "name": "Humpback turretfish", "thumb": "tn_Tegib_u6.jpg", "sprite": "sp-anchoviella_juruasanga.png", "group": "other", "rarity": 1, "waterType": "Saltwater"}, {"lat": -9.0333, "lng": 126.6833, "id": "126586", "name": "Warming's lantern fish", "thumb": "tn_Cewar_u0.jpg", "sprite": "sp-anchoviella_juruasanga.png", "group": "other", "rarity": 1, "waterType": "Saltwater"}, {"lat": -11.0333, "lng": 129.0, "id": "217340", "name": "Pigeye shark", "thumb": "tn_Caamb_u5.jpg", "sprite": "sp-great_white_shark.png", "group": "shark", "rarity": 1, "waterType": "Brackish"}, {"lat": -10.6017, "lng": 127.968, "id": "138397", "name": "Pteria", "sprite": "sp-blue_mussel.png", "group": "clam_mussel", "rarity": 1}, {"lat": -8.4167, "lng": 127.3101, "id": "212217", "name": "Sixbar wrasse", "thumb": "tn_Thhar_u1.jpg", "sprite": "sp-cleaner_wrasse.png", "group": "wrasse", "rarity": 1, "waterType": "Saltwater"}, {"lat": -8.42, "lng": 127.3067, "id": "210774", "name": "Labidodemas semperianum", "sprite": "sp-sea_cucumber.png", "group": "starfish", "rarity": 1}, {"lat": -8.99, "lng": 128.28, "id": "688196", "name": "Spiniferites ramosus subsp. cavispinosus", "sprite": "sp-anchoviella_juruasanga.png", "group": "other", "rarity": 1}, {"lat": -9.8663, "lng": 129.2, "id": "277213", "name": "Thamnaconus tessellatus", "thumb": "tn_Thtes_u0.jpg", "sprite": "sp-anchoviella_juruasanga.png", "group": "other", "rarity": 1, "waterType": "Saltwater"}, {"lat": -10.333, "lng": 129.083, "id": "279881", "name": "Western frogfish", "thumb": "tn_Baocc_u1.jpg", "sprite": "sp-anchoviella_juruasanga.png", "group": "other", "rarity": 1, "waterType": "Saltwater"}, {"lat": -8.5494, "lng": 127.0895, "id": "204504", "name": "Sicyopterus", "sprite": "sp-eviota_bipunctata.png", "group": "goby", "rarity": 1}, {"lat": -8.4349, "lng": 127.3313, "id": "277814", "name": "Parupeneus crassilabris", "thumb": "tn_Pacra_u5.jpg", "sprite": "sp-anchoviella_juruasanga.png", "group": "other", "rarity": 1, "waterType": "Saltwater"}, {"lat": -10.95, "lng": 128.0, "id": "279986", "name": "Yellow-dabbled flounder", "thumb": "tn_Brnov_u1.jpg", "sprite": "sp-atlantic_halibut.png", "group": "flatfish", "rarity": 1, "waterType": "Saltwater"}, {"lat": -8.4452, "lng": 127.3344, "id": "277507", "name": "Steephead parrots", "thumb": "tn_Chmic_u9.jpg", "sprite": "sp-rainbow_parrotfish.png", "group": "parrotfish", "rarity": 1, "waterType": "Saltwater"}, {"lat": -10.1558, "lng": 128.7673, "id": "126371", "name": "Brushtooth lizardfish", "thumb": "tn_Saund_u0.jpg", "sprite": "sp-anchoviella_juruasanga.png", "group": "other", "rarity": 1, "waterType": "Saltwater"}, {"lat": -10.5704, "lng": 127.4801, "id": "204626", "name": "Eucithara", "sprite": "sp-cowrie_shell.png", "group": "sea_snail", "rarity": 1}, {"lat": -8.6283, "lng": 128.7867, "id": "127354", "name": "Ribbon sawtail fish", "thumb": "tn_Idfas_u1.jpg", "sprite": "sp-anchoviella_juruasanga.png", "group": "other", "rarity": 1, "waterType": "Saltwater"}, {"lat": -10.8333, "lng": 129.1667, "id": "216636", "name": "Hyotissa hyotis", "sprite": "sp-blue_mussel.png", "group": "clam_mussel", "rarity": 1}, {"lat": -9.0109, "lng": 127.6133, "id": "218754", "name": "Vagabond butterflyfish", "thumb": "tn_Chvag_u4.jpg", "sprite": "sp-chaetodon.png", "group": "butterflyfish", "rarity": 1, "waterType": "Saltwater"}, {"lat": -10.7861, "lng": 128.9, "id": "272138", "name": "Speartoothed grinner", "thumb": "tn_Sysag_u0.jpg", "sprite": "sp-anchoviella_juruasanga.png", "group": "other", "rarity": 1, "waterType": "Saltwater"}, {"lat": -8.4445, "lng": 127.3414, "id": "218665", "name": "Gold-saddle goatfish", "thumb": "tn_Pacyc_u0.jpg", "sprite": "sp-anchoviella_juruasanga.png", "group": "other", "rarity": 1, "waterType": "Saltwater"}, {"lat": -11.025, "lng": 128.783, "id": "212432", "name": "Ophiomaza cacaotica", "sprite": "sp-sea_cucumber.png", "group": "starfish", "rarity": 1}, {"lat": -10.8368, "lng": 129.219, "id": "204844", "name": "Culcita", "sprite": "sp-sea_cucumber.png", "group": "starfish", "rarity": 1}, {"lat": -10.1617, "lng": 129.1668, "id": "218160", "name": "Starry flying gurnard", "thumb": "tn_Dapet_u1.jpg", "sprite": "sp-anchoviella_juruasanga.png", "group": "other", "rarity": 1, "waterType": "Saltwater"}, {"lat": -8.6283, "lng": 128.7867, "id": "217696", "name": "Diogenichthys panurgus", "thumb": "tn_Dipan_u1.gif", "sprite": "sp-anchoviella_juruasanga.png", "group": "other", "rarity": 1, "waterType": "Saltwater"}, {"lat": -10.65, "lng": 128.875, "id": "273206", "name": "Queensland stinkfish", "thumb": "tn_Camor_u0.jpg", "sprite": "sp-anchoviella_juruasanga.png", "group": "other", "rarity": 1, "waterType": "Saltwater"}, {"lat": -8.4449, "lng": 127.3372, "id": "273582", "name": "Jansen's wrasse", "thumb": "tn_Thjan_u0.jpg", "sprite": "sp-cleaner_wrasse.png", "group": "wrasse", "rarity": 1, "waterType": "Saltwater"}, {"lat": -9.4333, "lng": 127.7983, "id": "126385", "name": "Tropical two-wing flyingfish", "thumb": "tn_Exvol_u2.gif", "sprite": "sp-flying_fish.png", "group": "flying_fish", "rarity": 1, "waterType": "Saltwater"}, {"lat": -8.4667, "lng": 127.0167, "id": "136995", "name": "Podicipedidae", "sprite": "sp-anchoviella_juruasanga.png", "group": "other", "rarity": 1}, {"lat": -11.0172, "lng": 127.3753, "id": "218397", "name": "Malabar trevally", "thumb": "tn_Camal_u5.jpg", "sprite": "sp-anchoviella_juruasanga.png", "group": "other", "rarity": 1, "waterType": "Saltwater"}, {"lat": -8.4445, "lng": 127.3414, "id": "218986", "name": "Nebulous wrasse", "thumb": "tn_Haneb_u3.jpg", "sprite": "sp-cleaner_wrasse.png", "group": "wrasse", "rarity": 1, "waterType": "Saltwater"}, {"lat": -10.3076, "lng": 129.296, "id": "125277", "name": "Plexauridae", "sprite": "sp-actiniidae.png", "group": "coral", "rarity": 1}, {"lat": -10.8305, "lng": 129.2152, "id": "250156", "name": "Distaplia racemosa", "sprite": "sp-anchoviella_juruasanga.png", "group": "other", "rarity": 1}, {"lat": -8.418, "lng": 127.309, "id": "218956", "name": "Batu coris", "thumb": "tn_Cobat_u0.jpg", "sprite": "sp-cleaner_wrasse.png", "group": "wrasse", "rarity": 1, "waterType": "Saltwater"}, {"lat": -9.775, "lng": 128.9667, "id": "278460", "name": "Butterfly flying-gurnard", "thumb": "tn_Dapap_u1.jpg", "sprite": "sp-anchoviella_juruasanga.png", "group": "other", "rarity": 1, "waterType": "Saltwater"}, {"lat": -9.775, "lng": 128.9667, "id": "1011965", "name": "Black-finned armoured-gurnard", "thumb": "tn_Samol_u1.jpg", "sprite": "sp-anchoviella_juruasanga.png", "group": "other", "rarity": 1, "waterType": "Saltwater"}, {"lat": -8.99, "lng": 128.28, "id": "835694", "name": "Operculodinium centrocarpum", "sprite": "sp-anchoviella_juruasanga.png", "group": "other", "rarity": 1}, {"lat": -9.45, "lng": 127.9769, "id": "286858", "name": "Stephanocyathus (Stephanocyathus) regius", "sprite": "sp-actiniidae.png", "group": "coral", "rarity": 1}, {"lat": -10.083, "lng": 129.017, "id": "219997", "name": "Mottled fusilier", "thumb": "tn_Dibal_u0.jpg", "sprite": "sp-anchoviella_juruasanga.png", "group": "other", "rarity": 1, "waterType": "Saltwater"}, {"lat": -9.883, "lng": 129.283, "id": "282915", "name": "Chinamanfish", "thumb": "tn_Synem_u3.jpg", "sprite": "sp-mutton_snapper.png", "group": "snapper", "rarity": 1, "waterType": "Saltwater"}, {"lat": -8.4156, "lng": 127.3114, "id": "277155", "name": "Scaly damsel", "thumb": "tn_Polep_u8.jpg", "sprite": "sp-chrysiptera_caesifrons.png", "group": "clownfish", "rarity": 1, "waterType": "Saltwater"}, {"lat": -10.833, "lng": 129.217, "id": "205824", "name": "Caesio", "sprite": "sp-anchoviella_juruasanga.png", "group": "other", "rarity": 1}, {"lat": -10.85, "lng": 129.2, "id": "22496", "name": "Nereididae", "sprite": "sp-anchoviella_juruasanga.png", "group": "other", "rarity": 1}, {"lat": -11.025, "lng": 128.783, "id": "413276", "name": "Amphimetra tessellata", "sprite": "sp-sea_cucumber.png", "group": "starfish", "rarity": 1}, {"lat": -10.7792, "lng": 128.8875, "id": "273267", "name": "Smallmouth scad", "thumb": "tn_Alape_u2.jpg", "sprite": "sp-anchoviella_juruasanga.png", "group": "other", "rarity": 1, "waterType": "Saltwater"}, {"lat": -10.8368, "lng": 129.219, "id": "711353", "name": "Petasometra helianthoides", "sprite": "sp-sea_cucumber.png", "group": "starfish", "rarity": 1}, {"lat": -10.6346, "lng": 128.5431, "id": "218535", "name": "Common silver-biddy", "thumb": "tn_Gearg_u1.jpg", "sprite": "sp-anchoviella_juruasanga.png", "group": "other", "rarity": 1, "waterType": "Brackish"}, {"lat": -8.4115, "lng": 127.3159, "id": "220083", "name": "Moorish idol", "thumb": "tn_Zacor_ua.jpg", "sprite": "sp-anchoviella_juruasanga.png", "group": "other", "rarity": 1, "waterType": "Saltwater"}, {"lat": -10.85, "lng": 129.2, "id": "948", "name": "Syllidae", "sprite": "sp-anchoviella_juruasanga.png", "group": "other", "rarity": 1}, {"lat": -10.9472, "lng": 128.7694, "id": "278085", "name": "Pot-bellied leatherjacket", "thumb": "tn_Psper_u8.jpg", "sprite": "sp-anchoviella_juruasanga.png", "group": "other", "rarity": 1, "waterType": "Saltwater"}, {"lat": -8.4156, "lng": 127.3111, "id": "212811", "name": "Blue green damselfish", "thumb": "tn_Chvir_u2.jpg", "sprite": "sp-chrysiptera_caesifrons.png", "group": "clownfish", "rarity": 1, "waterType": "Saltwater"}, {"lat": -10.8417, "lng": 129.219, "id": "289653", "name": "Chromonephthea singularis", "sprite": "sp-actiniidae.png", "group": "coral", "rarity": 1}, {"lat": -11.1333, "lng": 127.6833, "id": "212629", "name": "Anous stolidus", "sprite": "sp-anchoviella_juruasanga.png", "group": "other", "rarity": 1}, {"lat": -8.4132, "lng": 127.3139, "id": "218833", "name": "Bowtie damselfish", "thumb": "tn_Nemel_u7.jpg", "sprite": "sp-chrysiptera_caesifrons.png", "group": "clownfish", "rarity": 1, "waterType": "Saltwater"}, {"lat": -8.7183, "lng": 127.2783, "id": "113819", "name": "Ammodiscus incertus", "sprite": "sp-anchoviella_juruasanga.png", "group": "other", "rarity": 1}, {"lat": -8.4445, "lng": 127.3414, "id": "219113", "name": "Bridled parrotfish", "thumb": "tn_Scfre_m0.jpg", "sprite": "sp-rainbow_parrotfish.png", "group": "parrotfish", "rarity": 1, "waterType": "Saltwater"}, {"lat": -10.6967, "lng": 128.7986, "id": "1340", "name": "Hexacorallia", "sprite": "sp-actiniidae.png", "group": "coral", "rarity": 1}, {"lat": -11.0163, "lng": 128.6163, "id": "271846", "name": "Gymnothorax longinquus", "sprite": "sp-anarchias.png", "group": "moray", "rarity": 1, "waterType": "Saltwater"}, {"lat": -8.4082, "lng": 127.3194, "id": "218972", "name": "Sling-jaw wrasse", "thumb": "tn_Epins_u6.jpg", "sprite": "sp-cleaner_wrasse.png", "group": "wrasse", "rarity": 1, "waterType": "Saltwater"}, {"lat": -11.0511, "lng": 127.2589, "id": "204382", "name": "Choerodon", "sprite": "sp-cleaner_wrasse.png", "group": "wrasse", "rarity": 1}, {"lat": -10.1335, "lng": 129.3233, "id": "527733", "name": "Tudivasum armigerum", "sprite": "sp-cowrie_shell.png", "group": "sea_snail", "rarity": 1}, {"lat": -10.354, "lng": 129.0708, "id": "218855", "name": "Spotted hawkfish", "thumb": "tn_Ciapr_u0.jpg", "sprite": "sp-anchoviella_juruasanga.png", "group": "other", "rarity": 1, "waterType": "Brackish"}, {"lat": -10.9587, "lng": 128.3224, "id": "218182", "name": "Chocolate hind", "thumb": "tn_Ceboe_u9.jpg", "sprite": "sp-chelidoperca_santosi.png", "group": "grouper", "rarity": 1, "waterType": "Saltwater"}, {"lat": -10.85, "lng": 129.2, "id": "939", "name": "Polynoidae", "sprite": "sp-anchoviella_juruasanga.png", "group": "other", "rarity": 1}, {"lat": -10.7583, "lng": 127.2417, "id": "125555", "name": "Priacanthidae", "sprite": "sp-anchoviella_juruasanga.png", "group": "other", "rarity": 1}, {"lat": -8.99, "lng": 128.28, "id": "623769", "name": "Operculodinium israelianum", "sprite": "sp-anchoviella_juruasanga.png", "group": "other", "rarity": 1}, {"lat": -8.46, "lng": 128.24, "id": "836546", "name": "Stelladinium", "sprite": "sp-anchoviella_juruasanga.png", "group": "other", "rarity": 1}, {"lat": -8.4082, "lng": 127.3194, "id": "212549", "name": "Slender grouper", "thumb": "tn_Anleu_u0.jpg", "sprite": "sp-chelidoperca_santosi.png", "group": "grouper", "rarity": 1, "waterType": "Saltwater"}, {"lat": -9.775, "lng": 128.966, "id": "210834", "name": "Holothuria (Theelothuria) hamata", "sprite": "sp-sea_cucumber.png", "group": "starfish", "rarity": 1}, {"lat": -10.8018, "lng": 128.5899, "id": "218499", "name": "Emperor red snapper", "thumb": "tn_Luseb_j2.jpg", "sprite": "sp-mutton_snapper.png", "group": "snapper", "rarity": 1, "waterType": "Brackish"}, {"lat": -10.9038, "lng": 128.9234, "id": "246762", "name": "Comatula (Comatula) pectinata", "sprite": "sp-sea_cucumber.png", "group": "starfish", "rarity": 1}, {"lat": -8.9777, "lng": 127.8943, "id": "113440", "name": "Globigerinella siphonifera", "sprite": "sp-anchoviella_juruasanga.png", "group": "other", "rarity": 1}, {"lat": -8.473, "lng": 127.227, "id": "277738", "name": "Flag-tailed glass perchlet", "thumb": "tn_Ammio_u1.jpg", "sprite": "sp-anchoviella_juruasanga.png", "group": "other", "rarity": 1, "waterType": "Brackish"}, {"lat": -8.473, "lng": 127.227, "id": "218524", "name": "Whipfin silver-biddy", "thumb": "tn_Gefil_u4.jpg", "sprite": "sp-anchoviella_juruasanga.png", "group": "other", "rarity": 1, "waterType": "Brackish"}, {"lat": -10.9625, "lng": 127.9042, "id": "282213", "name": "Longfin mojarra", "thumb": "tn_Pelon_u0.jpg", "sprite": "sp-anchoviella_juruasanga.png", "group": "other", "rarity": 1, "waterType": "Brackish"}, {"lat": -8.4082, "lng": 127.3194, "id": "219001", "name": "Pastel ringwrasse", "thumb": "tn_Hodol_m0.jpg", "sprite": "sp-cleaner_wrasse.png", "group": "wrasse", "rarity": 1, "waterType": "Saltwater"}, {"lat": -11.0698, "lng": 126.6127, "id": "139034", "name": "Creseis acicula", "sprite": "sp-cowrie_shell.png", "group": "sea_snail", "rarity": 1}, {"lat": -8.4465, "lng": 127.3203, "id": "213656", "name": "Dark-banded fusilier", "thumb": "tn_Pttil_u4.jpg", "sprite": "sp-anchoviella_juruasanga.png", "group": "other", "rarity": 1, "waterType": "Saltwater"}, {"lat": -11.0698, "lng": 126.6127, "id": "1549091", "name": "Lamarcka ventricosa", "sprite": "sp-blue_mussel.png", "group": "clam_mussel", "rarity": 1}, {"lat": -10.816, "lng": 128.916, "id": "105802", "name": "Milk shark", "thumb": "tn_Rhacu_m2.jpg", "sprite": "sp-great_white_shark.png", "group": "shark", "rarity": 1, "waterType": "Brackish"}, {"lat": -8.422, "lng": 127.307, "id": "1605305", "name": "Pycnochromis amboinensis", "sprite": "sp-chrysiptera_caesifrons.png", "group": "clownfish", "rarity": 1}, {"lat": -8.4222, "lng": 127.3166, "id": "277145", "name": "Neon damselfish", "thumb": "tn_Pocae_u7.jpg", "sprite": "sp-chrysiptera_caesifrons.png", "group": "clownfish", "rarity": 1, "waterType": "Saltwater"}, {"lat": -10.8202, "lng": 129.2168, "id": "267402", "name": "Echinogorgia", "sprite": "sp-actiniidae.png", "group": "coral", "rarity": 1}, {"lat": -9.775, "lng": 128.966, "id": "210942", "name": "Stolus buccalis", "sprite": "sp-sea_cucumber.png", "group": "starfish", "rarity": 1}, {"lat": -10.8333, "lng": 129.2167, "id": "333848", "name": "Loimia ingens", "sprite": "sp-anchoviella_juruasanga.png", "group": "other", "rarity": 1}, {"lat": -9.775, "lng": 128.966, "id": "368801", "name": "Calliderma emma", "sprite": "sp-sea_cucumber.png", "group": "starfish", "rarity": 1}, {"lat": -8.57, "lng": 127.0615, "id": "271711", "name": "Speckled longfin eel", "thumb": "tn_Anrei_u1.jpg", "sprite": "sp-electric_eel.png", "group": "eel", "rarity": 1, "waterType": "Brackish"}, {"lat": -8.5618, "lng": 127.2043, "id": "148534", "name": "Atyidae", "sprite": "sp-american_lobster.png", "group": "crab_lobster", "rarity": 1}, {"lat": -10.1335, "lng": 129.3233, "id": "404683", "name": "Murex pecten", "sprite": "sp-cowrie_shell.png", "group": "sea_snail", "rarity": 1}, {"lat": -9.979, "lng": 129.3042, "id": "159383", "name": "Myripristis", "sprite": "sp-anchoviella_juruasanga.png", "group": "other", "rarity": 1}]}