{"zoom": 7, "x": 109, "y": 64, "points": [{"lat": -1.833, "lng": 127.515, "id": "348276", "name": "Parastericola rimosus", "sprite": "sp-anchoviella_juruasanga.png", "group": "other", "rarity": 1}, {"lat": -0.833, "lng": 127.833, "id": "159629", "name": "African pompano", "thumb": "tn_Alcil_u7.jpg", "sprite": "sp-anchoviella_juruasanga.png", "group": "other", "rarity": 1, "waterType": "Saltwater"}, {"lat": -1.8333, "lng": 127.515, "id": "350260", "name": "Collocheres inflatiseta", "sprite": "sp-anchoviella_juruasanga.png", "group": "other", "rarity": 1}, {"lat": -1.867, "lng": 127.6, "id": "511863", "name": "Pictocolumbella ocellata", "sprite": "sp-cowrie_shell.png", "group": "sea_snail", "rarity": 1}, {"lat": -1.7333, "lng": 128.0, "id": "390993", "name": "Amalda", "sprite": "sp-cowrie_shell.png", "group": "sea_snail", "rarity": 1}, {"lat": -1.2233, "lng": 127.3267, "id": "103357", "name": "Appendicularia", "sprite": "sp-anchoviella_juruasanga.png", "group": "other", "rarity": 1}, {"lat": -1.8333, "lng": 127.5125, "id": "216132", "name": "Ctenactis echinata", "sprite": "sp-actiniidae.png", "group": "coral", "rarity": 1}, {"lat": -1.867, "lng": 127.6, "id": "212164", "name": "Engina mendicaria", "sprite": "sp-cowrie_shell.png", "group": "sea_snail", "rarity": 1}, {"lat": -1.4, "lng": 127.0, "id": "344200", "name": "Fissidentalium franklinae", "sprite": "sp-anchoviella_juruasanga.png", "group": "other", "rarity": 1}, {"lat": -2.3667, "lng": 126.975, "id": "117860", "name": "Pantachogon haeckeli", "sprite": "sp-anchoviella_juruasanga.png", "group": "other", "rarity": 1}, {"lat": -0.94, "lng": 128.32, "id": "327875", "name": "Euphrosine laureata", "sprite": "sp-anchoviella_juruasanga.png", "group": "other", "rarity": 1}, {"lat": -0.833, "lng": 127.833, "id": "218691", "name": "Yellowstriped goatfish", "thumb": "tn_Upvit_u2.jpg", "sprite": "sp-anchoviella_juruasanga.png", "group": "other", "rarity": 1, "waterType": "Brackish"}, {"lat": -1.0409, "lng": 127.6495, "id": "128957", "name": "Triconia conifera", "sprite": "sp-anchoviella_juruasanga.png", "group": "other", "rarity": 1}, {"lat": -0.058, "lng": 127.4415, "id": "532183", "name": "Canarium urceus", "sprite": "sp-cowrie_shell.png", "group": "sea_snail", "rarity": 1}, {"lat": -1.5, "lng": 127.75, "id": "215391", "name": "Decatopecten plica", "sprite": "sp-blue_mussel.png", "group": "clam_mussel", "rarity": 1}, {"lat": -1.8333, "lng": 127.5125, "id": "354326", "name": "Paramolgus quadrangulus", "sprite": "sp-anchoviella_juruasanga.png", "group": "other", "rarity": 1}, {"lat": -1.8333, "lng": 127.515, "id": "1027021", "name": "Neoasterocheres dysideae", "sprite": "sp-anchoviella_juruasanga.png", "group": "other", "rarity": 1}, {"lat": -2.333, "lng": 127.75, "id": "126304", "name": "Avocet snipe eel", "thumb": "tn_Avinf_u0.jpg", "sprite": "sp-electric_eel.png", "group": "eel", "rarity": 1, "waterType": "Saltwater"}, {"lat": -0.8333, "lng": 128.2, "id": "278550", "name": "Owstonia grammodon", "sprite": "sp-anchoviella_juruasanga.png", "group": "other", "rarity": 1, "waterType": "Saltwater"}, {"lat": -0.025, "lng": 127.1782, "id": "205513", "name": "Distichopora", "sprite": "sp-anchoviella_juruasanga.png", "group": "other", "rarity": 1}, {"lat": -1.85, "lng": 127.567, "id": "215435", "name": "Conus musicus", "sprite": "sp-cowrie_shell.png", "group": "sea_snail", "rarity": 1}, {"lat": -0.9417, "lng": 128.0833, "id": "574230", "name": "Ophiacantha composita", "sprite": "sp-sea_cucumber.png", "group": "starfish", "rarity": 1}, {"lat": -0.083, "lng": 127.45, "id": "507164", "name": "Gari squamosa", "sprite": "sp-blue_mussel.png", "group": "clam_mussel", "rarity": 1}, {"lat": -0.975, "lng": 127.525, "id": "215464", "name": "Conus leopardus", "sprite": "sp-cowrie_shell.png", "group": "sea_snail", "rarity": 1}, {"lat": -1.8333, "lng": 127.5125, "id": "354327", "name": "Paramolgus resectus", "sprite": "sp-anchoviella_juruasanga.png", "group": "other", "rarity": 1}, {"lat": -0.18, "lng": 127.42, "id": "131035", "name": "Protula tubularia", "sprite": "sp-anchoviella_juruasanga.png", "group": "other", "rarity": 1}, {"lat": -1.8585, "lng": 127.5835, "id": "1075042", "name": "Naria erosa", "sprite": "sp-cowrie_shell.png", "group": "sea_snail", "rarity": 1}, {"lat": -0.2767, "lng": 128.4, "id": "107579", "name": "Acanthephyra curtirostris", "sprite": "sp-american_lobster.png", "group": "crab_lobster", "rarity": 1}, {"lat": -1.867, "lng": 127.6, "id": "564720", "name": "Euprotomus aurisdianae", "sprite": "sp-cowrie_shell.png", "group": "sea_snail", "rarity": 1}, {"lat": -2.367, "lng": 126.975, "id": "127800", "name": "Macroconchoecia reticulata", "sprite": "sp-anchoviella_juruasanga.png", "group": "other", "rarity": 1}, {"lat": -0.8333, "lng": 128.2, "id": "105435", "name": "Flaccisagitta hexaptera", "sprite": "sp-anchoviella_juruasanga.png", "group": "other", "rarity": 1}, {"lat": -1.0337, "lng": 128.2328, "id": "217232", "name": "Schizochiton incisus", "sprite": "sp-anchoviella_juruasanga.png", "group": "other", "rarity": 1}, {"lat": -1.075, "lng": 127.877, "id": "128960", "name": "Triconia minuta", "sprite": "sp-anchoviella_juruasanga.png", "group": "other", "rarity": 1}, {"lat": -0.833, "lng": 128.2, "id": "555217", "name": "Bolma bartschii", "sprite": "sp-cowrie_shell.png", "group": "sea_snail", "rarity": 1}, {"lat": -1.9, "lng": 127.6, "id": "135139", "name": "Caryophyllia (Caryophyllia) diomedeae", "sprite": "sp-actiniidae.png", "group": "coral", "rarity": 1}, {"lat": -1.8333, "lng": 127.5137, "id": "350256", "name": "Collocheres comanthiphilus", "sprite": "sp-anchoviella_juruasanga.png", "group": "other", "rarity": 1}, {"lat": -1.867, "lng": 127.6, "id": "137733", "name": "Afrocardium", "sprite": "sp-blue_mussel.png", "group": "clam_mussel", "rarity": 1}, {"lat": -2.3667, "lng": 126.975, "id": "285321", "name": "Proboscidactyla abyssicola", "sprite": "sp-anchoviella_juruasanga.png", "group": "other", "rarity": 1}, {"lat": -0.9856, "lng": 127.4364, "id": "712628", "name": "Gold-specs jawfish", "thumb": "tn_Opran_u4.jpg", "sprite": "sp-anchoviella_juruasanga.png", "group": "other", "rarity": 1, "waterType": "Saltwater"}, {"lat": -0.8333, "lng": 128.2, "id": "278793", "name": "Pallid pearlfish", "thumb": "tn_Pyven_u0.jpg", "sprite": "sp-anchoviella_juruasanga.png", "group": "other", "rarity": 1, "waterType": "Saltwater"}, {"lat": -0.8083, "lng": 126.975, "id": "135205", "name": "Fungiacyathus (Bathyactis) marenzelleri", "sprite": "sp-actiniidae.png", "group": "coral", "rarity": 1}, {"lat": -0.2167, "lng": 129.1083, "id": "275148", "name": "Common dragonfish", "sprite": "sp-anchoviella_juruasanga.png", "group": "other", "rarity": 1, "waterType": "Saltwater"}, {"lat": -0.0083, "lng": 127.2117, "id": "582421", "name": "Radiozoa", "sprite": "sp-anchoviella_juruasanga.png", "group": "other", "rarity": 1}, {"lat": -0.4333, "lng": 129.0033, "id": "126713", "name": "Threadfin smooth-head", "sprite": "sp-anchoviella_juruasanga.png", "group": "other", "rarity": 1, "waterType": "Saltwater"}, {"lat": -1.9085, "lng": 127.6542, "id": "514311", "name": "Nematocarcinus gracilis", "sprite": "sp-american_lobster.png", "group": "crab_lobster", "rarity": 1}, {"lat": -1.54, "lng": 127.3967, "id": "212439", "name": "Parasalenia poehlii", "sprite": "sp-sea_cucumber.png", "group": "starfish", "rarity": 1}, {"lat": -1.867, "lng": 127.6, "id": "716636", "name": "Tenguella granulata", "sprite": "sp-cowrie_shell.png", "group": "sea_snail", "rarity": 1}, {"lat": -0.9417, "lng": 128.0833, "id": "513727", "name": "Stereocidaris sceptriferoides lamellata", "sprite": "sp-sea_cucumber.png", "group": "starfish", "rarity": 1}, {"lat": -0.3469, "lng": 128.8969, "id": "107604", "name": "Systellaspis cristata", "sprite": "sp-american_lobster.png", "group": "crab_lobster", "rarity": 1}, {"lat": -2.39, "lng": 128.11, "id": "714702", "name": "Cymbiola cymbiola", "sprite": "sp-cowrie_shell.png", "group": "sea_snail", "rarity": 1}, {"lat": -1.14, "lng": 128.01, "id": "382952", "name": "Eduarctus martensii", "sprite": "sp-american_lobster.png", "group": "crab_lobster", "rarity": 1}, {"lat": -0.18, "lng": 127.42, "id": "210029", "name": "Dodecaceria fistulicola", "sprite": "sp-anchoviella_juruasanga.png", "group": "other", "rarity": 1}, {"lat": -0.833, "lng": 127.833, "id": "280780", "name": "Sevenfinger threadfin", "thumb": "tn_Fihep_u0.jpg", "sprite": "sp-anchoviella_juruasanga.png", "group": "other", "rarity": 1, "waterType": "Brackish"}, {"lat": -0.8333, "lng": 128.2, "id": "134345", "name": "Leiodermatium pfeifferae", "sprite": "sp-barrel_sponge.png", "group": "sponge", "rarity": 1}, {"lat": -2.3667, "lng": 126.975, "id": "221228", "name": "Eutima orientalis", "sprite": "sp-anchoviella_juruasanga.png", "group": "other", "rarity": 1}, {"lat": -0.475, "lng": 127.75, "id": "392568", "name": "Munidopsis nitida", "sprite": "sp-american_lobster.png", "group": "crab_lobster", "rarity": 1}, {"lat": -1.9, "lng": 127.6, "id": "392092", "name": "Uroptychus levicrustus", "sprite": "sp-american_lobster.png", "group": "crab_lobster", "rarity": 1}, {"lat": -0.3189, "lng": 127.2689, "id": "207031", "name": "Acropora grandis", "sprite": "sp-actiniidae.png", "group": "coral", "rarity": 1}, {"lat": -1.8333, "lng": 127.515, "id": "348604", "name": "Alcyonomolgus relativus", "sprite": "sp-anchoviella_juruasanga.png", "group": "other", "rarity": 1}, {"lat": -0.9417, "lng": 128.0833, "id": "392610", "name": "Munidopsis sinclairi", "sprite": "sp-american_lobster.png", "group": "crab_lobster", "rarity": 1}, {"lat": -2.593, "lng": 128.033, "id": "355942", "name": "Sunaristes tranteri", "sprite": "sp-anchoviella_juruasanga.png", "group": "other", "rarity": 1}, {"lat": -1.8333, "lng": 127.515, "id": "360952", "name": "Parasterocheres cristatus", "sprite": "sp-anchoviella_juruasanga.png", "group": "other", "rarity": 1}, {"lat": -0.61, "lng": 127.25, "id": "476595", "name": "Turritriton tenuiliratus", "sprite": "sp-cowrie_shell.png", "group": "sea_snail", "rarity": 1}, {"lat": -2.593, "lng": 128.033, "id": "534133", "name": "Paraidya major", "sprite": "sp-anchoviella_juruasanga.png", "group": "other", "rarity": 1}, {"lat": -0.7917, "lng": 128.1803, "id": "128799", "name": "Corycaeus crassiusculus", "sprite": "sp-anchoviella_juruasanga.png", "group": "other", "rarity": 1}, {"lat": -0.083, "lng": 127.433, "id": "1335428", "name": "Murichorda fiscellum", "sprite": "sp-cowrie_shell.png", "group": "sea_snail", "rarity": 1}, {"lat": -1.9977, "lng": 127.9989, "id": "716608", "name": "Danafungia horrida", "sprite": "sp-actiniidae.png", "group": "coral", "rarity": 1}, {"lat": -1.867, "lng": 127.6, "id": "745707", "name": "Vexillum sanguisuga", "sprite": "sp-cowrie_shell.png", "group": "sea_snail", "rarity": 1}, {"lat": -1.8333, "lng": 127.515, "id": "356441", "name": "Xarifia gracilipes", "sprite": "sp-anchoviella_juruasanga.png", "group": "other", "rarity": 1}, {"lat": -1.85, "lng": 127.567, "id": "504394", "name": "Barbatia amygdalumtostum", "sprite": "sp-blue_mussel.png", "group": "clam_mussel", "rarity": 1}, {"lat": -0.083, "lng": 127.433, "id": "208048", "name": "Peristernia nassatula", "sprite": "sp-cowrie_shell.png", "group": "sea_snail", "rarity": 1}, {"lat": -2.0833, "lng": 128.2833, "id": "527787", "name": "Arestorides argus", "sprite": "sp-cowrie_shell.png", "group": "sea_snail", "rarity": 1}, {"lat": -1.833, "lng": 127.515, "id": "348472", "name": "Acanthomolgus brevifurca", "sprite": "sp-anchoviella_juruasanga.png", "group": "other", "rarity": 1}, {"lat": -0.475, "lng": 127.75, "id": "514329", "name": "Nematocarcinus subtegulisfactus", "sprite": "sp-american_lobster.png", "group": "crab_lobster", "rarity": 1}, {"lat": -0.025, "lng": 127.1783, "id": "888140", "name": "Lobophyllia recta", "sprite": "sp-actiniidae.png", "group": "coral", "rarity": 1}, {"lat": -1.883, "lng": 126.65, "id": "127813", "name": "Metaconchoecia rotundata", "sprite": "sp-anchoviella_juruasanga.png", "group": "other", "rarity": 1}, {"lat": -0.9408, "lng": 128.0817, "id": "287087", "name": "Fungiacyathus (Fungiacyathus) stephanus", "sprite": "sp-actiniidae.png", "group": "coral", "rarity": 1}, {"lat": -2.35, "lng": 127.171, "id": "127768", "name": "Conchoecetta acuminata", "sprite": "sp-anchoviella_juruasanga.png", "group": "other", "rarity": 1}, {"lat": -0.27, "lng": 127.5, "id": "366892", "name": "Propagurus haigae", "sprite": "sp-american_lobster.png", "group": "crab_lobster", "rarity": 1}, {"lat": -0.7717, "lng": 129.0533, "id": "126749", "name": "Koefoed's searsid", "thumb": "tn_Sekoe_u0.jpg", "sprite": "sp-anchoviella_juruasanga.png", "group": "other", "rarity": 1, "waterType": "Saltwater"}, {"lat": -1.8333, "lng": 127.5089, "id": "348290", "name": "Molucomes ovatus", "sprite": "sp-anchoviella_juruasanga.png", "group": "other", "rarity": 1}, {"lat": -0.833, "lng": 127.833, "id": "126989", "name": "Goldband goatfish", "thumb": "tn_Upmol_u0.jpg", "sprite": "sp-anchoviella_juruasanga.png", "group": "other", "rarity": 1, "waterType": "Brackish"}, {"lat": -1.8333, "lng": 127.515, "id": "354348", "name": "Parandrianellus annulatus", "sprite": "sp-anchoviella_juruasanga.png", "group": "other", "rarity": 1}, {"lat": -2.0, "lng": 128.0, "id": "289346", "name": "Actinodendron arboreum", "sprite": "sp-actiniidae.png", "group": "coral", "rarity": 1}, {"lat": -0.65, "lng": 128.332, "id": "129054", "name": "Sapphirina opalina", "sprite": "sp-anchoviella_juruasanga.png", "group": "other", "rarity": 1}, {"lat": -0.0971, "lng": 128.5146, "id": "107592", "name": "Janicella spinicauda", "sprite": "sp-american_lobster.png", "group": "crab_lobster", "rarity": 1}, {"lat": -0.9803, "lng": 127.3037, "id": "883", "name": "Polychaeta", "sprite": "sp-anchoviella_juruasanga.png", "group": "other", "rarity": 1}, {"lat": -1.33, "lng": 128.1084, "id": "221207", "name": "Protiaropsis anonyma", "sprite": "sp-anchoviella_juruasanga.png", "group": "other", "rarity": 1}, {"lat": -1.867, "lng": 127.6, "id": "413413", "name": "Lunella cinerea", "sprite": "sp-cowrie_shell.png", "group": "sea_snail", "rarity": 1}, {"lat": -1.8333, "lng": 127.5137, "id": "358330", "name": "Doridicola aculeatus", "sprite": "sp-anchoviella_juruasanga.png", "group": "other", "rarity": 1}, {"lat": -0.94, "lng": 128.32, "id": "129750", "name": "Alciopina parasitica", "sprite": "sp-anchoviella_juruasanga.png", "group": "other", "rarity": 1}, {"lat": -2.3667, "lng": 126.975, "id": "126538", "name": "Triplewart seadevil", "thumb": "tn_Crcou_u0.gif", "sprite": "sp-deep_sea_anglerfish.png", "group": "anglerfish", "rarity": 1, "waterType": "Saltwater"}, {"lat": -0.1833, "lng": 127.47, "id": "286768", "name": "Caryophyllia (Acanthocyathus) spinicarens", "sprite": "sp-actiniidae.png", "group": "coral", "rarity": 1}, {"lat": -1.8333, "lng": 127.515, "id": "207246", "name": "Porites lutea", "sprite": "sp-actiniidae.png", "group": "coral", "rarity": 1}, {"lat": -1.867, "lng": 127.6, "id": "408054", "name": "Vitularia miliaris", "sprite": "sp-cowrie_shell.png", "group": "sea_snail", "rarity": 1}, {"lat": -1.2723, "lng": 127.5443, "id": "216872", "name": "Mauritia arabica", "sprite": "sp-cowrie_shell.png", "group": "sea_snail", "rarity": 1}, {"lat": -1.833, "lng": 127.515, "id": "350115", "name": "Chorioxynus moluccensis", "sprite": "sp-anchoviella_juruasanga.png", "group": "other", "rarity": 1}, {"lat": -1.867, "lng": 127.6, "id": "564239", "name": "Oxymeris areolata", "sprite": "sp-cowrie_shell.png", "group": "sea_snail", "rarity": 1}, {"lat": -0.0083, "lng": 127.2117, "id": "1078", "name": "Ostracoda", "sprite": "sp-anchoviella_juruasanga.png", "group": "other", "rarity": 1}, {"lat": -1.3894, "lng": 128.9172, "id": "444940", "name": "Macrophthalmus (Macrophthalmus) convexus", "sprite": "sp-american_lobster.png", "group": "crab_lobster", "rarity": 1}, {"lat": -1.7333, "lng": 128.0, "id": "137938", "name": "Cirsotrema", "sprite": "sp-cowrie_shell.png", "group": "sea_snail", "rarity": 1}, {"lat": -1.8683, "lng": 126.9383, "id": "1525960", "name": "Spiny lantern fish", "thumb": "tn_Myspi_u1.gif", "sprite": "sp-anchoviella_juruasanga.png", "group": "other", "rarity": 1, "waterType": "Saltwater"}, {"lat": -1.54, "lng": 127.3833, "id": "212318", "name": "Nardoa tuberculata", "sprite": "sp-sea_cucumber.png", "group": "starfish", "rarity": 1}, {"lat": -1.6835, "lng": 127.196, "id": "176562", "name": "Orthoconchoecia striola", "sprite": "sp-anchoviella_juruasanga.png", "group": "other", "rarity": 1}, {"lat": -2.0, "lng": 128.0, "id": "426372", "name": "Conus aurisiacus", "sprite": "sp-cowrie_shell.png", "group": "sea_snail", "rarity": 1}, {"lat": -1.7333, "lng": 128.0, "id": "138603", "name": "Bolma", "sprite": "sp-cowrie_shell.png", "group": "sea_snail", "rarity": 1}, {"lat": -0.0783, "lng": 127.2433, "id": "213362", "name": "Clypeaster reticulatus", "sprite": "sp-sea_cucumber.png", "group": "starfish", "rarity": 1}, {"lat": -0.695, "lng": 128.9283, "id": "282735", "name": "Searsioides calvala", "sprite": "sp-anchoviella_juruasanga.png", "group": "other", "rarity": 1, "waterType": "Saltwater"}, {"lat": -1.8908, "lng": 127.65, "id": "286106", "name": "Chrysogorgia chryseis", "sprite": "sp-actiniidae.png", "group": "coral", "rarity": 1}, {"lat": -1.9167, "lng": 127.7083, "id": "714399", "name": "Thalassocrinus pontifer", "sprite": "sp-sea_cucumber.png", "group": "starfish", "rarity": 1}, {"lat": -0.29, "lng": 129.24, "id": "129764", "name": "Vanadis crystallina", "sprite": "sp-anchoviella_juruasanga.png", "group": "other", "rarity": 1}, {"lat": -0.18, "lng": 127.42, "id": "209945", "name": "Spirobranchus latiscapus", "sprite": "sp-anchoviella_juruasanga.png", "group": "other", "rarity": 1}, {"lat": -2.3667, "lng": 126.975, "id": "117267", "name": "Solmundella bitentaculata", "sprite": "sp-anchoviella_juruasanga.png", "group": "other", "rarity": 1}, {"lat": -2.367, "lng": 126.975, "id": "127775", "name": "Conchoecia subarcuata", "sprite": "sp-anchoviella_juruasanga.png", "group": "other", "rarity": 1}, {"lat": -1.8333, "lng": 127.5137, "id": "360484", "name": "Scambicornus idoneus", "sprite": "sp-anchoviella_juruasanga.png", "group": "other", "rarity": 1}, {"lat": -0.5, "lng": 127.0, "id": "1", "name": "Biota", "sprite": "sp-anchoviella_juruasanga.png", "group": "other", "rarity": 1}, {"lat": -1.54, "lng": 127.3967, "id": "117246", "name": "Stylaster", "sprite": "sp-anchoviella_juruasanga.png", "group": "other", "rarity": 1}, {"lat": -1.9, "lng": 127.253, "id": "127733", "name": "Alacia leptothrix", "sprite": "sp-anchoviella_juruasanga.png", "group": "other", "rarity": 1}, {"lat": -0.39, "lng": 127.48, "id": "440443", "name": "Ethusa indica", "sprite": "sp-american_lobster.png", "group": "crab_lobster", "rarity": 1}, {"lat": -0.65, "lng": 128.332, "id": "346476", "name": "Farranula concinna", "sprite": "sp-anchoviella_juruasanga.png", "group": "other", "rarity": 1}]}