{"zoom": 7, "x": 10, "y": 49, "points": [{"lat": 37.123, "lng": -149.505, "id": "126626", "name": "Pearly lanternfish", "thumb": "tn_Mynit_u0.jpg", "sprite": "sp-anchoviella_juruasanga.png", "group": "other", "rarity": 1, "waterType": "Saltwater"}, {"lat": 38.4238, "lng": -150.8942, "id": "254974", "name": "Eubalaena japonica", "sprite": "sp-blue_whale.png", "group": "whale", "rarity": 1}, {"lat": 37.03, "lng": -151.8, "id": "2688", "name": "Cetacea", "sprite": "sp-anchoviella_juruasanga.png", "group": "other", "rarity": 1}, {"lat": 37.1864, "lng": -150.7887, "id": "344104", "name": "Phoebastria immutabilis", "sprite": "sp-anchoviella_juruasanga.png", "group": "other", "rarity": 1}, {"lat": 38.64, "lng": -151.2, "id": "137119", "name": "Physeter macrocephalus", "sprite": "sp-blue_whale.png", "group": "whale", "rarity": 1}, {"lat": 38.5, "lng": -150.5, "id": "137202", "name": "Puffinus griseus", "sprite": "sp-anchoviella_juruasanga.png", "group": "other", "rarity": 1}, {"lat": 37.48, "lng": -151.63, "id": "254987", "name": "Phocoenoides dalli", "sprite": "sp-bottlenose_dolphin.png", "group": "dolphin", "rarity": 1}, {"lat": 37.9, "lng": -150.3, "id": "255018", "name": "Mirounga angustirostris", "sprite": "sp-elephant_seal.png", "group": "seal", "rarity": 1}, {"lat": 37.275, "lng": -151.77, "id": "254997", "name": "Callorhinus ursinus", "sprite": "sp-elephant_seal.png", "group": "seal", "rarity": 1}, {"lat": 37.3781, "lng": -150.5144, "id": "344106", "name": "Phoebastria nigripes", "sprite": "sp-anchoviella_juruasanga.png", "group": "other", "rarity": 1}, {"lat": 37.9572, "lng": -150.6096, "id": "137205", "name": "Caretta caretta", "sprite": "sp-green_sea_turtle.png", "group": "sea_turtle", "rarity": 1}, {"lat": 37.123, "lng": -149.505, "id": "272656", "name": "Dogtooth lampfish", "sprite": "sp-anchoviella_juruasanga.png", "group": "other", "rarity": 1, "waterType": "Saltwater"}, {"lat": 37.123, "lng": -149.505, "id": "1525495", "name": "Bluntsnout lanternfish", "thumb": "tn_Myobt_u0.jpg", "sprite": "sp-anchoviella_juruasanga.png", "group": "other", "rarity": 1, "waterType": "Saltwater"}, {"lat": 37.29, "lng": -150.97, "id": "225986", "name": "Puffinus bulleri", "sprite": "sp-anchoviella_juruasanga.png", "group": "other", "rarity": 1}, {"lat": 37.02, "lng": -151.86, "id": "1571909", "name": "Sagmatias obliquidens", "sprite": "sp-bottlenose_dolphin.png", "group": "dolphin", "rarity": 1}]}