{"zoom": 7, "x": 112, "y": 47, "points": [{"lat": 41.4168, "lng": 136.6418, "id": "985165", "name": "Rhizosolenia fragilissima f. fragilissima", "sprite": "sp-anchoviella_juruasanga.png", "group": "other", "rarity": 1}, {"lat": 41.4168, "lng": 137.6418, "id": "745865", "name": "Paracalanus parvus parvus", "sprite": "sp-anchoviella_juruasanga.png", "group": "other", "rarity": 1}, {"lat": 42.8986, "lng": 135.4795, "id": "247598", "name": "Paratyphlotanais japonicus", "sprite": "sp-american_lobster.png", "group": "crab_lobster", "rarity": 1}, {"lat": 43.0191, "lng": 135.1042, "id": "152391", "name": "Nemertea", "sprite": "sp-anchoviella_juruasanga.png", "group": "other", "rarity": 1}, {"lat": 41.4168, "lng": 136.6418, "id": "101421", "name": "Phrosinidae", "sprite": "sp-american_lobster.png", "group": "crab_lobster", "rarity": 1}, {"lat": 41.4168, "lng": 136.6418, "id": "232376", "name": "Prorocentrum cordatum", "sprite": "sp-anchoviella_juruasanga.png", "group": "other", "rarity": 1}, {"lat": 41.4168, "lng": 137.4332, "id": "103413", "name": "Oikopleura (Vexillaria) labradoriensis", "sprite": "sp-anchoviella_juruasanga.png", "group": "other", "rarity": 1}, {"lat": 41.4, "lng": 137.1709, "id": "220834", "name": "Canthocalanus pauper", "sprite": "sp-anchoviella_juruasanga.png", "group": "other", "rarity": 1}, {"lat": 41.4167, "lng": 136.6417, "id": "961819", "name": "Chaetoceros laciniosum", "sprite": "sp-anchoviella_juruasanga.png", "group": "other", "rarity": 1}, {"lat": 42.6429, "lng": 135.9104, "id": "1268", "name": "Sipuncula", "sprite": "sp-anchoviella_juruasanga.png", "group": "other", "rarity": 1}, {"lat": 41.4167, "lng": 136.6417, "id": "980584", "name": "Chaetoceros convolutum", "sprite": "sp-anchoviella_juruasanga.png", "group": "other", "rarity": 1}, {"lat": 43.0333, "lng": 135.0667, "id": "152893", "name": "Parathyasira", "sprite": "sp-blue_mussel.png", "group": "clam_mussel", "rarity": 1}, {"lat": 41.4168, "lng": 136.6418, "id": "109545", "name": "Scrippsiella", "sprite": "sp-anchoviella_juruasanga.png", "group": "other", "rarity": 1}, {"lat": 41.4167, "lng": 137.0375, "id": "13703", "name": "Thecosomata", "sprite": "sp-cowrie_shell.png", "group": "sea_snail", "rarity": 1}, {"lat": 41.4131, "lng": 136.8186, "id": "104517", "name": "Pseudocalanus minutus", "sprite": "sp-anchoviella_juruasanga.png", "group": "other", "rarity": 1}, {"lat": 41.4132, "lng": 136.585, "id": "149093", "name": "Thalassionema nitzschioides", "sprite": "sp-anchoviella_juruasanga.png", "group": "other", "rarity": 1}, {"lat": 41.4168, "lng": 136.6418, "id": "149629", "name": "Rhizosolenia styliformis", "sprite": "sp-anchoviella_juruasanga.png", "group": "other", "rarity": 1}, {"lat": 41.4127, "lng": 136.9521, "id": "196775", "name": "Eucalanus bungii", "sprite": "sp-anchoviella_juruasanga.png", "group": "other", "rarity": 1}, {"lat": 41.4168, "lng": 137.0375, "id": "104190", "name": "Metridia", "sprite": "sp-anchoviella_juruasanga.png", "group": "other", "rarity": 1}, {"lat": 41.417, "lng": 137.433, "id": "673665", "name": "Chaetoceros peruvianus var. gracilis", "sprite": "sp-anchoviella_juruasanga.png", "group": "other", "rarity": 1}, {"lat": 42.5594, "lng": 136.2902, "id": "408438", "name": "Cardiomya behringensis", "sprite": "sp-blue_mussel.png", "group": "clam_mussel", "rarity": 1}, {"lat": 41.4168, "lng": 136.6418, "id": "110217", "name": "Protoperidinium depressum", "sprite": "sp-anchoviella_juruasanga.png", "group": "other", "rarity": 1}, {"lat": 43.0184, "lng": 135.2878, "id": "129717", "name": "Terebellides", "sprite": "sp-anchoviella_juruasanga.png", "group": "other", "rarity": 1}, {"lat": 41.4, "lng": 137.1708, "id": "110321", "name": "Protoceratium reticulatum", "sprite": "sp-anchoviella_juruasanga.png", "group": "other", "rarity": 1}, {"lat": 41.4168, "lng": 136.6418, "id": "105434", "name": "Flaccisagitta enflata", "sprite": "sp-anchoviella_juruasanga.png", "group": "other", "rarity": 1}, {"lat": 41.3832, "lng": 137.7, "id": "109491", "name": "Warnowia", "sprite": "sp-anchoviella_juruasanga.png", "group": "other", "rarity": 1}, {"lat": 41.4168, "lng": 137.4332, "id": "162810", "name": "Actinocyclus senarius", "sprite": "sp-anchoviella_juruasanga.png", "group": "other", "rarity": 1}, {"lat": 43.0184, "lng": 135.2878, "id": "932330", "name": "Cephalothrix iwatai", "sprite": "sp-anchoviella_juruasanga.png", "group": "other", "rarity": 1}, {"lat": 41.4168, "lng": 136.6418, "id": "196784", "name": "Metridia pacifica", "sprite": "sp-anchoviella_juruasanga.png", "group": "other", "rarity": 1}, {"lat": 41.0493, "lng": 136.105, "id": "615435", "name": "Helicosphaera carteri", "sprite": "sp-anchoviella_juruasanga.png", "group": "other", "rarity": 1}, {"lat": 42.5594, "lng": 136.2902, "id": "407519", "name": "Cuspidaria ascoldica", "sprite": "sp-blue_mussel.png", "group": "clam_mussel", "rarity": 1}, {"lat": 41.4168, "lng": 136.6418, "id": "1346683", "name": "Kryptoperidinium triquetrum", "sprite": "sp-anchoviella_juruasanga.png", "group": "other", "rarity": 1}, {"lat": 42.3607, "lng": 136.2647, "id": "1080", "name": "Copepoda", "sprite": "sp-anchoviella_juruasanga.png", "group": "other", "rarity": 1}, {"lat": 41.415, "lng": 136.6133, "id": "846675", "name": "Bacteriastrum elongatum var. diversum", "sprite": "sp-anchoviella_juruasanga.png", "group": "other", "rarity": 1}, {"lat": 41.4168, "lng": 136.6418, "id": "137750", "name": "Cavolinia", "sprite": "sp-cowrie_shell.png", "group": "sea_snail", "rarity": 1}, {"lat": 41.4106, "lng": 136.9754, "id": "850801", "name": "Metridia lucens lucens", "sprite": "sp-anchoviella_juruasanga.png", "group": "other", "rarity": 1}, {"lat": 41.4107, "lng": 136.8088, "id": "104174", "name": "Euchaeta", "sprite": "sp-anchoviella_juruasanga.png", "group": "other", "rarity": 1}, {"lat": 41.4168, "lng": 136.6418, "id": "418487", "name": "Bacteriastrum mediterraneum", "sprite": "sp-anchoviella_juruasanga.png", "group": "other", "rarity": 1}, {"lat": 41.4106, "lng": 136.8086, "id": "196874", "name": "Paraeuchaeta", "sprite": "sp-anchoviella_juruasanga.png", "group": "other", "rarity": 1}, {"lat": 41.4168, "lng": 136.6418, "id": "345881", "name": "Pterosperma vanhoeffenii", "sprite": "sp-anchoviella_juruasanga.png", "group": "other", "rarity": 1}, {"lat": 41.4084, "lng": 136.9064, "id": "840626", "name": "Tripos fusus", "sprite": "sp-anchoviella_juruasanga.png", "group": "other", "rarity": 1}, {"lat": 41.415, "lng": 136.6134, "id": "148985", "name": "Chaetoceros", "sprite": "sp-anchoviella_juruasanga.png", "group": "other", "rarity": 1}, {"lat": 41.415, "lng": 136.6134, "id": "115075", "name": "Meringosphaera", "sprite": "sp-anchoviella_juruasanga.png", "group": "other", "rarity": 1}, {"lat": 41.4168, "lng": 136.6418, "id": "111929", "name": "Globigerinidae", "sprite": "sp-anchoviella_juruasanga.png", "group": "other", "rarity": 1}, {"lat": 43.021, "lng": 135.4386, "id": "1599682", "name": "Starkus simplex", "sprite": "sp-american_lobster.png", "group": "crab_lobster", "rarity": 1}, {"lat": 41.417, "lng": 136.642, "id": "178738", "name": "[unassigned] Enteropneusta", "sprite": "sp-anchoviella_juruasanga.png", "group": "other", "rarity": 1}, {"lat": 41.3832, "lng": 137.7, "id": "131581", "name": "Travisiopsis lobifera", "sprite": "sp-anchoviella_juruasanga.png", "group": "other", "rarity": 1}, {"lat": 41.4132, "lng": 136.585, "id": "149106", "name": "Leptocylindrus danicus", "sprite": "sp-anchoviella_juruasanga.png", "group": "other", "rarity": 1}, {"lat": 41.4132, "lng": 136.585, "id": "232598", "name": "Pyrophacus horologium", "sprite": "sp-anchoviella_juruasanga.png", "group": "other", "rarity": 1}, {"lat": 41.4168, "lng": 136.6418, "id": "1310442", "name": "Octactis speculum", "sprite": "sp-anchoviella_juruasanga.png", "group": "other", "rarity": 1}, {"lat": 43.029, "lng": 135.0939, "id": "411", "name": "Aplacophora", "sprite": "sp-anchoviella_juruasanga.png", "group": "other", "rarity": 1}, {"lat": 41.415, "lng": 136.6135, "id": "156617", "name": "Chaetoceros lorenzianus", "sprite": "sp-anchoviella_juruasanga.png", "group": "other", "rarity": 1}, {"lat": 41.4107, "lng": 136.8088, "id": "963482", "name": "Nitzschia closterium", "sprite": "sp-anchoviella_juruasanga.png", "group": "other", "rarity": 1}, {"lat": 41.415, "lng": 136.6135, "id": "149129", "name": "Chaetoceros compressus", "sprite": "sp-anchoviella_juruasanga.png", "group": "other", "rarity": 1}, {"lat": 41.4168, "lng": 136.6418, "id": "149224", "name": "Rhizosolenia stolterfothii", "sprite": "sp-anchoviella_juruasanga.png", "group": "other", "rarity": 1}, {"lat": 41.6333, "lng": 137.1333, "id": "1803", "name": "Brachiopoda", "sprite": "sp-anchoviella_juruasanga.png", "group": "other", "rarity": 1}, {"lat": 41.4106, "lng": 136.8086, "id": "149004", "name": "Cylindrotheca closterium", "sprite": "sp-anchoviella_juruasanga.png", "group": "other", "rarity": 1}, {"lat": 41.4, "lng": 137.1709, "id": "104229", "name": "Scolecithricella", "sprite": "sp-anchoviella_juruasanga.png", "group": "other", "rarity": 1}, {"lat": 41.4139, "lng": 136.8205, "id": "148899", "name": "Bacillariophyceae", "sprite": "sp-anchoviella_juruasanga.png", "group": "other", "rarity": 1}, {"lat": 43.0184, "lng": 135.2878, "id": "226775", "name": "Pseudomma okiyamai", "sprite": "sp-american_lobster.png", "group": "crab_lobster", "rarity": 1}, {"lat": 42.4978, "lng": 135.6571, "id": "225934", "name": "Numenius madagascariensis", "sprite": "sp-anchoviella_juruasanga.png", "group": "other", "rarity": 1}, {"lat": 41.4132, "lng": 136.585, "id": "149070", "name": "Rhizosolenia hebetata", "sprite": "sp-anchoviella_juruasanga.png", "group": "other", "rarity": 1}, {"lat": 41.4044, "lng": 136.9756, "id": "117849", "name": "Aglantha digitale", "sprite": "sp-anchoviella_juruasanga.png", "group": "other", "rarity": 1}, {"lat": 43.024, "lng": 135.2349, "id": "123084", "name": "Ophiuroidea", "sprite": "sp-sea_cucumber.png", "group": "starfish", "rarity": 1}, {"lat": 41.4168, "lng": 136.6418, "id": "110245", "name": "Protoperidinium pellucidum", "sprite": "sp-anchoviella_juruasanga.png", "group": "other", "rarity": 1}, {"lat": 41.4168, "lng": 136.6418, "id": "109553", "name": "Protoperidinium", "sprite": "sp-anchoviella_juruasanga.png", "group": "other", "rarity": 1}, {"lat": 41.4168, "lng": 137.6418, "id": "109921", "name": "Noctiluca scintillans", "sprite": "sp-anchoviella_juruasanga.png", "group": "other", "rarity": 1}, {"lat": 41.4043, "lng": 136.9757, "id": "19542", "name": "Dinophyceae", "sprite": "sp-anchoviella_juruasanga.png", "group": "other", "rarity": 1}, {"lat": 41.4169, "lng": 137.6419, "id": "156645", "name": "Rhizosolenia gracillima", "sprite": "sp-anchoviella_juruasanga.png", "group": "other", "rarity": 1}, {"lat": 41.413, "lng": 136.585, "id": "138007", "name": "Fiona", "sprite": "sp-cowrie_shell.png", "group": "sea_snail", "rarity": 1}, {"lat": 43.0191, "lng": 135.1042, "id": "130344", "name": "Aglaophamus malmgreni", "sprite": "sp-anchoviella_juruasanga.png", "group": "other", "rarity": 1}, {"lat": 41.4168, "lng": 137.4332, "id": "233592", "name": "Lingulodinium polyedra", "sprite": "sp-anchoviella_juruasanga.png", "group": "other", "rarity": 1}, {"lat": 43.0333, "lng": 135.0667, "id": "101060", "name": "Kinorhyncha", "sprite": "sp-anchoviella_juruasanga.png", "group": "other", "rarity": 1}, {"lat": 43.019, "lng": 135.3377, "id": "1048753", "name": "Edwardsia sojabio", "sprite": "sp-actiniidae.png", "group": "coral", "rarity": 1}, {"lat": 41.8555, "lng": 136.42, "id": "1078", "name": "Ostracoda", "sprite": "sp-anchoviella_juruasanga.png", "group": "other", "rarity": 1}, {"lat": 43.0272, "lng": 135.2526, "id": "1337", "name": "Hydrozoa", "sprite": "sp-anchoviella_juruasanga.png", "group": "other", "rarity": 1}, {"lat": 41.4167, "lng": 136.6417, "id": "968579", "name": "Chaetoceros atlanticum", "sprite": "sp-anchoviella_juruasanga.png", "group": "other", "rarity": 1}, {"lat": 43.0178, "lng": 135.4713, "id": "932329", "name": "Micrura bathyalis", "sprite": "sp-anchoviella_juruasanga.png", "group": "other", "rarity": 1}, {"lat": 41.4135, "lng": 136.8699, "id": "148898", "name": "Bacillariophyta", "sprite": "sp-anchoviella_juruasanga.png", "group": "other", "rarity": 1}, {"lat": 43.021, "lng": 135.4386, "id": "123082", "name": "Echinoidea", "sprite": "sp-sea_cucumber.png", "group": "starfish", "rarity": 1}, {"lat": 42.0972, "lng": 136.2445, "id": "1135", "name": "Amphipoda", "sprite": "sp-american_lobster.png", "group": "crab_lobster", "rarity": 1}, {"lat": 41.4168, "lng": 136.6418, "id": "764943", "name": "Ditrichocorycaeus affinis", "sprite": "sp-anchoviella_juruasanga.png", "group": "other", "rarity": 1}, {"lat": 41.4168, "lng": 136.6418, "id": "103356", "name": "Oikopleuridae", "sprite": "sp-anchoviella_juruasanga.png", "group": "other", "rarity": 1}, {"lat": 41.3833, "lng": 137.7, "id": "149168", "name": "Proboscia alata", "sprite": "sp-anchoviella_juruasanga.png", "group": "other", "rarity": 1}, {"lat": 41.4167, "lng": 136.975, "id": "196779", "name": "Paraeuchaeta elongata", "sprite": "sp-anchoviella_juruasanga.png", "group": "other", "rarity": 1}, {"lat": 41.4168, "lng": 136.6418, "id": "103273", "name": "Phrosina semilunata", "sprite": "sp-american_lobster.png", "group": "crab_lobster", "rarity": 1}, {"lat": 41.4168, "lng": 136.6418, "id": "110316", "name": "Prorocentrum triestinum", "sprite": "sp-anchoviella_juruasanga.png", "group": "other", "rarity": 1}, {"lat": 43.0191, "lng": 135.1042, "id": "1048802", "name": "Ziminella japonica", "sprite": "sp-cowrie_shell.png", "group": "sea_snail", "rarity": 1}, {"lat": 41.4127, "lng": 136.9521, "id": "196772", "name": "Neocalanus plumchrus", "sprite": "sp-anchoviella_juruasanga.png", "group": "other", "rarity": 1}, {"lat": 43.025, "lng": 135.25, "id": "794", "name": "Turbellaria", "sprite": "sp-anchoviella_juruasanga.png", "group": "other", "rarity": 1}, {"lat": 43.0191, "lng": 135.1042, "id": "130103", "name": "Flabelligera affinis", "sprite": "sp-anchoviella_juruasanga.png", "group": "other", "rarity": 1}, {"lat": 41.4, "lng": 137.1709, "id": "109549", "name": "Peridinium", "sprite": "sp-anchoviella_juruasanga.png", "group": "other", "rarity": 1}, {"lat": 43.0191, "lng": 135.1042, "id": "599538", "name": "Mnestia", "sprite": "sp-cowrie_shell.png", "group": "sea_snail", "rarity": 1}, {"lat": 43.0167, "lng": 135.4333, "id": "123080", "name": "Asteroidea", "sprite": "sp-sea_cucumber.png", "group": "starfish", "rarity": 1}, {"lat": 41.417, "lng": 136.642, "id": "103354", "name": "Fritillariidae", "sprite": "sp-anchoviella_juruasanga.png", "group": "other", "rarity": 1}, {"lat": 41.4168, "lng": 136.6418, "id": "149219", "name": "Chaetoceros debilis", "sprite": "sp-anchoviella_juruasanga.png", "group": "other", "rarity": 1}, {"lat": 41.4168, "lng": 136.6418, "id": "138122", "name": "Limacina", "sprite": "sp-cowrie_shell.png", "group": "sea_snail", "rarity": 1}, {"lat": 41.415, "lng": 136.6135, "id": "149119", "name": "Bacteriastrum hyalinum", "sprite": "sp-anchoviella_juruasanga.png", "group": "other", "rarity": 1}, {"lat": 43.0191, "lng": 135.1042, "id": "129602", "name": "Sphaerodorum", "sprite": "sp-anchoviella_juruasanga.png", "group": "other", "rarity": 1}, {"lat": 41.4127, "lng": 136.9521, "id": "105440", "name": "Parasagitta elegans", "sprite": "sp-anchoviella_juruasanga.png", "group": "other", "rarity": 1}, {"lat": 43.025, "lng": 135.2663, "id": "123083", "name": "Holothuroidea", "sprite": "sp-sea_cucumber.png", "group": "starfish", "rarity": 1}, {"lat": 42.8333, "lng": 135.6303, "id": "1131", "name": "Isopoda", "sprite": "sp-american_lobster.png", "group": "crab_lobster", "rarity": 1}, {"lat": 41.4168, "lng": 137.4332, "id": "1082", "name": "Cirripedia", "sprite": "sp-anchoviella_juruasanga.png", "group": "other", "rarity": 1}, {"lat": 42.2629, "lng": 136.7181, "id": "1762", "name": "Nudibranchia", "sprite": "sp-cowrie_shell.png", "group": "sea_snail", "rarity": 1}, {"lat": 41.417, "lng": 136.642, "id": "149288", "name": "Chaetoceros atlanticus", "sprite": "sp-anchoviella_juruasanga.png", "group": "other", "rarity": 1}, {"lat": 41.4168, "lng": 136.6418, "id": "135441", "name": "Muggiaea atlantica", "sprite": "sp-anchoviella_juruasanga.png", "group": "other", "rarity": 1}, {"lat": 41.417, "lng": 136.642, "id": "149228", "name": "Chaetoceros laciniosus", "sprite": "sp-anchoviella_juruasanga.png", "group": "other", "rarity": 1}, {"lat": 41.6333, "lng": 137.1333, "id": "123117", "name": "Ophiurida", "sprite": "sp-sea_cucumber.png", "group": "starfish", "rarity": 1}, {"lat": 41.4168, "lng": 136.6418, "id": "157052", "name": "Mastogloia", "sprite": "sp-anchoviella_juruasanga.png", "group": "other", "rarity": 1}, {"lat": 41.4607, "lng": 136.8912, "id": "1128", "name": "Euphausiacea", "sprite": "sp-antarctic_krill.png", "group": "shrimp", "rarity": 1}, {"lat": 41.4075, "lng": 136.8922, "id": "178185", "name": "Chaetoceros peruvianus", "sprite": "sp-anchoviella_juruasanga.png", "group": "other", "rarity": 1}, {"lat": 41.4168, "lng": 136.6418, "id": "155459", "name": "Sagitella kowalewskii", "sprite": "sp-anchoviella_juruasanga.png", "group": "other", "rarity": 1}, {"lat": 41.4168, "lng": 136.6418, "id": "101796", "name": "Hyperia", "sprite": "sp-american_lobster.png", "group": "crab_lobster", "rarity": 1}, {"lat": 41.4156, "lng": 136.6228, "id": "115059", "name": "Coccosphaerales", "sprite": "sp-anchoviella_juruasanga.png", "group": "other", "rarity": 1}, {"lat": 43.0184, "lng": 135.2878, "id": "129613", "name": "Laonice", "sprite": "sp-anchoviella_juruasanga.png", "group": "other", "rarity": 1}, {"lat": 43.024, "lng": 135.0991, "id": "139553", "name": "Diaphana hiemalis", "sprite": "sp-cowrie_shell.png", "group": "sea_snail", "rarity": 1}, {"lat": 41.4168, "lng": 137.6418, "id": "109986", "name": "Ceratocorys horrida", "sprite": "sp-anchoviella_juruasanga.png", "group": "other", "rarity": 1}, {"lat": 41.4168, "lng": 137.6418, "id": "149152", "name": "Pseudo-nitzschia seriata", "sprite": "sp-anchoviella_juruasanga.png", "group": "other", "rarity": 1}, {"lat": 41.4168, "lng": 136.6418, "id": "233175", "name": "Protoperidinium marukawai", "sprite": "sp-anchoviella_juruasanga.png", "group": "other", "rarity": 1}, {"lat": 42.5594, "lng": 136.2902, "id": "183171", "name": "Garveia arborea", "sprite": "sp-anchoviella_juruasanga.png", "group": "other", "rarity": 1}]}