{"zoom": 7, "x": 112, "y": 56, "points": [{"lat": 20.5462, "lng": 136.9925, "id": "162258", "name": "Asteromphalus heptactis", "sprite": "sp-anchoviella_juruasanga.png", "group": "other", "rarity": 1}, {"lat": 20.5167, "lng": 136.9875, "id": "149220", "name": "Asterionella japonica", "sprite": "sp-anchoviella_juruasanga.png", "group": "other", "rarity": 1}, {"lat": 20.4992, "lng": 137.0, "id": "164108", "name": "Bacteriastrum delicatulum", "sprite": "sp-anchoviella_juruasanga.png", "group": "other", "rarity": 1}, {"lat": 20.5085, "lng": 137.0, "id": "160521", "name": "Chaetoceros eibenii", "sprite": "sp-anchoviella_juruasanga.png", "group": "other", "rarity": 1}, {"lat": 20.4167, "lng": 136.0833, "id": "758240", "name": "Dipsastraea matthaii", "sprite": "sp-actiniidae.png", "group": "coral", "rarity": 1}, {"lat": 20.5063, "lng": 136.9969, "id": "157431", "name": "Chaetoceros diversus", "sprite": "sp-anchoviella_juruasanga.png", "group": "other", "rarity": 1}, {"lat": 20.0923, "lng": 137.0145, "id": "125608", "name": "Diodontidae", "sprite": "sp-fahaka_pufferfish.png", "group": "pufferfish", "rarity": 1}, {"lat": 20.5485, "lng": 136.993, "id": "248065", "name": "Chaetoceros pendulus", "sprite": "sp-anchoviella_juruasanga.png", "group": "other", "rarity": 1}, {"lat": 20.4915, "lng": 137.0415, "id": "160529", "name": "Nitzschia pungens", "sprite": "sp-anchoviella_juruasanga.png", "group": "other", "rarity": 1}, {"lat": 20.4862, "lng": 136.9994, "id": "148912", "name": "Thalassiosira", "sprite": "sp-anchoviella_juruasanga.png", "group": "other", "rarity": 1}, {"lat": 20.0923, "lng": 137.0145, "id": "126863", "name": "Escolar", "thumb": "tn_Lefla_u1.jpg", "sprite": "sp-anchoviella_juruasanga.png", "group": "other", "rarity": 1, "waterType": "Saltwater"}, {"lat": 20.4167, "lng": 136.0833, "id": "207186", "name": "Montipora informis", "sprite": "sp-actiniidae.png", "group": "coral", "rarity": 1}, {"lat": 19.9667, "lng": 137.0, "id": "961885", "name": "Chaetoceros seychellarum", "sprite": "sp-anchoviella_juruasanga.png", "group": "other", "rarity": 1}, {"lat": 20.0923, "lng": 137.0145, "id": "272724", "name": "Oriental lanternfish", "sprite": "sp-anchoviella_juruasanga.png", "group": "other", "rarity": 1, "waterType": "Saltwater"}, {"lat": 21.8783, "lng": 136.6483, "id": "126610", "name": "Winged lanternfish", "thumb": "tn_Laala_u0.gif", "sprite": "sp-anchoviella_juruasanga.png", "group": "other", "rarity": 1, "waterType": "Saltwater"}, {"lat": 20.4167, "lng": 136.0833, "id": "288886", "name": "Porites annae", "sprite": "sp-actiniidae.png", "group": "coral", "rarity": 1}, {"lat": 20.5085, "lng": 137.0, "id": "163042", "name": "Syndendrium diadema", "sprite": "sp-anchoviella_juruasanga.png", "group": "other", "rarity": 1}, {"lat": 20.0923, "lng": 137.0145, "id": "126584", "name": "Roundnose lanternfish", "thumb": "tn_Cenig_u5.gif", "sprite": "sp-anchoviella_juruasanga.png", "group": "other", "rarity": 1, "waterType": "Saltwater"}, {"lat": 20.0377, "lng": 137.0097, "id": "125529", "name": "Chiasmodontidae", "sprite": "sp-anchoviella_juruasanga.png", "group": "other", "rarity": 1}, {"lat": 20.5125, "lng": 136.9792, "id": "418516", "name": "Chaetoceros vanheurckii", "sprite": "sp-anchoviella_juruasanga.png", "group": "other", "rarity": 1}, {"lat": 20.0, "lng": 136.9668, "id": "1605073", "name": "Pseudodiaptomus inopinus inopinus", "sprite": "sp-anchoviella_juruasanga.png", "group": "other", "rarity": 1}, {"lat": 20.5415, "lng": 136.975, "id": "266709", "name": "Aidanosagitta oceania", "sprite": "sp-anchoviella_juruasanga.png", "group": "other", "rarity": 1}, {"lat": 20.3933, "lng": 136.9966, "id": "418487", "name": "Bacteriastrum mediterraneum", "sprite": "sp-anchoviella_juruasanga.png", "group": "other", "rarity": 1}, {"lat": 20.4167, "lng": 136.0833, "id": "207156", "name": "Montipora tuberculosa", "sprite": "sp-actiniidae.png", "group": "coral", "rarity": 1}, {"lat": 20.5, "lng": 136.9931, "id": "149023", "name": "Ditylum brightwellii", "sprite": "sp-anchoviella_juruasanga.png", "group": "other", "rarity": 1}, {"lat": 20.0465, "lng": 137.011, "id": "206066", "name": "Champsodon", "sprite": "sp-anchoviella_juruasanga.png", "group": "other", "rarity": 1}, {"lat": 20.4167, "lng": 136.0833, "id": "207137", "name": "Montipora mollis", "sprite": "sp-actiniidae.png", "group": "coral", "rarity": 1}, {"lat": 20.4167, "lng": 136.0833, "id": "207163", "name": "Montipora efflorescens", "sprite": "sp-actiniidae.png", "group": "coral", "rarity": 1}, {"lat": 20.0923, "lng": 137.0145, "id": "125447", "name": "Paralepididae", "sprite": "sp-anchoviella_juruasanga.png", "group": "other", "rarity": 1}, {"lat": 20.4167, "lng": 136.0833, "id": "207133", "name": "Montipora foveolata", "sprite": "sp-actiniidae.png", "group": "coral", "rarity": 1}, {"lat": 20.0923, "lng": 137.0145, "id": "217702", "name": "Idiolychnus urolampus", "sprite": "sp-anchoviella_juruasanga.png", "group": "other", "rarity": 1, "waterType": "Saltwater"}, {"lat": 20.4167, "lng": 136.0833, "id": "207100", "name": "Acropora nana", "sprite": "sp-actiniidae.png", "group": "coral", "rarity": 1}, {"lat": 20.4042, "lng": 136.1192, "id": "207477", "name": "Leptoria phrygia", "sprite": "sp-actiniidae.png", "group": "coral", "rarity": 1}, {"lat": 20.0465, "lng": 137.011, "id": "125520", "name": "Bramidae", "sprite": "sp-anchoviella_juruasanga.png", "group": "other", "rarity": 1}, {"lat": 20.4167, "lng": 136.0833, "id": "206954", "name": "Pocillopora verrucosa", "sprite": "sp-actiniidae.png", "group": "coral", "rarity": 1}, {"lat": 20.0923, "lng": 137.0145, "id": "126354", "name": "Pacific barracudina", "thumb": "tn_Lejay_u1.gif", "sprite": "sp-anchoviella_juruasanga.png", "group": "other", "rarity": 1, "waterType": "Saltwater"}, {"lat": 20.4958, "lng": 136.9986, "id": "163226", "name": "Lauderia pumila", "sprite": "sp-anchoviella_juruasanga.png", "group": "other", "rarity": 1}, {"lat": 20.0923, "lng": 137.0145, "id": "272084", "name": "Hoedt's waryfish", "sprite": "sp-anchoviella_juruasanga.png", "group": "other", "rarity": 1, "waterType": "Saltwater"}, {"lat": 20.5, "lng": 136.9915, "id": "149186", "name": "Synedra", "sprite": "sp-anchoviella_juruasanga.png", "group": "other", "rarity": 1}, {"lat": 20.4042, "lng": 136.1192, "id": "762421", "name": "Astrea curta", "sprite": "sp-actiniidae.png", "group": "coral", "rarity": 1}, {"lat": 20.4167, "lng": 136.0833, "id": "718748", "name": "Dipsastraea favus", "sprite": "sp-actiniidae.png", "group": "coral", "rarity": 1}, {"lat": 20.4665, "lng": 137.0, "id": "149123", "name": "Chaetoceros socialis", "sprite": "sp-anchoviella_juruasanga.png", "group": "other", "rarity": 1}, {"lat": 20.4167, "lng": 136.0833, "id": "759099", "name": "Pocillopora acuta", "sprite": "sp-actiniidae.png", "group": "coral", "rarity": 1}, {"lat": 20.3344, "lng": 136.9934, "id": "266884", "name": "Zonosagitta bedoti", "sprite": "sp-anchoviella_juruasanga.png", "group": "other", "rarity": 1}, {"lat": 20.0923, "lng": 137.0145, "id": "1525495", "name": "Bluntsnout lanternfish", "thumb": "tn_Myobt_u0.jpg", "sprite": "sp-anchoviella_juruasanga.png", "group": "other", "rarity": 1, "waterType": "Saltwater"}, {"lat": 20.4974, "lng": 136.9917, "id": "149045", "name": "Nitzschia", "sprite": "sp-anchoviella_juruasanga.png", "group": "other", "rarity": 1}, {"lat": 20.4915, "lng": 136.985, "id": "163348", "name": "Rhizosolenia semispina", "sprite": "sp-anchoviella_juruasanga.png", "group": "other", "rarity": 1}, {"lat": 20.1585, "lng": 136.9981, "id": "5949", "name": "Sagittoidea", "sprite": "sp-anchoviella_juruasanga.png", "group": "other", "rarity": 1}, {"lat": 20.4167, "lng": 136.0833, "id": "207180", "name": "Montipora peltiformis", "sprite": "sp-actiniidae.png", "group": "coral", "rarity": 1}, {"lat": 20.5, "lng": 136.9916, "id": "149116", "name": "Rhizosolenia imbricata", "sprite": "sp-anchoviella_juruasanga.png", "group": "other", "rarity": 1}, {"lat": 20.0923, "lng": 137.0145, "id": "127316", "name": "Constellationfish", "thumb": "tn_Vatri_u0.jpg", "sprite": "sp-anchoviella_juruasanga.png", "group": "other", "rarity": 1, "waterType": "Saltwater"}, {"lat": 20.0923, "lng": 137.0145, "id": "217681", "name": "Spinycheek lanternfish", "thumb": "tn_Befib_u0.gif", "sprite": "sp-anchoviella_juruasanga.png", "group": "other", "rarity": 1, "waterType": "Saltwater"}, {"lat": 20.4167, "lng": 136.0833, "id": "205469", "name": "Acropora", "sprite": "sp-actiniidae.png", "group": "coral", "rarity": 1}, {"lat": 20.4945, "lng": 136.9833, "id": "149120", "name": "Chaetoceros danicus", "sprite": "sp-anchoviella_juruasanga.png", "group": "other", "rarity": 1}, {"lat": 20.5012, "lng": 136.9929, "id": "235857", "name": "Umbilicosphaera", "sprite": "sp-anchoviella_juruasanga.png", "group": "other", "rarity": 1}, {"lat": 20.0923, "lng": 137.0145, "id": "217724", "name": "Staring pearleye", "thumb": "tn_Scgue_u0.gif", "sprite": "sp-anchoviella_juruasanga.png", "group": "other", "rarity": 1, "waterType": "Saltwater"}, {"lat": 20.4167, "lng": 136.0833, "id": "207058", "name": "Acropora florida", "sprite": "sp-actiniidae.png", "group": "coral", "rarity": 1}, {"lat": 20.4917, "lng": 136.975, "id": "409585", "name": "Chaetoceros decipiens f. singularis", "sprite": "sp-anchoviella_juruasanga.png", "group": "other", "rarity": 1}, {"lat": 20.5254, "lng": 136.9943, "id": "248062", "name": "Rhizosolenia castracanei", "sprite": "sp-anchoviella_juruasanga.png", "group": "other", "rarity": 1}, {"lat": 20.5, "lng": 136.9915, "id": "418546", "name": "Ditylum sol", "sprite": "sp-anchoviella_juruasanga.png", "group": "other", "rarity": 1}, {"lat": 20.4167, "lng": 136.0833, "id": "207455", "name": "Favites complanata", "sprite": "sp-actiniidae.png", "group": "coral", "rarity": 1}, {"lat": 20.4167, "lng": 136.0833, "id": "207274", "name": "Gardineroseris planulata", "sprite": "sp-actiniidae.png", "group": "coral", "rarity": 1}, {"lat": 20.4835, "lng": 136.9835, "id": "149322", "name": "Lithodesmium undulatum", "sprite": "sp-anchoviella_juruasanga.png", "group": "other", "rarity": 1}, {"lat": 20.4421, "lng": 136.9949, "id": "148899", "name": "Bacillariophyceae", "sprite": "sp-anchoviella_juruasanga.png", "group": "other", "rarity": 1}, {"lat": 20.4167, "lng": 136.0833, "id": "289205", "name": "Platygyra contorta", "sprite": "sp-actiniidae.png", "group": "coral", "rarity": 1}, {"lat": 20.3616, "lng": 136.9937, "id": "266268", "name": "Serratosagitta pacifica", "sprite": "sp-anchoviella_juruasanga.png", "group": "other", "rarity": 1}, {"lat": 20.487, "lng": 136.9936, "id": "178185", "name": "Chaetoceros peruvianus", "sprite": "sp-anchoviella_juruasanga.png", "group": "other", "rarity": 1}, {"lat": 20.5, "lng": 137.0085, "id": "679262", "name": "Chaetoceros distans var. subsecunda", "sprite": "sp-anchoviella_juruasanga.png", "group": "other", "rarity": 1}, {"lat": 20.3051, "lng": 136.9962, "id": "266708", "name": "Aidanosagitta neglecta", "sprite": "sp-anchoviella_juruasanga.png", "group": "other", "rarity": 1}, {"lat": 20.4167, "lng": 136.0833, "id": "207227", "name": "Porites solida", "sprite": "sp-actiniidae.png", "group": "coral", "rarity": 1}, {"lat": 20.3346, "lng": 136.9942, "id": "266247", "name": "Ferosagitta ferox", "sprite": "sp-anchoviella_juruasanga.png", "group": "other", "rarity": 1}, {"lat": 20.5133, "lng": 136.9931, "id": "163261", "name": "Lauderia mediterranea", "sprite": "sp-anchoviella_juruasanga.png", "group": "other", "rarity": 1}, {"lat": 19.9181, "lng": 136.7169, "id": "126381", "name": "Bandwing flyingfish", "thumb": "tn_Chexs_u0.jpg", "sprite": "sp-flying_fish.png", "group": "flying_fish", "rarity": 1, "waterType": "Saltwater"}, {"lat": 20.3914, "lng": 136.9939, "id": "105429", "name": "Krohnitta subtilis", "sprite": "sp-anchoviella_juruasanga.png", "group": "other", "rarity": 1}, {"lat": 20.5, "lng": 137.0085, "id": "149238", "name": "Chaetoceros pelagicus", "sprite": "sp-anchoviella_juruasanga.png", "group": "other", "rarity": 1}, {"lat": 20.4, "lng": 136.13, "id": "207393", "name": "Lobophyllia costata", "sprite": "sp-actiniidae.png", "group": "coral", "rarity": 1}, {"lat": 20.5408, "lng": 136.991, "id": "555052", "name": "Thalassionema frauenfeldii", "sprite": "sp-anchoviella_juruasanga.png", "group": "other", "rarity": 1}, {"lat": 20.4904, "lng": 136.9924, "id": "105437", "name": "Mesosagitta minima", "sprite": "sp-anchoviella_juruasanga.png", "group": "other", "rarity": 1}, {"lat": 20.4915, "lng": 137.0415, "id": "149519", "name": "Tropidoneis lepidoptera", "sprite": "sp-anchoviella_juruasanga.png", "group": "other", "rarity": 1}, {"lat": 20.4167, "lng": 136.0833, "id": "1465792", "name": "Merulina cylindrica", "sprite": "sp-actiniidae.png", "group": "coral", "rarity": 1}, {"lat": 20.0133, "lng": 137.0025, "id": "125431", "name": "Muraenidae", "sprite": "sp-anarchias.png", "group": "moray", "rarity": 1}, {"lat": 20.4167, "lng": 136.0833, "id": "207445", "name": "Favites rotundata", "sprite": "sp-actiniidae.png", "group": "coral", "rarity": 1}, {"lat": 20.0465, "lng": 137.011, "id": "125547", "name": "Mullidae", "sprite": "sp-anchoviella_juruasanga.png", "group": "other", "rarity": 1}, {"lat": 20.4, "lng": 136.1317, "id": "206982", "name": "Stylophora pistillata", "sprite": "sp-actiniidae.png", "group": "coral", "rarity": 1}, {"lat": 20.4167, "lng": 136.0833, "id": "207095", "name": "Acropora cytherea", "sprite": "sp-actiniidae.png", "group": "coral", "rarity": 1}, {"lat": 20.0923, "lng": 137.0145, "id": "126208", "name": "Eustomias", "sprite": "sp-anchoviella_juruasanga.png", "group": "other", "rarity": 1}, {"lat": 20.5163, "lng": 136.991, "id": "149119", "name": "Bacteriastrum hyalinum", "sprite": "sp-anchoviella_juruasanga.png", "group": "other", "rarity": 1}, {"lat": 20.5018, "lng": 136.9935, "id": "961694", "name": "Cerataulina bergonii", "sprite": "sp-anchoviella_juruasanga.png", "group": "other", "rarity": 1}, {"lat": 20.4655, "lng": 136.9847, "id": "149039", "name": "Leptocylindrus minimus", "sprite": "sp-anchoviella_juruasanga.png", "group": "other", "rarity": 1}, {"lat": 21.465, "lng": 137.01, "id": "178221", "name": "Chaetoceros atlanticus var. neapolitanus", "sprite": "sp-anchoviella_juruasanga.png", "group": "other", "rarity": 1}, {"lat": 20.02, "lng": 137.007, "id": "159583", "name": "Synagrops", "sprite": "sp-anchoviella_juruasanga.png", "group": "other", "rarity": 1}, {"lat": 20.0923, "lng": 137.0145, "id": "125683", "name": "Scopelarchus", "sprite": "sp-anchoviella_juruasanga.png", "group": "other", "rarity": 1}, {"lat": 20.0, "lng": 136.9667, "id": "961768", "name": "Chaetoceros curvisetum", "sprite": "sp-anchoviella_juruasanga.png", "group": "other", "rarity": 1}, {"lat": 20.3717, "lng": 136.9931, "id": "266888", "name": "Zonosagitta pulchra", "sprite": "sp-anchoviella_juruasanga.png", "group": "other", "rarity": 1}, {"lat": 20.3524, "lng": 136.9918, "id": "105463", "name": "Solidosagitta zetesios", "sprite": "sp-anchoviella_juruasanga.png", "group": "other", "rarity": 1}, {"lat": 20.4167, "lng": 136.0833, "id": "207444", "name": "Favites flexuosa", "sprite": "sp-actiniidae.png", "group": "coral", "rarity": 1}, {"lat": 20.3116, "lng": 136.9961, "id": "406116", "name": "Zonosagitta nagae", "sprite": "sp-anchoviella_juruasanga.png", "group": "other", "rarity": 1}, {"lat": 20.4875, "lng": 137.0063, "id": "163161", "name": "Chaetoceros tortissimus", "sprite": "sp-anchoviella_juruasanga.png", "group": "other", "rarity": 1}, {"lat": 20.0923, "lng": 137.0145, "id": "125498", "name": "Myctophidae", "sprite": "sp-anchoviella_juruasanga.png", "group": "other", "rarity": 1}, {"lat": 20.9853, "lng": 136.8314, "id": "126629", "name": "Topside lampfish", "thumb": "tn_Noval_m0.gif", "sprite": "sp-anchoviella_juruasanga.png", "group": "other", "rarity": 1, "waterType": "Saltwater"}, {"lat": 20.5016, "lng": 136.9942, "id": "196811", "name": "Rhizosolenia bergonii", "sprite": "sp-anchoviella_juruasanga.png", "group": "other", "rarity": 1}, {"lat": 20.6667, "lng": 136.9889, "id": "968587", "name": "Chaetoceros lorenzianum", "sprite": "sp-anchoviella_juruasanga.png", "group": "other", "rarity": 1}, {"lat": 20.4337, "lng": 136.9964, "id": "2", "name": "Animalia", "sprite": "sp-anchoviella_juruasanga.png", "group": "other", "rarity": 1}, {"lat": 20.4167, "lng": 136.0833, "id": "762420", "name": "Astrea annuligera", "sprite": "sp-actiniidae.png", "group": "coral", "rarity": 1}, {"lat": 20.0923, "lng": 137.0145, "id": "126865", "name": "Black gemfish", "thumb": "tn_Nenas_u4.jpg", "sprite": "sp-anchoviella_juruasanga.png", "group": "other", "rarity": 1, "waterType": "Saltwater"}, {"lat": 20.375, "lng": 136.375, "id": "137209", "name": "Dermochelys coriacea", "sprite": "sp-green_sea_turtle.png", "group": "sea_turtle", "rarity": 1}, {"lat": 20.5714, "lng": 136.9929, "id": "149069", "name": "Rhizosolenia", "sprite": "sp-anchoviella_juruasanga.png", "group": "other", "rarity": 1}, {"lat": 20.0923, "lng": 137.0145, "id": "125805", "name": "Chaenophryne", "sprite": "sp-deep_sea_anglerfish.png", "group": "anglerfish", "rarity": 1}, {"lat": 20.0923, "lng": 137.0145, "id": "217700", "name": "Firefly lanternfish", "thumb": "tn_Hypro_u1.gif", "sprite": "sp-anchoviella_juruasanga.png", "group": "other", "rarity": 1, "waterType": "Saltwater"}, {"lat": 20.073, "lng": 137.015, "id": "125714", "name": "Rondeletia", "sprite": "sp-anchoviella_juruasanga.png", "group": "other", "rarity": 1}, {"lat": 20.4167, "lng": 136.0833, "id": "207246", "name": "Porites lutea", "sprite": "sp-actiniidae.png", "group": "coral", "rarity": 1}, {"lat": 20.4167, "lng": 136.0833, "id": "287709", "name": "Montipora grisea", "sprite": "sp-actiniidae.png", "group": "coral", "rarity": 1}, {"lat": 20.0923, "lng": 137.0145, "id": "220334", "name": "Stemonosudis macrura", "thumb": "tn_Stmac_u0.gif", "sprite": "sp-anchoviella_juruasanga.png", "group": "other", "rarity": 1, "waterType": "Saltwater"}, {"lat": 20.3633, "lng": 136.995, "id": "266249", "name": "Ferosagitta robusta", "sprite": "sp-anchoviella_juruasanga.png", "group": "other", "rarity": 1}, {"lat": 20.5307, "lng": 137.0044, "id": "164110", "name": "Bacteriastrum furcatum", "sprite": "sp-anchoviella_juruasanga.png", "group": "other", "rarity": 1}, {"lat": 20.4933, "lng": 136.9933, "id": "178229", "name": "Chaetoceros pseudocurvisetus", "sprite": "sp-anchoviella_juruasanga.png", "group": "other", "rarity": 1}, {"lat": 20.4167, "lng": 136.0833, "id": "207318", "name": "Pavona clavus", "sprite": "sp-actiniidae.png", "group": "coral", "rarity": 1}, {"lat": 20.4167, "lng": 136.0833, "id": "207164", "name": "Montipora hispida", "sprite": "sp-actiniidae.png", "group": "coral", "rarity": 1}, {"lat": 20.4167, "lng": 136.0833, "id": "207309", "name": "Pavona maldivensis", "sprite": "sp-actiniidae.png", "group": "coral", "rarity": 1}, {"lat": 20.5021, "lng": 136.9937, "id": "1324082", "name": "Neomoelleria cornuta", "sprite": "sp-anchoviella_juruasanga.png", "group": "other", "rarity": 1}]}