{"zoom": 7, "x": 113, "y": 61, "points": [{"lat": 6.9, "lng": 139.833, "id": "125607", "name": "Balistidae", "sprite": "sp-balistidae.png", "group": "triggerfish", "rarity": 1}, {"lat": 8.1328, "lng": 140.4078, "id": "276334", "name": "Goram dragonet", "thumb": "tn_Digor_u2.jpg", "sprite": "sp-anchoviella_juruasanga.png", "group": "other", "rarity": 1, "waterType": "Saltwater"}, {"lat": 7.8318, "lng": 140.1925, "id": "204105", "name": "Halobates", "sprite": "sp-anchoviella_juruasanga.png", "group": "other", "rarity": 1}, {"lat": 7.13, "lng": 140.0, "id": "125442", "name": "Chlorophthalmidae", "sprite": "sp-anchoviella_juruasanga.png", "group": "other", "rarity": 1}, {"lat": 6.183, "lng": 139.85, "id": "112200", "name": "Globorotalia", "sprite": "sp-anchoviella_juruasanga.png", "group": "other", "rarity": 1}, {"lat": 8.1306, "lng": 140.4097, "id": "218181", "name": "Darkfin hind", "thumb": "tn_Ceuro_u9.jpg", "sprite": "sp-chelidoperca_santosi.png", "group": "grouper", "rarity": 1, "waterType": "Saltwater"}, {"lat": 7.13, "lng": 140.0, "id": "125679", "name": "Sudis", "sprite": "sp-anchoviella_juruasanga.png", "group": "other", "rarity": 1}, {"lat": 6.9, "lng": 139.833, "id": "205230", "name": "Naso", "sprite": "sp-acanthurus_albimento.png", "group": "surgeonfish", "rarity": 1}, {"lat": 8.1542, "lng": 140.3658, "id": "278490", "name": "Caesiura pygmygoby", "thumb": "tn_Trcae_u5.jpg", "sprite": "sp-eviota_bipunctata.png", "group": "goby", "rarity": 1, "waterType": "Saltwater"}, {"lat": 7.5158, "lng": 139.1728, "id": "218349", "name": "Largescaled terapon", "thumb": "tn_Tethe_u2.jpg", "sprite": "sp-anchoviella_juruasanga.png", "group": "other", "rarity": 1, "waterType": "Brackish"}, {"lat": 8.1306, "lng": 140.4097, "id": "219616", "name": "Blue gudgeon", "thumb": "tn_Ptmic_u8.jpg", "sprite": "sp-anchoviella_juruasanga.png", "group": "other", "rarity": 1, "waterType": "Saltwater"}, {"lat": 8.1328, "lng": 140.4078, "id": "205611", "name": "Gomphosus", "sprite": "sp-cleaner_wrasse.png", "group": "wrasse", "rarity": 1}, {"lat": 8.1367, "lng": 140.3761, "id": "276248", "name": "Whitespotted filefish", "thumb": "tn_Cadum_u1.jpg", "sprite": "sp-anchoviella_juruasanga.png", "group": "other", "rarity": 1, "waterType": "Saltwater"}, {"lat": 8.1189, "lng": 140.419, "id": "157084", "name": "Lyngbya aestuarii", "sprite": "sp-anchoviella_juruasanga.png", "group": "other", "rarity": 1}, {"lat": 7.5375, "lng": 138.5, "id": "125458", "name": "Holocentridae", "sprite": "sp-anchoviella_juruasanga.png", "group": "other", "rarity": 1}, {"lat": 7.25, "lng": 139.0, "id": "125599", "name": "Melamphaidae", "sprite": "sp-anchoviella_juruasanga.png", "group": "other", "rarity": 1}, {"lat": 6.183, "lng": 139.85, "id": "1455327", "name": "Globorotalia (Truncorotalia) crassaformis", "sprite": "sp-anchoviella_juruasanga.png", "group": "other", "rarity": 1}, {"lat": 7.13, "lng": 140.0, "id": "126395", "name": "Splendid alfonsino", "thumb": "tn_Bespl_ui.jpg", "sprite": "sp-anchoviella_juruasanga.png", "group": "other", "rarity": 1, "waterType": "Saltwater"}, {"lat": 6.183, "lng": 139.85, "id": "113440", "name": "Globigerinella siphonifera", "sprite": "sp-anchoviella_juruasanga.png", "group": "other", "rarity": 1}, {"lat": 8.1261, "lng": 140.4122, "id": "212855", "name": "Blackbar devil", "thumb": "tn_Pldic_u5.jpg", "sprite": "sp-chrysiptera_caesifrons.png", "group": "clownfish", "rarity": 1, "waterType": "Saltwater"}, {"lat": 7.13, "lng": 140.0, "id": "125516", "name": "Ammodytidae", "sprite": "sp-anchoviella_juruasanga.png", "group": "other", "rarity": 1}, {"lat": 8.1542, "lng": 140.3658, "id": "218741", "name": "Melon butterflyfish", "thumb": "tn_Chtri_ut.jpg", "sprite": "sp-chaetodon.png", "group": "butterflyfish", "rarity": 1, "waterType": "Saltwater"}, {"lat": 8.1472, "lng": 140.3764, "id": "125562", "name": "Siganidae", "sprite": "sp-anchoviella_juruasanga.png", "group": "other", "rarity": 1}, {"lat": 8.1542, "lng": 140.3658, "id": "125581", "name": "Soleidae", "sprite": "sp-atlantic_halibut.png", "group": "flatfish", "rarity": 1}, {"lat": 7.3467, "lng": 139.3333, "id": "126865", "name": "Black gemfish", "thumb": "tn_Nenas_u4.jpg", "sprite": "sp-anchoviella_juruasanga.png", "group": "other", "rarity": 1, "waterType": "Saltwater"}, {"lat": 7.0697, "lng": 140.17, "id": "1128", "name": "Euphausiacea", "sprite": "sp-antarctic_krill.png", "group": "shrimp", "rarity": 1}, {"lat": 8.1286, "lng": 140.408, "id": "552837", "name": "Hypnea musciformis var. esperi", "sprite": "sp-anchoviella_juruasanga.png", "group": "other", "rarity": 1}, {"lat": 7.1415, "lng": 139.6415, "id": "125576", "name": "Bothidae", "sprite": "sp-atlantic_halibut.png", "group": "flatfish", "rarity": 1}, {"lat": 8.1328, "lng": 140.4078, "id": "219262", "name": "Cirripectes polyzona", "thumb": "tn_Cipol_u3.jpg", "sprite": "sp-helcogramma_ascensionis.png", "group": "blenny", "rarity": 1, "waterType": "Saltwater"}, {"lat": 8.1435, "lng": 140.3868, "id": "217952", "name": "Smallmouth squirrelfish", "thumb": "tn_Samic_u0.jpg", "sprite": "sp-anchoviella_juruasanga.png", "group": "other", "rarity": 1, "waterType": "Saltwater"}, {"lat": 7.45, "lng": 139.3333, "id": "151447", "name": "Malacanthidae", "sprite": "sp-anchoviella_juruasanga.png", "group": "other", "rarity": 1}, {"lat": 7.54, "lng": 140.0, "id": "125504", "name": "Carapidae", "sprite": "sp-anchoviella_juruasanga.png", "group": "other", "rarity": 1}, {"lat": 8.1472, "lng": 140.3764, "id": "218584", "name": "Humpnose big-eye bream", "thumb": "tn_Mogra_u0.jpg", "sprite": "sp-anchoviella_juruasanga.png", "group": "other", "rarity": 1, "waterType": "Saltwater"}, {"lat": 8.1542, "lng": 140.3658, "id": "206221", "name": "Gymnapogon", "sprite": "sp-anchoviella_juruasanga.png", "group": "other", "rarity": 1}, {"lat": 8.1472, "lng": 140.3764, "id": "212798", "name": "Doublebar chromis", "thumb": "tn_Chope_u0.jpg", "sprite": "sp-chrysiptera_caesifrons.png", "group": "clownfish", "rarity": 1, "waterType": "Saltwater"}, {"lat": 6.955, "lng": 140.295, "id": "221416", "name": "Lesser bream", "thumb": "tn_Brbra_u0.jpg", "sprite": "sp-anchoviella_juruasanga.png", "group": "other", "rarity": 1, "waterType": "Saltwater"}, {"lat": 8.1542, "lng": 140.3658, "id": "204502", "name": "Cheilinus", "sprite": "sp-cleaner_wrasse.png", "group": "wrasse", "rarity": 1}, {"lat": 7.13, "lng": 140.0, "id": "159845", "name": "Bathysphyraenops simplex", "thumb": "tn_Basim_u0.gif", "sprite": "sp-anchoviella_juruasanga.png", "group": "other", "rarity": 1, "waterType": "Saltwater"}, {"lat": 8.1167, "lng": 140.4, "id": "106800", "name": "Callianassidae", "sprite": "sp-american_lobster.png", "group": "crab_lobster", "rarity": 1}, {"lat": 6.183, "lng": 139.85, "id": "113450", "name": "Globorotalia menardii", "sprite": "sp-anchoviella_juruasanga.png", "group": "other", "rarity": 1}, {"lat": 8.125, "lng": 140.415, "id": "145381", "name": "Lobophora variegata", "sprite": "sp-anchoviella_juruasanga.png", "group": "other", "rarity": 1}, {"lat": 8.1367, "lng": 140.3761, "id": "212213", "name": "Surge wrasse", "thumb": "tn_Thlox_m1.jpg", "sprite": "sp-cleaner_wrasse.png", "group": "wrasse", "rarity": 1, "waterType": "Saltwater"}, {"lat": 8.1194, "lng": 140.4167, "id": "218232", "name": "Starspotted grouper", "thumb": "tn_Ephex_u0.jpg", "sprite": "sp-chelidoperca_santosi.png", "group": "grouper", "rarity": 1, "waterType": "Saltwater"}, {"lat": 8.1542, "lng": 140.3658, "id": "205965", "name": "Eviota", "sprite": "sp-eviota_bipunctata.png", "group": "goby", "rarity": 1}, {"lat": 7.32, "lng": 140.0, "id": "151458", "name": "Lethrinidae", "sprite": "sp-anchoviella_juruasanga.png", "group": "other", "rarity": 1}, {"lat": 7.37, "lng": 138.0, "id": "125613", "name": "Caproidae", "sprite": "sp-anchoviella_juruasanga.png", "group": "other", "rarity": 1}, {"lat": 8.1269, "lng": 140.4083, "id": "221490", "name": "Turbinaria ornata", "sprite": "sp-anchoviella_juruasanga.png", "group": "other", "rarity": 1}, {"lat": 8.1542, "lng": 140.3658, "id": "219456", "name": "Twospot dwarfgoby", "thumb": "tn_Evdis_f0.jpg", "sprite": "sp-eviota_bipunctata.png", "group": "goby", "rarity": 1, "waterType": "Saltwater"}, {"lat": 8.1281, "lng": 140.3964, "id": "217954", "name": "Blue lined squirrelfish", "thumb": "tn_Satie_u1.jpg", "sprite": "sp-anchoviella_juruasanga.png", "group": "other", "rarity": 1, "waterType": "Saltwater"}, {"lat": 8.1328, "lng": 140.4078, "id": "219014", "name": "Bluestreak cleaner wrasse", "thumb": "tn_Ladim_u2.jpg", "sprite": "sp-cleaner_wrasse.png", "group": "wrasse", "rarity": 1, "waterType": "Saltwater"}, {"lat": 6.9, "lng": 139.5, "id": "137209", "name": "Dermochelys coriacea", "sprite": "sp-green_sea_turtle.png", "group": "sea_turtle", "rarity": 1}, {"lat": 6.183, "lng": 139.85, "id": "113473", "name": "Neogloboquadrina dutertrei", "sprite": "sp-anchoviella_juruasanga.png", "group": "other", "rarity": 1}, {"lat": 8.1328, "lng": 140.4078, "id": "218084", "name": "Radial firefish", "thumb": "tn_Ptrad_u0.jpg", "sprite": "sp-parascorpaena_moultoni.png", "group": "scorpionfish", "rarity": 1, "waterType": "Saltwater"}, {"lat": 8.1472, "lng": 140.3764, "id": "211773", "name": "Regal angelfish", "thumb": "tn_Pydia_uk.jpg", "sprite": "sp-holacanthus.png", "group": "angelfish", "rarity": 1, "waterType": "Saltwater"}, {"lat": 8.1542, "lng": 140.3658, "id": "204733", "name": "Paragobiodon", "sprite": "sp-eviota_bipunctata.png", "group": "goby", "rarity": 1}, {"lat": 8.0767, "lng": 140.0977, "id": "218404", "name": "Bigeye trevally", "thumb": "tn_Casex_u0.jpg", "sprite": "sp-anchoviella_juruasanga.png", "group": "other", "rarity": 1, "waterType": "Brackish"}, {"lat": 8.1435, "lng": 140.3868, "id": "1006807", "name": "Variable dwarfgoby", "thumb": "tn_Evbip_u0.jpg", "sprite": "sp-eviota_bipunctata.png", "group": "goby", "rarity": 1, "waterType": "Saltwater"}, {"lat": 8.1238, "lng": 140.4065, "id": "279304", "name": "Forktail blenny", "thumb": "tn_Meatr_u3.jpg", "sprite": "sp-helcogramma_ascensionis.png", "group": "blenny", "rarity": 1, "waterType": "Saltwater"}, {"lat": 8.1209, "lng": 140.4177, "id": "214395", "name": "Dictyosphaeria cavernosa", "sprite": "sp-anchoviella_juruasanga.png", "group": "other", "rarity": 1}, {"lat": 7.73, "lng": 138.0, "id": "158871", "name": "Atlantic barracudina", "thumb": "tn_Leatl_u5.jpg", "sprite": "sp-anchoviella_juruasanga.png", "group": "other", "rarity": 1, "waterType": "Saltwater"}, {"lat": 8.1542, "lng": 140.3658, "id": "398508", "name": "Samoan cardinalfish", "thumb": "tn_Apsav_u8.jpg", "sprite": "sp-anchoviella_juruasanga.png", "group": "other", "rarity": 1, "waterType": "Saltwater"}, {"lat": 8.1333, "lng": 140.408, "id": "371484", "name": "Ceramium vagans", "sprite": "sp-anchoviella_juruasanga.png", "group": "other", "rarity": 1}, {"lat": 8.1472, "lng": 140.3764, "id": "218419", "name": "Bluefin trevally", "thumb": "tn_Camel_u0.jpg", "sprite": "sp-anchoviella_juruasanga.png", "group": "other", "rarity": 1, "waterType": "Brackish"}, {"lat": 7.37, "lng": 138.0, "id": "125555", "name": "Priacanthidae", "sprite": "sp-anchoviella_juruasanga.png", "group": "other", "rarity": 1}, {"lat": 7.13, "lng": 140.0, "id": "126397", "name": "Longwing spinyfin", "thumb": "tn_Dipau_u0.jpg", "sprite": "sp-anchoviella_juruasanga.png", "group": "other", "rarity": 1, "waterType": "Saltwater"}, {"lat": 8.1354, "lng": 140.3829, "id": "218866", "name": "Arc-eye hawkfish", "thumb": "tn_Paarc_u1.jpg", "sprite": "sp-anchoviella_juruasanga.png", "group": "other", "rarity": 1, "waterType": "Saltwater"}, {"lat": 8.1504, "lng": 140.3821, "id": "1517577", "name": "Eupercaria incertae sedis", "sprite": "sp-anchoviella_juruasanga.png", "group": "other", "rarity": 1}, {"lat": 7.47, "lng": 139.0, "id": "159424", "name": "Bigeye cigarfish", "thumb": "tn_Cupau_u0.jpg", "sprite": "sp-anchoviella_juruasanga.png", "group": "other", "rarity": 1, "waterType": "Saltwater"}, {"lat": 8.1167, "lng": 140.4, "id": "319876", "name": "Yellowstriped cardinalfish", "thumb": "tn_Apcya_uh.jpg", "sprite": "sp-anchoviella_juruasanga.png", "group": "other", "rarity": 1, "waterType": "Saltwater"}, {"lat": 8.1386, "lng": 140.404, "id": "218730", "name": "Threadfin butterflyfish", "thumb": "tn_Chaur_uv.jpg", "sprite": "sp-chaetodon.png", "group": "butterflyfish", "rarity": 1, "waterType": "Saltwater"}, {"lat": 6.9, "lng": 139.833, "id": "125548", "name": "Nomeidae", "sprite": "sp-anchoviella_juruasanga.png", "group": "other", "rarity": 1}, {"lat": 8.1472, "lng": 140.3764, "id": "273347", "name": "Atoll butterflyfish", "thumb": "tn_Chmer_u0.jpg", "sprite": "sp-chaetodon.png", "group": "butterflyfish", "rarity": 1, "waterType": "Saltwater"}, {"lat": 8.1306, "lng": 140.4097, "id": "217940", "name": "Silverspot squirrelfish", "thumb": "tn_Sacau_u7.jpg", "sprite": "sp-anchoviella_juruasanga.png", "group": "other", "rarity": 1, "waterType": "Saltwater"}, {"lat": 7.37, "lng": 138.0, "id": "206297", "name": "Cyprinocirrhites", "sprite": "sp-anchoviella_juruasanga.png", "group": "other", "rarity": 1}, {"lat": 8.1542, "lng": 140.3658, "id": "209277", "name": "Yellow pigmy brotula", "thumb": "tn_Diilu_u0.jpg", "sprite": "sp-anchoviella_juruasanga.png", "group": "other", "rarity": 1, "waterType": "Saltwater"}, {"lat": 8.1507, "lng": 140.3711, "id": "217883", "name": "Samoan silverside", "thumb": "tn_Hytem_u1.jpg", "sprite": "sp-anchoviella_juruasanga.png", "group": "other", "rarity": 1, "waterType": "Saltwater"}, {"lat": 7.5325, "lng": 139.0, "id": "158873", "name": "Lestrolepis intermedia", "thumb": "tn_Leint_u2.jpg", "sprite": "sp-anchoviella_juruasanga.png", "group": "other", "rarity": 1, "waterType": "Saltwater"}, {"lat": 7.13, "lng": 140.0, "id": "125435", "name": "Serrivomeridae", "sprite": "sp-electric_eel.png", "group": "eel", "rarity": 1}, {"lat": 6.7797, "lng": 139.93, "id": "106813", "name": "Gennadas", "sprite": "sp-american_lobster.png", "group": "crab_lobster", "rarity": 1}, {"lat": 8.1306, "lng": 140.4097, "id": "278655", "name": "Whitebarred goby", "thumb": "tn_Ampha_u8.jpg", "sprite": "sp-eviota_bipunctata.png", "group": "goby", "rarity": 1, "waterType": "Saltwater"}, {"lat": 7.5867, "lng": 139.3333, "id": "126861", "name": "Striped escolar", "thumb": "tn_Dimul_u1.jpg", "sprite": "sp-anchoviella_juruasanga.png", "group": "other", "rarity": 1, "waterType": "Saltwater"}, {"lat": 5.8087, "lng": 139.586, "id": "137119", "name": "Physeter macrocephalus", "sprite": "sp-blue_whale.png", "group": "whale", "rarity": 1}, {"lat": 7.37, "lng": 139.5, "id": "125468", "name": "Bregmacerotidae", "sprite": "sp-anchoviella_juruasanga.png", "group": "other", "rarity": 1}, {"lat": 8.1369, "lng": 140.398, "id": "218944", "name": "Tripletail wrasse", "thumb": "tn_Chtri_uh.jpg", "sprite": "sp-cleaner_wrasse.png", "group": "wrasse", "rarity": 1, "waterType": "Brackish"}, {"lat": 8.1424, "lng": 140.3878, "id": "278853", "name": "Pearlscale angelfish", "thumb": "tn_Cevro_u3.jpg", "sprite": "sp-holacanthus.png", "group": "angelfish", "rarity": 1, "waterType": "Saltwater"}, {"lat": 8.1167, "lng": 140.4, "id": "217992", "name": "Network pipefish", "thumb": "tn_Cofla_u9.jpg", "sprite": "sp-cosmocampus_coccineus.png", "group": "seahorse", "rarity": 1, "waterType": "Saltwater"}, {"lat": 7.61, "lng": 139.0, "id": "273685", "name": "Howella zina", "thumb": "tn_Hozin_u1.jpg", "sprite": "sp-anchoviella_juruasanga.png", "group": "other", "rarity": 1, "waterType": "Saltwater"}, {"lat": 8.1306, "lng": 140.4097, "id": "219622", "name": "Blackfin dartfish", "thumb": "tn_Ptevi_u8.jpg", "sprite": "sp-anchoviella_juruasanga.png", "group": "other", "rarity": 1, "waterType": "Saltwater"}, {"lat": 8.1392, "lng": 140.3944, "id": "159383", "name": "Myripristis", "sprite": "sp-anchoviella_juruasanga.png", "group": "other", "rarity": 1}, {"lat": 8.1465, "lng": 140.3794, "id": "277820", "name": "Manybar goatfish", "thumb": "tn_Pamul_u1.jpg", "sprite": "sp-anchoviella_juruasanga.png", "group": "other", "rarity": 1, "waterType": "Saltwater"}, {"lat": 8.1306, "lng": 140.4097, "id": "219890", "name": "White-banded triggerfish", "thumb": "tn_Rhacu_ui.jpg", "sprite": "sp-balistidae.png", "group": "triggerfish", "rarity": 1, "waterType": "Saltwater"}, {"lat": 7.13, "lng": 140.0, "id": "125674", "name": "Arctozenus", "sprite": "sp-anchoviella_juruasanga.png", "group": "other", "rarity": 1}, {"lat": 8.1392, "lng": 140.3944, "id": "218282", "name": "Honeycomb podge", "thumb": "tn_Pspol_u2.jpg", "sprite": "sp-chelidoperca_santosi.png", "group": "grouper", "rarity": 1, "waterType": "Saltwater"}, {"lat": 8.1542, "lng": 140.3658, "id": "209371", "name": "Five-lined cardinalfish", "thumb": "tn_Chqui_u1.jpg", "sprite": "sp-anchoviella_juruasanga.png", "group": "other", "rarity": 1, "waterType": "Saltwater"}, {"lat": 6.9, "lng": 139.833, "id": "126240", "name": "Lagocephalus", "sprite": "sp-fahaka_pufferfish.png", "group": "pufferfish", "rarity": 1}, {"lat": 7.1253, "lng": 138.4358, "id": "225934", "name": "Numenius madagascariensis", "sprite": "sp-anchoviella_juruasanga.png", "group": "other", "rarity": 1}, {"lat": 8.1467, "lng": 140.3983, "id": "218783", "name": "Grey demoiselle", "thumb": "tn_Chgla_u2.jpg", "sprite": "sp-chrysiptera_caesifrons.png", "group": "clownfish", "rarity": 1, "waterType": "Saltwater"}, {"lat": 8.1472, "lng": 140.3764, "id": "218197", "name": "Camouflage grouper", "thumb": "tn_Eppol_u0.jpg", "sprite": "sp-chelidoperca_santosi.png", "group": "grouper", "rarity": 1, "waterType": "Saltwater"}, {"lat": 7.53, "lng": 138.6667, "id": "127030", "name": "Longfin escolar", "thumb": "tn_Schet_u4.gif", "sprite": "sp-anchoviella_juruasanga.png", "group": "other", "rarity": 1, "waterType": "Saltwater"}, {"lat": 8.1306, "lng": 140.4097, "id": "209361", "name": "Hawaiian ruby cardinalfish", "thumb": "tn_Apery_u0.jpg", "sprite": "sp-anchoviella_juruasanga.png", "group": "other", "rarity": 1, "waterType": "Saltwater"}, {"lat": 7.37, "lng": 138.0, "id": "126864", "name": "Black snake mackerel", "thumb": "tn_Netri_u0.jpg", "sprite": "sp-anchoviella_juruasanga.png", "group": "other", "rarity": 1, "waterType": "Saltwater"}, {"lat": 8.1328, "lng": 140.4078, "id": "217506", "name": "Barredfin moray", "thumb": "tn_Gyzon_u3.jpg", "sprite": "sp-anarchias.png", "group": "moray", "rarity": 1, "waterType": "Saltwater"}, {"lat": 7.37, "lng": 138.0, "id": "125547", "name": "Mullidae", "sprite": "sp-anchoviella_juruasanga.png", "group": "other", "rarity": 1}, {"lat": 8.1306, "lng": 140.4097, "id": "218957", "name": "Clown coris", "thumb": "tn_Coayg_u4.jpg", "sprite": "sp-cleaner_wrasse.png", "group": "wrasse", "rarity": 1, "waterType": "Saltwater"}, {"lat": 6.0, "lng": 140.0, "id": "106829", "name": "Sergestes", "sprite": "sp-american_lobster.png", "group": "crab_lobster", "rarity": 1}, {"lat": 8.1467, "lng": 140.3983, "id": "219249", "name": "Blue-dashed rockskipper", "thumb": "tn_Blper_u7.jpg", "sprite": "sp-helcogramma_ascensionis.png", "group": "blenny", "rarity": 1, "waterType": "Saltwater"}, {"lat": 8.1542, "lng": 140.3658, "id": "277692", "name": "Yaeyama blenny", "thumb": "tn_Ecyae_u4.jpg", "sprite": "sp-helcogramma_ascensionis.png", "group": "blenny", "rarity": 1, "waterType": "Saltwater"}, {"lat": 8.1542, "lng": 140.3658, "id": "125438", "name": "Atherinidae", "sprite": "sp-anchoviella_juruasanga.png", "group": "other", "rarity": 1}, {"lat": 6.0, "lng": 140.0, "id": "1065", "name": "Arthropoda", "sprite": "sp-anchoviella_juruasanga.png", "group": "other", "rarity": 1}, {"lat": 7.61, "lng": 139.0, "id": "220334", "name": "Stemonosudis macrura", "thumb": "tn_Stmac_u0.gif", "sprite": "sp-anchoviella_juruasanga.png", "group": "other", "rarity": 1, "waterType": "Saltwater"}, {"lat": 8.1333, "lng": 140.3833, "id": "106773", "name": "Ocypodidae", "sprite": "sp-american_lobster.png", "group": "crab_lobster", "rarity": 1}, {"lat": 7.5925, "lng": 138.5, "id": "151470", "name": "Pomacanthidae", "sprite": "sp-pomacanthidae.png", "group": "angelfish", "rarity": 1}, {"lat": 8.1397, "lng": 140.4031, "id": "218244", "name": "Foursaddle grouper", "thumb": "tn_Epspi_u8.jpg", "sprite": "sp-chelidoperca_santosi.png", "group": "grouper", "rarity": 1, "waterType": "Saltwater"}, {"lat": 8.1306, "lng": 140.4097, "id": "206441", "name": "Callogobius", "sprite": "sp-eviota_bipunctata.png", "group": "goby", "rarity": 1}, {"lat": 6.9, "lng": 139.833, "id": "126039", "name": "Psenes", "sprite": "sp-anchoviella_juruasanga.png", "group": "other", "rarity": 1}, {"lat": 8.3683, "lng": 137.8633, "id": "266872", "name": "Torbenwolffia galatheae", "sprite": "sp-anchoviella_juruasanga.png", "group": "other", "rarity": 1}, {"lat": 7.13, "lng": 140.0, "id": "125445", "name": "Notosudidae", "sprite": "sp-anchoviella_juruasanga.png", "group": "other", "rarity": 1}, {"lat": 8.1542, "lng": 140.3658, "id": "212843", "name": "Whitetail dascyllus", "thumb": "tn_Daaru_u5.jpg", "sprite": "sp-chrysiptera_caesifrons.png", "group": "clownfish", "rarity": 1, "waterType": "Saltwater"}, {"lat": 8.1328, "lng": 140.4078, "id": "712679", "name": "Blackstripe cardinalfish", "thumb": "tn_Apnig_u4.jpg", "sprite": "sp-anchoviella_juruasanga.png", "group": "other", "rarity": 1, "waterType": "Saltwater"}, {"lat": 8.1317, "lng": 140.4088, "id": "217929", "name": "Blackfin squirrelfish", "thumb": "tn_Neope_u2.jpg", "sprite": "sp-anchoviella_juruasanga.png", "group": "other", "rarity": 1, "waterType": "Saltwater"}]}