{"zoom": 7, "x": 114, "y": 69, "points": [{"lat": -16.4083, "lng": 141.2033, "id": "283056", "name": "Long-tail tripodfish", "thumb": "tn_Trblo_u3.gif", "sprite": "sp-anchoviella_juruasanga.png", "group": "other", "rarity": 1, "waterType": "Saltwater"}, {"lat": -13.971, "lng": 141.0779, "id": "169799", "name": "Disyringa dissimilis", "sprite": "sp-barrel_sponge.png", "group": "sponge", "rarity": 1}, {"lat": -14.683, "lng": 142.166, "id": "281914", "name": "Australian swamp eel", "sprite": "sp-anchoviella_juruasanga.png", "group": "other", "rarity": 1, "waterType": "Brackish"}, {"lat": -15.4872, "lng": 140.7, "id": "273985", "name": "Red barracuda", "thumb": "tn_Sppin_u0.jpg", "sprite": "sp-sphyraena.png", "group": "barracuda", "rarity": 1, "waterType": "Saltwater"}, {"lat": -14.8701, "lng": 141.2821, "id": "219722", "name": "Longtail tuna", "thumb": "tn_Thton_u3.jpg", "sprite": "sp-bluefin_tuna.png", "group": "tuna_mackerel", "rarity": 1, "waterType": "Saltwater"}, {"lat": -14.5, "lng": 140.8, "id": "109566", "name": "Prorocentrum", "sprite": "sp-anchoviella_juruasanga.png", "group": "other", "rarity": 1}, {"lat": -15.5507, "lng": 141.0183, "id": "126988", "name": "Asymmetrical goatfish", "thumb": "tn_Upasy_u0.jpg", "sprite": "sp-anchoviella_juruasanga.png", "group": "other", "rarity": 1, "waterType": "Saltwater"}, {"lat": -14.9977, "lng": 141.7494, "id": "1484543", "name": "Porphyrio porphyrio", "sprite": "sp-anchoviella_juruasanga.png", "group": "other", "rarity": 1}, {"lat": -16.485, "lng": 140.9158, "id": "243300", "name": "Macrophiothrix megapoma", "sprite": "sp-sea_cucumber.png", "group": "starfish", "rarity": 1}, {"lat": -14.2392, "lng": 140.6992, "id": "210415", "name": "Solenocera pectinata", "sprite": "sp-american_lobster.png", "group": "crab_lobster", "rarity": 1}, {"lat": -15.8025, "lng": 140.68, "id": "367583", "name": "Dardanus imbricatus", "sprite": "sp-american_lobster.png", "group": "crab_lobster", "rarity": 1}, {"lat": -15.3891, "lng": 140.8972, "id": "126296", "name": "Daggertooth pike conger", "thumb": "tn_Mucin_u3.jpg", "sprite": "sp-electric_eel.png", "group": "eel", "rarity": 1, "waterType": "Brackish"}, {"lat": -15.2692, "lng": 140.7, "id": "557899", "name": "Cycloachelous granulatus", "sprite": "sp-american_lobster.png", "group": "crab_lobster", "rarity": 1}, {"lat": -16.5033, "lng": 141.205, "id": "284936", "name": "Anthohebella darwinensis", "sprite": "sp-anchoviella_juruasanga.png", "group": "other", "rarity": 1}, {"lat": -14.0, "lng": 141.0, "id": "220929", "name": "Pontellopsis scotti", "sprite": "sp-anchoviella_juruasanga.png", "group": "other", "rarity": 1}, {"lat": -14.0, "lng": 141.0, "id": "220920", "name": "Labidocera carpentariensis", "sprite": "sp-anchoviella_juruasanga.png", "group": "other", "rarity": 1}, {"lat": -15.183, "lng": 141.45, "id": "208884", "name": "Podophthalmus vigil", "sprite": "sp-american_lobster.png", "group": "crab_lobster", "rarity": 1}, {"lat": -14.9783, "lng": 140.7017, "id": "1459586", "name": "Merica westralis", "sprite": "sp-cowrie_shell.png", "group": "sea_snail", "rarity": 1}, {"lat": -15.2507, "lng": 140.9335, "id": "218533", "name": "Deep-bodied mojarra", "thumb": "tn_Geery_u2.jpg", "sprite": "sp-anchoviella_juruasanga.png", "group": "other", "rarity": 1, "waterType": "Brackish"}, {"lat": -15.0075, "lng": 140.68, "id": "125547", "name": "Mullidae", "sprite": "sp-anchoviella_juruasanga.png", "group": "other", "rarity": 1}, {"lat": -15.6659, "lng": 140.9143, "id": "273947", "name": "Trumpeter whiting", "thumb": "tn_Simac_j0.jpg", "sprite": "sp-anchoviella_juruasanga.png", "group": "other", "rarity": 1, "waterType": "Brackish"}, {"lat": -15.3091, "lng": 141.0983, "id": "203906", "name": "Scolopsis", "sprite": "sp-anchoviella_juruasanga.png", "group": "other", "rarity": 1}, {"lat": -15.8, "lng": 142.2, "id": "505087", "name": "Eucrassatella cumingii", "sprite": "sp-blue_mussel.png", "group": "clam_mussel", "rarity": 1}, {"lat": -14.5389, "lng": 142.2778, "id": "277729", "name": "Sailfin glass perchlet", "thumb": "tn_Amagr_u0.jpg", "sprite": "sp-anchoviella_juruasanga.png", "group": "other", "rarity": 1, "waterType": "Brackish"}, {"lat": -14.0, "lng": 141.0, "id": "346049", "name": "Acartia (Odontacartia) amboinensis", "sprite": "sp-anchoviella_juruasanga.png", "group": "other", "rarity": 1}, {"lat": -16.4915, "lng": 141.0192, "id": "367781", "name": "Salmacis belli", "sprite": "sp-sea_cucumber.png", "group": "starfish", "rarity": 1}, {"lat": -16.359, "lng": 140.9936, "id": "219857", "name": "Roughscale tonguesole", "thumb": "tn_Cylid_u0.jpg", "sprite": "sp-atlantic_halibut.png", "group": "flatfish", "rarity": 1, "waterType": "Saltwater"}, {"lat": -14.583, "lng": 141.5, "id": "434558", "name": "Paraclathurella gracilenta", "sprite": "sp-cowrie_shell.png", "group": "sea_snail", "rarity": 1}, {"lat": -16.595, "lng": 140.6933, "id": "474984", "name": "Margaretha's goatfish", "thumb": "tn_Upmar_u0.jpg", "sprite": "sp-anchoviella_juruasanga.png", "group": "other", "rarity": 1, "waterType": "Saltwater"}, {"lat": -16.3967, "lng": 141.2183, "id": "284150", "name": "Lytocarpia angulosa", "sprite": "sp-anchoviella_juruasanga.png", "group": "other", "rarity": 1}, {"lat": -14.5689, "lng": 141.2181, "id": "218695", "name": "Silver moony", "thumb": "tn_Moarg_u6.jpg", "sprite": "sp-anchoviella_juruasanga.png", "group": "other", "rarity": 1, "waterType": "Brackish"}, {"lat": -14.5, "lng": 140.8, "id": "109553", "name": "Protoperidinium", "sprite": "sp-anchoviella_juruasanga.png", "group": "other", "rarity": 1}, {"lat": -14.6101, "lng": 142.6268, "id": "278454", "name": "Australian river gizzard shad", "thumb": "tn_Neere_j0.jpg", "sprite": "sp-anchoviella_juruasanga.png", "group": "other", "rarity": 1, "waterType": "Brackish"}, {"lat": -15.0207, "lng": 141.7346, "id": "158968", "name": "Tringa nebularia", "sprite": "sp-anchoviella_juruasanga.png", "group": "other", "rarity": 1}, {"lat": -14.1617, "lng": 141.5846, "id": "276590", "name": "King threadfin", "thumb": "tn_Pomac_ul.jpg", "sprite": "sp-anchoviella_juruasanga.png", "group": "other", "rarity": 1, "waterType": "Brackish"}, {"lat": -15.4833, "lng": 140.7, "id": "125719", "name": "Herklotsichthys", "sprite": "sp-anchoviella_juruasanga.png", "group": "other", "rarity": 1}, {"lat": -14.9715, "lng": 141.0182, "id": "218350", "name": "Jarbua terapon", "thumb": "tn_Tejar_u0.jpg", "sprite": "sp-anchoviella_juruasanga.png", "group": "other", "rarity": 1, "waterType": "Brackish"}, {"lat": -14.3174, "lng": 141.1095, "id": "218204", "name": "Areolate grouper", "thumb": "tn_Epare_u6.jpg", "sprite": "sp-chelidoperca_santosi.png", "group": "grouper", "rarity": 1, "waterType": "Saltwater"}, {"lat": -14.5083, "lng": 140.7, "id": "475103", "name": "Bulls-eye cardinalfish", "sprite": "sp-anchoviella_juruasanga.png", "group": "other", "rarity": 1, "waterType": "Saltwater"}, {"lat": -16.5917, "lng": 140.945, "id": "276952", "name": "Scaly snouted silver-biddy", "thumb": "tn_Gebac_u0.gif", "sprite": "sp-anchoviella_juruasanga.png", "group": "other", "rarity": 1, "waterType": "Saltwater"}, {"lat": -13.97, "lng": 140.6983, "id": "515527", "name": "Procletes levicarina", "sprite": "sp-american_lobster.png", "group": "crab_lobster", "rarity": 1}, {"lat": -14.125, "lng": 141.5, "id": "718958", "name": "Cavatidens bullula", "sprite": "sp-blue_mussel.png", "group": "clam_mussel", "rarity": 1}, {"lat": -14.6625, "lng": 141.6225, "id": "212655", "name": "Fregata ariel", "sprite": "sp-anchoviella_juruasanga.png", "group": "other", "rarity": 1}, {"lat": -14.8885, "lng": 141.1187, "id": "218404", "name": "Bigeye trevally", "thumb": "tn_Casex_u0.jpg", "sprite": "sp-anchoviella_juruasanga.png", "group": "other", "rarity": 1, "waterType": "Brackish"}, {"lat": -14.366, "lng": 141.1945, "id": "504483", "name": "Cucullaea labiata", "sprite": "sp-blue_mussel.png", "group": "clam_mussel", "rarity": 1}, {"lat": -14.9783, "lng": 140.7017, "id": "219856", "name": "Shortheaded tonguesole", "thumb": "tn_Cykop_u0.jpg", "sprite": "sp-atlantic_halibut.png", "group": "flatfish", "rarity": 1, "waterType": "Saltwater"}, {"lat": -15.0, "lng": 141.0, "id": "358328", "name": "Ditrichocorycaeus asiaticus", "sprite": "sp-anchoviella_juruasanga.png", "group": "other", "rarity": 1}, {"lat": -15.4902, "lng": 141.4927, "id": "235047", "name": "Camptostemon schultzii", "sprite": "sp-anchoviella_juruasanga.png", "group": "other", "rarity": 1}, {"lat": -15.8833, "lng": 141.5333, "id": "408895", "name": "Gonodactylaceus graphurus", "sprite": "sp-american_lobster.png", "group": "crab_lobster", "rarity": 1}, {"lat": -15.4217, "lng": 141.7908, "id": "212609", "name": "Himantopus himantopus", "sprite": "sp-anchoviella_juruasanga.png", "group": "other", "rarity": 1}, {"lat": -14.7804, "lng": 142.4279, "id": "283020", "name": "Spotted archerfish", "thumb": "tn_Tocha_u2.jpg", "sprite": "sp-anchoviella_juruasanga.png", "group": "other", "rarity": 1, "waterType": "Brackish"}, {"lat": -16.5666, "lng": 141.0666, "id": "276256", "name": "Fan-bellied leatherjacket", "thumb": "tn_Mochi_u5.jpg", "sprite": "sp-anchoviella_juruasanga.png", "group": "other", "rarity": 1, "waterType": "Saltwater"}, {"lat": -15.6498, "lng": 141.7498, "id": "409175", "name": "Anchisquilla", "sprite": "sp-american_lobster.png", "group": "crab_lobster", "rarity": 1}, {"lat": -14.9073, "lng": 141.2409, "id": "127006", "name": "Cobia", "thumb": "tn_Racan_u8.jpg", "sprite": "sp-anchoviella_juruasanga.png", "group": "other", "rarity": 1, "waterType": "Brackish"}, {"lat": -13.97, "lng": 140.6983, "id": "442104", "name": "Micippa excavata", "sprite": "sp-american_lobster.png", "group": "crab_lobster", "rarity": 1}, {"lat": -15.2978, "lng": 141.7318, "id": "567416", "name": "Erythrogonys cinctus", "sprite": "sp-anchoviella_juruasanga.png", "group": "other", "rarity": 1}, {"lat": -14.7202, "lng": 141.0675, "id": "282012", "name": "Sixspine butterflyfish", "thumb": "tn_Paoce_u4.jpg", "sprite": "sp-chaetodon.png", "group": "butterflyfish", "rarity": 1, "waterType": "Saltwater"}, {"lat": -15.9033, "lng": 140.8613, "id": "218147", "name": "Serrated flathead", "thumb": "tn_Roser_u0.jpg", "sprite": "sp-anchoviella_juruasanga.png", "group": "other", "rarity": 1, "waterType": "Saltwater"}, {"lat": -14.8, "lng": 141.0, "id": "346152", "name": "Bestiolina similis", "sprite": "sp-anchoviella_juruasanga.png", "group": "other", "rarity": 1}, {"lat": -13.9493, "lng": 141.0064, "id": "287065", "name": "Truncatoflabellum spheniscus", "sprite": "sp-actiniidae.png", "group": "coral", "rarity": 1}, {"lat": -15.7215, "lng": 140.9469, "id": "218434", "name": "Doublespotted queenfish", "thumb": "tn_Sclys_u3.jpg", "sprite": "sp-anchoviella_juruasanga.png", "group": "other", "rarity": 1, "waterType": "Brackish"}, {"lat": -14.9412, "lng": 141.0, "id": "116162", "name": "Euterpina acutifrons", "sprite": "sp-anchoviella_juruasanga.png", "group": "other", "rarity": 1}, {"lat": -14.9621, "lng": 140.6746, "id": "137160", "name": "Sterna dougallii", "sprite": "sp-anchoviella_juruasanga.png", "group": "other", "rarity": 1}, {"lat": -16.5692, "lng": 140.9725, "id": "213246", "name": "Astropecten monacanthus", "sprite": "sp-sea_cucumber.png", "group": "starfish", "rarity": 1}, {"lat": -16.5, "lng": 141.0, "id": "513113", "name": "Arachnoides placenta", "sprite": "sp-sea_cucumber.png", "group": "starfish", "rarity": 1}, {"lat": -15.1618, "lng": 140.945, "id": "276688", "name": "Cocoa damselfish", "thumb": "tn_Stvar_u2.jpg", "sprite": "sp-chrysiptera_caesifrons.png", "group": "clownfish", "rarity": 1, "waterType": "Saltwater"}, {"lat": -15.8917, "lng": 140.7, "id": "428394", "name": "Conus trigonus", "sprite": "sp-cowrie_shell.png", "group": "sea_snail", "rarity": 1}, {"lat": -13.9526, "lng": 141.0137, "id": "138204", "name": "Pterynotus", "sprite": "sp-cowrie_shell.png", "group": "sea_snail", "rarity": 1}, {"lat": -15.0083, "lng": 141.25, "id": "125558", "name": "Sciaenidae", "sprite": "sp-anchoviella_juruasanga.png", "group": "other", "rarity": 1}, {"lat": -14.783, "lng": 143.35, "id": "125298", "name": "Ellisella", "sprite": "sp-actiniidae.png", "group": "coral", "rarity": 1}, {"lat": -14.5, "lng": 140.8, "id": "149148", "name": "Bacillaria", "sprite": "sp-anchoviella_juruasanga.png", "group": "other", "rarity": 1}, {"lat": -14.4279, "lng": 141.3561, "id": "1377417", "name": "Hydrophis stokesii", "sprite": "sp-banded_sea_krait.png", "group": "sea_snake", "rarity": 1}, {"lat": -15.125, "lng": 141.0, "id": "346360", "name": "Dioithona rigida", "sprite": "sp-anchoviella_juruasanga.png", "group": "other", "rarity": 1}, {"lat": -16.42, "lng": 141.0783, "id": "219689", "name": "Little spinefoot", "thumb": "tn_Siver_u6.jpg", "sprite": "sp-anchoviella_juruasanga.png", "group": "other", "rarity": 1, "waterType": "Saltwater"}, {"lat": -15.0689, "lng": 141.0403, "id": "219788", "name": "Indian halibut", "thumb": "tn_Pseru_u3.jpg", "sprite": "sp-atlantic_halibut.png", "group": "flatfish", "rarity": 1, "waterType": "Saltwater"}, {"lat": -16.0353, "lng": 140.6519, "id": "383017", "name": "Achelata", "sprite": "sp-american_lobster.png", "group": "crab_lobster", "rarity": 1}, {"lat": -15.8567, "lng": 140.9921, "id": "272266", "name": "Herklotsichthys ovalis", "sprite": "sp-anchoviella_juruasanga.png", "group": "other", "rarity": 1, "waterType": "Saltwater"}, {"lat": -14.766, "lng": 141.583, "id": "505773", "name": "Spisula trigonella", "sprite": "sp-blue_mussel.png", "group": "clam_mussel", "rarity": 1}, {"lat": -16.1, "lng": 140.7381, "id": "217002", "name": "Phalium bandatum", "sprite": "sp-cowrie_shell.png", "group": "sea_snail", "rarity": 1}, {"lat": -16.3162, "lng": 140.9358, "id": "1377407", "name": "Hydrophis peronii", "sprite": "sp-banded_sea_krait.png", "group": "sea_snake", "rarity": 1}, {"lat": -14.9333, "lng": 141.6333, "id": "314628", "name": "Master's catfish", "thumb": "tn_Armas_u1.gif", "sprite": "sp-blue_catfish.png", "group": "catfish", "rarity": 1, "waterType": "Brackish"}, {"lat": -14.8361, "lng": 140.6994, "id": "209473", "name": "Conchoecetes artificiosus", "sprite": "sp-american_lobster.png", "group": "crab_lobster", "rarity": 1}, {"lat": -15.419, "lng": 140.9844, "id": "219687", "name": "White-spotted spinefoot", "thumb": "tn_Sican_u9.jpg", "sprite": "sp-anchoviella_juruasanga.png", "group": "other", "rarity": 1, "waterType": "Brackish"}, {"lat": -14.9783, "lng": 140.7017, "id": "441197", "name": "Myra eudactylus", "sprite": "sp-american_lobster.png", "group": "crab_lobster", "rarity": 1}, {"lat": -16.42, "lng": 141.0783, "id": "274220", "name": "Speckled tonguesole", "thumb": "tn_Cypun_u5.jpg", "sprite": "sp-atlantic_halibut.png", "group": "flatfish", "rarity": 1, "waterType": "Brackish"}, {"lat": -15.433, "lng": 140.875, "id": "215410", "name": "Parvamussium cristatellum", "sprite": "sp-blue_mussel.png", "group": "clam_mussel", "rarity": 1}, {"lat": -14.6711, "lng": 141.023, "id": "219873", "name": "Abalistes stellatus", "thumb": "tn_Abste_u9.jpg", "sprite": "sp-balistidae.png", "group": "triggerfish", "rarity": 1, "waterType": "Saltwater"}, {"lat": -14.5726, "lng": 141.0881, "id": "277610", "name": "Southern leatherjacket", "thumb": "tn_Meaus_u0.gif", "sprite": "sp-anchoviella_juruasanga.png", "group": "other", "rarity": 1, "waterType": "Saltwater"}, {"lat": -14.5271, "lng": 141.1761, "id": "218584", "name": "Humpnose big-eye bream", "thumb": "tn_Mogra_u0.jpg", "sprite": "sp-anchoviella_juruasanga.png", "group": "other", "rarity": 1, "waterType": "Saltwater"}, {"lat": -15.0, "lng": 143.0, "id": "208854", "name": "Thalamita danae", "sprite": "sp-american_lobster.png", "group": "crab_lobster", "rarity": 1}, {"lat": -16.25, "lng": 140.8083, "id": "111546", "name": "Parasmittina raigii", "sprite": "sp-anchoviella_juruasanga.png", "group": "other", "rarity": 1}, {"lat": -15.883, "lng": 141.033, "id": "334600", "name": "Pomatostegus stellatus", "sprite": "sp-anchoviella_juruasanga.png", "group": "other", "rarity": 1}, {"lat": -14.583, "lng": 141.5, "id": "434804", "name": "Pseudorhaphitoma styracina", "sprite": "sp-cowrie_shell.png", "group": "sea_snail", "rarity": 1}, {"lat": -15.2428, "lng": 140.9219, "id": "281787", "name": "Notolabrus cinctus", "thumb": "tn_Nocin_u0.jpg", "sprite": "sp-cleaner_wrasse.png", "group": "wrasse", "rarity": 1, "waterType": "Saltwater"}, {"lat": -16.1, "lng": 140.7383, "id": "129566", "name": "Hydroides", "sprite": "sp-anchoviella_juruasanga.png", "group": "other", "rarity": 1}, {"lat": -14.475, "lng": 142.0645, "id": "212608", "name": "Sterna sumatrana", "sprite": "sp-anchoviella_juruasanga.png", "group": "other", "rarity": 1}, {"lat": -14.15, "lng": 141.1929, "id": "278276", "name": "Torquigener tuberculiferus", "thumb": "tn_Totub_u0.jpg", "sprite": "sp-fahaka_pufferfish.png", "group": "pufferfish", "rarity": 1, "waterType": "Saltwater"}, {"lat": -14.9574, "lng": 141.1669, "id": "218911", "name": "Striped threadfin", "thumb": "tn_Pople_u1.jpg", "sprite": "sp-anchoviella_juruasanga.png", "group": "other", "rarity": 1, "waterType": "Brackish"}, {"lat": -14.583, "lng": 141.5, "id": "214965", "name": "Theora lata", "sprite": "sp-blue_mussel.png", "group": "clam_mussel", "rarity": 1}, {"lat": -14.766, "lng": 141.583, "id": "137842", "name": "Lentidium", "sprite": "sp-blue_mussel.png", "group": "clam_mussel", "rarity": 1}, {"lat": -15.035, "lng": 141.2261, "id": "278273", "name": "Weeping toado", "thumb": "tn_Tople_u0.jpg", "sprite": "sp-fahaka_pufferfish.png", "group": "pufferfish", "rarity": 1, "waterType": "Brackish"}, {"lat": -16.556, "lng": 140.751, "id": "110958", "name": "Rhynchozoon", "sprite": "sp-anchoviella_juruasanga.png", "group": "other", "rarity": 1}, {"lat": -14.8707, "lng": 142.8349, "id": "413963", "name": "Malvaceae", "sprite": "sp-anchoviella_juruasanga.png", "group": "other", "rarity": 1}, {"lat": -14.5083, "lng": 140.7, "id": "123082", "name": "Echinoidea", "sprite": "sp-sea_cucumber.png", "group": "starfish", "rarity": 1}, {"lat": -15.5679, "lng": 140.9935, "id": "345843", "name": "Great barracuda", "thumb": "tn_Spbar_ud.jpg", "sprite": "sp-sphyraena.png", "group": "barracuda", "rarity": 1, "waterType": "Brackish"}, {"lat": -14.583, "lng": 141.5, "id": "717101", "name": "Ringicula pusilla", "sprite": "sp-cowrie_shell.png", "group": "sea_snail", "rarity": 1}, {"lat": -14.6667, "lng": 141.0, "id": "128816", "name": "Onychocorycaeus catus", "sprite": "sp-anchoviella_juruasanga.png", "group": "other", "rarity": 1}, {"lat": -13.9672, "lng": 140.6858, "id": "211875", "name": "Sicyonia ocellata", "sprite": "sp-american_lobster.png", "group": "crab_lobster", "rarity": 1}, {"lat": -14.4883, "lng": 140.6967, "id": "273499", "name": "Bluecheek silver grunt", "thumb": "tn_Poarg_u1.jpg", "sprite": "sp-anchoviella_juruasanga.png", "group": "other", "rarity": 1, "waterType": "Saltwater"}, {"lat": -15.56, "lng": 140.6983, "id": "442312", "name": "Pseudolambrus harpax", "sprite": "sp-american_lobster.png", "group": "crab_lobster", "rarity": 1}, {"lat": -15.125, "lng": 141.0, "id": "116382", "name": "Macrosetella gracilis", "sprite": "sp-anchoviella_juruasanga.png", "group": "other", "rarity": 1}, {"lat": -15.0807, "lng": 141.6126, "id": "366592", "name": "Calidris tenuirostris", "sprite": "sp-anchoviella_juruasanga.png", "group": "other", "rarity": 1}, {"lat": -15.3711, "lng": 140.6867, "id": "442400", "name": "Actumnus dorsipes", "sprite": "sp-american_lobster.png", "group": "crab_lobster", "rarity": 1}, {"lat": -14.583, "lng": 141.5, "id": "767263", "name": "Calopia laseroni", "sprite": "sp-cowrie_shell.png", "group": "sea_snail", "rarity": 1}, {"lat": -14.9, "lng": 142.9331, "id": "148380", "name": "Simocephalus", "sprite": "sp-anchoviella_juruasanga.png", "group": "other", "rarity": 1}, {"lat": -14.5254, "lng": 141.1849, "id": "217885", "name": "Spinyfin velifer", "thumb": "tn_Memul_u1.jpg", "sprite": "sp-anchoviella_juruasanga.png", "group": "other", "rarity": 1, "waterType": "Saltwater"}, {"lat": -14.9239, "lng": 141.1339, "id": "272283", "name": "Australian sprat", "thumb": "tn_Spnov_u0.gif", "sprite": "sp-atlantic_herring.png", "group": "herring", "rarity": 1, "waterType": "Brackish"}, {"lat": -15.1163, "lng": 142.9394, "id": "246870", "name": "Bonamia", "sprite": "sp-anchoviella_juruasanga.png", "group": "other", "rarity": 1}, {"lat": -15.4833, "lng": 140.7, "id": "212056", "name": "Obtuse barracuda", "thumb": "tn_Spobt_u5.jpg", "sprite": "sp-sphyraena.png", "group": "barracuda", "rarity": 1, "waterType": "Brackish"}, {"lat": -15.883, "lng": 141.033, "id": "261456", "name": "Neocirolana hermitensis", "sprite": "sp-american_lobster.png", "group": "crab_lobster", "rarity": 1}]}