{"zoom": 7, "x": 117, "y": 64, "points": [{"lat": -2.4422, "lng": 150.4648, "id": "219670", "name": "Oneknife unicornfish", "thumb": "tn_Nathy_u4.jpg", "sprite": "sp-acanthurus_albimento.png", "group": "surgeonfish", "rarity": 1, "waterType": "Saltwater"}, {"lat": -2.3189, "lng": 150.577, "id": "137716", "name": "Bulla", "sprite": "sp-cowrie_shell.png", "group": "sea_snail", "rarity": 1}, {"lat": -2.2117, "lng": 150.39, "id": "1605960", "name": "Typhlonida pygmaea", "sprite": "sp-american_lobster.png", "group": "crab_lobster", "rarity": 1}, {"lat": -2.4493, "lng": 150.4503, "id": "210762", "name": "Bohadschia marmorata", "sprite": "sp-sea_cucumber.png", "group": "starfish", "rarity": 1}, {"lat": -2.58, "lng": 150.7837, "id": "212846", "name": "Threespot dascyllus", "thumb": "tn_Datri_u1.jpg", "sprite": "sp-chrysiptera_caesifrons.png", "group": "clownfish", "rarity": 1, "waterType": "Saltwater"}, {"lat": -2.5933, "lng": 150.7917, "id": "219478", "name": "Rippled coralgoby", "thumb": "tn_Goriv_u0.jpg", "sprite": "sp-eviota_bipunctata.png", "group": "goby", "rarity": 1, "waterType": "Brackish"}, {"lat": -2.6472, "lng": 150.6958, "id": "215464", "name": "Conus leopardus", "sprite": "sp-cowrie_shell.png", "group": "sea_snail", "rarity": 1}, {"lat": -2.7324, "lng": 150.7243, "id": "1727", "name": "Haliotidae", "sprite": "sp-cowrie_shell.png", "group": "sea_snail", "rarity": 1}, {"lat": -2.6886, "lng": 150.6861, "id": "123206", "name": "Amphiuridae", "sprite": "sp-sea_cucumber.png", "group": "starfish", "rarity": 1}, {"lat": -2.6038, "lng": 150.1059, "id": "156892", "name": "Macrobrachium", "sprite": "sp-american_lobster.png", "group": "crab_lobster", "rarity": 1}, {"lat": -2.4497, "lng": 150.4902, "id": "106728", "name": "Sicyoniidae", "sprite": "sp-american_lobster.png", "group": "crab_lobster", "rarity": 1}, {"lat": -2.3694, "lng": 150.2317, "id": "123082", "name": "Echinoidea", "sprite": "sp-sea_cucumber.png", "group": "starfish", "rarity": 1}, {"lat": -2.5487, "lng": 150.7755, "id": "426464", "name": "Conus corallinus", "sprite": "sp-cowrie_shell.png", "group": "sea_snail", "rarity": 1}, {"lat": -2.6651, "lng": 150.7335, "id": "833007", "name": "Liloa mongii", "sprite": "sp-cowrie_shell.png", "group": "sea_snail", "rarity": 1}, {"lat": -2.5917, "lng": 150.7917, "id": "217670", "name": "Variegated lizardfish", "thumb": "tn_Syvar_uq.jpg", "sprite": "sp-anchoviella_juruasanga.png", "group": "other", "rarity": 1, "waterType": "Saltwater"}, {"lat": -2.4545, "lng": 150.1828, "id": "106835", "name": "Munida", "sprite": "sp-american_lobster.png", "group": "crab_lobster", "rarity": 1}, {"lat": -2.6021, "lng": 150.7531, "id": "468166", "name": "Odontonia sibogae", "sprite": "sp-american_lobster.png", "group": "crab_lobster", "rarity": 1}, {"lat": -2.5871, "lng": 150.4851, "id": "596563", "name": "Turris chaldaea", "sprite": "sp-cowrie_shell.png", "group": "sea_snail", "rarity": 1}, {"lat": -2.641, "lng": 150.7563, "id": "515422", "name": "Chlorotocella gracilis", "sprite": "sp-american_lobster.png", "group": "crab_lobster", "rarity": 1}, {"lat": -2.7528, "lng": 150.7184, "id": "204210", "name": "Ctenocardia", "sprite": "sp-blue_mussel.png", "group": "clam_mussel", "rarity": 1}, {"lat": -2.3189, "lng": 150.577, "id": "216525", "name": "Pinguitellina robusta", "sprite": "sp-blue_mussel.png", "group": "clam_mussel", "rarity": 1}, {"lat": -2.6229, "lng": 150.7168, "id": "220194", "name": "Pontoniopsis comanthi", "sprite": "sp-american_lobster.png", "group": "crab_lobster", "rarity": 1}, {"lat": -2.566, "lng": 150.8, "id": "212164", "name": "Engina mendicaria", "sprite": "sp-cowrie_shell.png", "group": "sea_snail", "rarity": 1}, {"lat": -2.482, "lng": 150.3203, "id": "581028", "name": "Profundiconus teramachii", "sprite": "sp-cowrie_shell.png", "group": "sea_snail", "rarity": 1}, {"lat": -2.7458, "lng": 150.6876, "id": "507186", "name": "Heteroglypta contraria", "sprite": "sp-blue_mussel.png", "group": "clam_mussel", "rarity": 1}, {"lat": -2.3978, "lng": 150.4494, "id": "106797", "name": "Stenopodidae", "sprite": "sp-american_lobster.png", "group": "crab_lobster", "rarity": 1}, {"lat": -2.576, "lng": 150.7725, "id": "514581", "name": "Laomenes pardus", "sprite": "sp-american_lobster.png", "group": "crab_lobster", "rarity": 1}, {"lat": -2.459, "lng": 150.2164, "id": "164833", "name": "Agelas mauritiana", "sprite": "sp-barrel_sponge.png", "group": "sponge", "rarity": 1}, {"lat": -2.5917, "lng": 150.7917, "id": "218878", "name": "Squaretail mullet", "thumb": "tn_Livai_u2.jpg", "sprite": "sp-anchoviella_juruasanga.png", "group": "other", "rarity": 1, "waterType": "Brackish"}, {"lat": -2.3876, "lng": 150.3817, "id": "213280", "name": "Choriaster granulatus", "sprite": "sp-sea_cucumber.png", "group": "starfish", "rarity": 1}, {"lat": -2.6099, "lng": 150.696, "id": "1743", "name": "Rissoellidae", "sprite": "sp-cowrie_shell.png", "group": "sea_snail", "rarity": 1}, {"lat": -2.6177, "lng": 150.6747, "id": "106776", "name": "Alpheidae", "sprite": "sp-american_lobster.png", "group": "crab_lobster", "rarity": 1}, {"lat": -2.6406, "lng": 150.5448, "id": "209112", "name": "Etisus demani", "sprite": "sp-american_lobster.png", "group": "crab_lobster", "rarity": 1}, {"lat": -2.576, "lng": 150.7725, "id": "391156", "name": "Hydroginella", "sprite": "sp-cowrie_shell.png", "group": "sea_snail", "rarity": 1}, {"lat": -2.3795, "lng": 150.3479, "id": "564725", "name": "Harpago chiragra", "sprite": "sp-cowrie_shell.png", "group": "sea_snail", "rarity": 1}, {"lat": -2.234, "lng": 150.2602, "id": "391556", "name": "Propeamussium sibogai", "sprite": "sp-blue_mussel.png", "group": "clam_mussel", "rarity": 1}, {"lat": -2.566, "lng": 150.8, "id": "718967", "name": "Euanodontia hawaiensis", "sprite": "sp-blue_mussel.png", "group": "clam_mussel", "rarity": 1}, {"lat": -2.3189, "lng": 150.577, "id": "504511", "name": "Glycymeris reevei", "sprite": "sp-blue_mussel.png", "group": "clam_mussel", "rarity": 1}, {"lat": -2.566, "lng": 150.8, "id": "438685", "name": "Hastula matheroniana", "sprite": "sp-cowrie_shell.png", "group": "sea_snail", "rarity": 1}, {"lat": -2.4396, "lng": 150.4701, "id": "212085", "name": "Orange-striped emperor", "thumb": "tn_Leobs_u3.jpg", "sprite": "sp-anchoviella_juruasanga.png", "group": "other", "rarity": 1, "waterType": "Saltwater"}, {"lat": -2.6986, "lng": 150.6624, "id": "505480", "name": "Limaria basilanica", "sprite": "sp-blue_mussel.png", "group": "clam_mussel", "rarity": 1}, {"lat": -2.6677, "lng": 150.6825, "id": "134592", "name": "Anoplodactylus", "sprite": "sp-anchoviella_juruasanga.png", "group": "other", "rarity": 1}, {"lat": -2.653, "lng": 150.0549, "id": "382991", "name": "Stereomastis auriculata", "sprite": "sp-american_lobster.png", "group": "crab_lobster", "rarity": 1}, {"lat": -2.4153, "lng": 150.2274, "id": "106836", "name": "Munidopsis", "sprite": "sp-american_lobster.png", "group": "crab_lobster", "rarity": 1}, {"lat": -2.429, "lng": 150.4284, "id": "138352", "name": "Pinna", "sprite": "sp-blue_mussel.png", "group": "clam_mussel", "rarity": 1}, {"lat": -2.5275, "lng": 150.5662, "id": "106745", "name": "Latreilliidae", "sprite": "sp-american_lobster.png", "group": "crab_lobster", "rarity": 1}, {"lat": -2.6873, "lng": 150.6874, "id": "477900", "name": "Upogebia carinicauda", "sprite": "sp-american_lobster.png", "group": "crab_lobster", "rarity": 1}, {"lat": -2.4442, "lng": 150.6046, "id": "106726", "name": "Benthesicymidae", "sprite": "sp-american_lobster.png", "group": "crab_lobster", "rarity": 1}, {"lat": -2.7551, "lng": 150.7447, "id": "751862", "name": "Conus aureus aureus", "sprite": "sp-cowrie_shell.png", "group": "sea_snail", "rarity": 1}, {"lat": -2.2117, "lng": 150.39, "id": "515436", "name": "Heterocarpus parvispina", "sprite": "sp-american_lobster.png", "group": "crab_lobster", "rarity": 1}, {"lat": -2.4475, "lng": 150.6623, "id": "932638", "name": "Bathymenes aleator", "sprite": "sp-american_lobster.png", "group": "crab_lobster", "rarity": 1}, {"lat": -2.566, "lng": 150.8, "id": "208048", "name": "Peristernia nassatula", "sprite": "sp-cowrie_shell.png", "group": "sea_snail", "rarity": 1}, {"lat": -2.5917, "lng": 150.7917, "id": "205637", "name": "Ctenogobiops", "sprite": "sp-eviota_bipunctata.png", "group": "goby", "rarity": 1}, {"lat": -2.579, "lng": 150.6773, "id": "22995", "name": "Bursidae", "sprite": "sp-cowrie_shell.png", "group": "sea_snail", "rarity": 1}, {"lat": -2.5917, "lng": 150.7917, "id": "218484", "name": "Bengal snapper", "thumb": "tn_Luben_u4.jpg", "sprite": "sp-mutton_snapper.png", "group": "snapper", "rarity": 1, "waterType": "Saltwater"}, {"lat": -2.5446, "lng": 150.6731, "id": "204713", "name": "Cheilea", "sprite": "sp-cowrie_shell.png", "group": "sea_snail", "rarity": 1}, {"lat": -2.5, "lng": 150.0, "id": "464492", "name": "Pinctada maxima", "sprite": "sp-blue_mussel.png", "group": "clam_mussel", "rarity": 1}, {"lat": -2.6784, "lng": 150.7299, "id": "514632", "name": "Periclimenaeus arthrodactylus", "sprite": "sp-american_lobster.png", "group": "crab_lobster", "rarity": 1}, {"lat": -2.7551, "lng": 150.7447, "id": "597615", "name": "Purpuradusta minoridens", "sprite": "sp-cowrie_shell.png", "group": "sea_snail", "rarity": 1}, {"lat": -2.675, "lng": 150.1833, "id": "208396", "name": "Oliva oliva", "sprite": "sp-cowrie_shell.png", "group": "sea_snail", "rarity": 1}, {"lat": -2.6129, "lng": 150.6017, "id": "411814", "name": "Pseudomelatomidae", "sprite": "sp-cowrie_shell.png", "group": "sea_snail", "rarity": 1}, {"lat": -2.4339, "lng": 150.4111, "id": "207670", "name": "Tridacna gigas", "sprite": "sp-blue_mussel.png", "group": "clam_mussel", "rarity": 1}, {"lat": -2.6838, "lng": 150.0538, "id": "106989", "name": "Lebbeus", "sprite": "sp-american_lobster.png", "group": "crab_lobster", "rarity": 1}, {"lat": -2.6666, "lng": 150.762, "id": "439151", "name": "Macrophthalmidae", "sprite": "sp-american_lobster.png", "group": "crab_lobster", "rarity": 1}, {"lat": -2.4454, "lng": 150.4505, "id": "208952", "name": "Actinopyga lecanora", "sprite": "sp-sea_cucumber.png", "group": "starfish", "rarity": 1}, {"lat": -2.576, "lng": 150.7725, "id": "514806", "name": "Alpheopsis yaldwyni", "sprite": "sp-american_lobster.png", "group": "crab_lobster", "rarity": 1}, {"lat": -2.6651, "lng": 150.7335, "id": "591511", "name": "Vexillum militare", "sprite": "sp-cowrie_shell.png", "group": "sea_snail", "rarity": 1}, {"lat": -1.022, "lng": 149.3637, "id": "125325", "name": "Corallium", "sprite": "sp-actiniidae.png", "group": "coral", "rarity": 1}, {"lat": -2.566, "lng": 150.8, "id": "205371", "name": "Ranularia", "sprite": "sp-cowrie_shell.png", "group": "sea_snail", "rarity": 1}, {"lat": -2.566, "lng": 150.8, "id": "596434", "name": "Drupina grossularia", "sprite": "sp-cowrie_shell.png", "group": "sea_snail", "rarity": 1}, {"lat": -2.6769, "lng": 150.7098, "id": "138513", "name": "Solecurtus", "sprite": "sp-blue_mussel.png", "group": "clam_mussel", "rarity": 1}, {"lat": -2.7864, "lng": 150.4483, "id": "224123", "name": "Ophiolepis cincta cincta", "sprite": "sp-sea_cucumber.png", "group": "starfish", "rarity": 1}, {"lat": -2.6791, "lng": 150.7344, "id": "441223", "name": "Nursia phylloides", "sprite": "sp-american_lobster.png", "group": "crab_lobster", "rarity": 1}, {"lat": -2.7186, "lng": 150.7471, "id": "559424", "name": "Nerita planospira", "sprite": "sp-cowrie_shell.png", "group": "sea_snail", "rarity": 1}, {"lat": -2.6148, "lng": 150.7405, "id": "477512", "name": "Axiopsis tsushimaensis", "sprite": "sp-american_lobster.png", "group": "crab_lobster", "rarity": 1}, {"lat": -2.2117, "lng": 150.39, "id": "382979", "name": "Pentacheles laevis", "sprite": "sp-american_lobster.png", "group": "crab_lobster", "rarity": 1}, {"lat": -2.234, "lng": 150.2602, "id": "205899", "name": "Platymaia", "sprite": "sp-american_lobster.png", "group": "crab_lobster", "rarity": 1}, {"lat": -2.6744, "lng": 150.0416, "id": "138219", "name": "Idas", "sprite": "sp-blue_mussel.png", "group": "clam_mussel", "rarity": 1}, {"lat": -2.6, "lng": 150.75, "id": "218189", "name": "Sixblotch hind", "thumb": "tn_Cesex_u0.jpg", "sprite": "sp-chelidoperca_santosi.png", "group": "grouper", "rarity": 1, "waterType": "Saltwater"}, {"lat": -2.5583, "lng": 150.6173, "id": "23052", "name": "Haminoeidae", "sprite": "sp-cowrie_shell.png", "group": "sea_snail", "rarity": 1}, {"lat": -2.2117, "lng": 150.39, "id": "242728", "name": "Amphiophiura pertusa", "sprite": "sp-sea_cucumber.png", "group": "starfish", "rarity": 1}, {"lat": -2.5075, "lng": 150.4978, "id": "216371", "name": "Turbo argyrostomus", "sprite": "sp-cowrie_shell.png", "group": "sea_snail", "rarity": 1}, {"lat": -2.6216, "lng": 150.6619, "id": "23032", "name": "Drilliidae", "sprite": "sp-cowrie_shell.png", "group": "sea_snail", "rarity": 1}, {"lat": -2.4918, "lng": 150.7253, "id": "417005", "name": "Pterygia fenestrata", "sprite": "sp-cowrie_shell.png", "group": "sea_snail", "rarity": 1}, {"lat": -2.6783, "lng": 150.6215, "id": "215454", "name": "Conus pertusus", "sprite": "sp-cowrie_shell.png", "group": "sea_snail", "rarity": 1}, {"lat": -2.4731, "lng": 150.4963, "id": "106727", "name": "Penaeidae", "sprite": "sp-american_lobster.png", "group": "crab_lobster", "rarity": 1}, {"lat": -2.5117, "lng": 150.4491, "id": "218746", "name": "Eightband butterflyfish", "thumb": "tn_Choct_u0.jpg", "sprite": "sp-chaetodon.png", "group": "butterflyfish", "rarity": 1, "waterType": "Saltwater"}, {"lat": -2.6738, "lng": 150.1992, "id": "247850", "name": "Callyspongia (Cladochalina) aerizusa", "sprite": "sp-barrel_sponge.png", "group": "sponge", "rarity": 1}, {"lat": -2.4953, "lng": 150.5355, "id": "218744", "name": "Speckled butterflyfish", "thumb": "tn_Chcit_u6.jpg", "sprite": "sp-chaetodon.png", "group": "butterflyfish", "rarity": 1, "waterType": "Saltwater"}, {"lat": -2.5187, "lng": 150.227, "id": "215739", "name": "Nassarius crenulatus", "sprite": "sp-cowrie_shell.png", "group": "sea_snail", "rarity": 1}, {"lat": -2.6651, "lng": 150.7335, "id": "138632", "name": "Callista", "sprite": "sp-blue_mussel.png", "group": "clam_mussel", "rarity": 1}, {"lat": -2.4263, "lng": 150.4534, "id": "218752", "name": "Scrawled butterflyfish", "thumb": "tn_Chmey_u3.jpg", "sprite": "sp-chaetodon.png", "group": "butterflyfish", "rarity": 1, "waterType": "Saltwater"}, {"lat": -2.566, "lng": 150.8, "id": "476529", "name": "Monoplex nicobaricus", "sprite": "sp-cowrie_shell.png", "group": "sea_snail", "rarity": 1}, {"lat": -2.7451, "lng": 150.6961, "id": "426455", "name": "Conus circumcisus", "sprite": "sp-cowrie_shell.png", "group": "sea_snail", "rarity": 1}, {"lat": -2.7037, "lng": 150.639, "id": "107017", "name": "Cinetorhynchus", "sprite": "sp-american_lobster.png", "group": "crab_lobster", "rarity": 1}, {"lat": -2.0, "lng": 150.0, "id": "218440", "name": "Small spotted dart", "thumb": "tn_Trbai_u6.jpg", "sprite": "sp-anchoviella_juruasanga.png", "group": "other", "rarity": 1, "waterType": "Brackish"}, {"lat": -2.4611, "lng": 150.4619, "id": "210915", "name": "Thelenota anax", "sprite": "sp-sea_cucumber.png", "group": "starfish", "rarity": 1}, {"lat": -1.6818, "lng": 149.9657, "id": "209408", "name": "Orbiculate cardinalfish", "thumb": "tn_Sporb_u0.jpg", "sprite": "sp-anchoviella_juruasanga.png", "group": "other", "rarity": 1, "waterType": "Saltwater"}, {"lat": -2.554, "lng": 150.6264, "id": "208062", "name": "Terebra babylonia", "sprite": "sp-cowrie_shell.png", "group": "sea_snail", "rarity": 1}, {"lat": -1.5, "lng": 150.1, "id": "212608", "name": "Sterna sumatrana", "sprite": "sp-anchoviella_juruasanga.png", "group": "other", "rarity": 1}, {"lat": -2.4329, "lng": 150.4622, "id": "219883", "name": "Red-toothed triggerfish", "thumb": "tn_Odnig_u0.jpg", "sprite": "sp-balistidae.png", "group": "triggerfish", "rarity": 1, "waterType": "Saltwater"}, {"lat": -2.38, "lng": 150.4778, "id": "411818", "name": "Cochlespiridae", "sprite": "sp-cowrie_shell.png", "group": "sea_snail", "rarity": 1}, {"lat": -2.566, "lng": 150.8, "id": "215680", "name": "Nassa serta", "sprite": "sp-cowrie_shell.png", "group": "sea_snail", "rarity": 1}, {"lat": -2.5872, "lng": 150.7697, "id": "514002", "name": "Manipontonia", "sprite": "sp-american_lobster.png", "group": "crab_lobster", "rarity": 1}, {"lat": -2.5187, "lng": 150.227, "id": "385403", "name": "Melo amphora", "sprite": "sp-cowrie_shell.png", "group": "sea_snail", "rarity": 1}, {"lat": -2.2117, "lng": 150.39, "id": "242707", "name": "Amphiophiura insolita", "sprite": "sp-sea_cucumber.png", "group": "starfish", "rarity": 1}, {"lat": -2.7186, "lng": 150.6142, "id": "345687", "name": "Acrosterigma dianthinum", "sprite": "sp-blue_mussel.png", "group": "clam_mussel", "rarity": 1}, {"lat": -2.566, "lng": 150.8, "id": "428940", "name": "Conus biliosus", "sprite": "sp-cowrie_shell.png", "group": "sea_snail", "rarity": 1}, {"lat": -2.6792, "lng": 150.563, "id": "957167", "name": "Orphanopusia patriarchalis", "sprite": "sp-cowrie_shell.png", "group": "sea_snail", "rarity": 1}, {"lat": -2.2117, "lng": 150.39, "id": "106857", "name": "Paragiopagurus", "sprite": "sp-american_lobster.png", "group": "crab_lobster", "rarity": 1}, {"lat": -2.6651, "lng": 150.7335, "id": "718958", "name": "Cavatidens bullula", "sprite": "sp-blue_mussel.png", "group": "clam_mussel", "rarity": 1}, {"lat": -2.6008, "lng": 150.5604, "id": "215546", "name": "Conus canonicus", "sprite": "sp-cowrie_shell.png", "group": "sea_snail", "rarity": 1}, {"lat": -2.6205, "lng": 150.4917, "id": "215511", "name": "Conus varius", "sprite": "sp-cowrie_shell.png", "group": "sea_snail", "rarity": 1}, {"lat": -2.6128, "lng": 150.7066, "id": "415354", "name": "Eratoidea", "sprite": "sp-cowrie_shell.png", "group": "sea_snail", "rarity": 1}, {"lat": -2.4724, "lng": 150.6918, "id": "414874", "name": "Psalidopodidae", "sprite": "sp-american_lobster.png", "group": "crab_lobster", "rarity": 1}, {"lat": -2.7679, "lng": 150.7539, "id": "514532", "name": "Dactylonia okai", "sprite": "sp-american_lobster.png", "group": "crab_lobster", "rarity": 1}, {"lat": -2.6502, "lng": 150.684, "id": "250", "name": "Gastrochaenidae", "sprite": "sp-blue_mussel.png", "group": "clam_mussel", "rarity": 1}, {"lat": -2.5668, "lng": 150.7847, "id": "208985", "name": "Liomera semigranosa", "sprite": "sp-american_lobster.png", "group": "crab_lobster", "rarity": 1}, {"lat": -2.6122, "lng": 150.6447, "id": "208891", "name": "Camposcia retusa", "sprite": "sp-american_lobster.png", "group": "crab_lobster", "rarity": 1}, {"lat": -2.6549, "lng": 150.685, "id": "215514", "name": "Conus emaciatus", "sprite": "sp-cowrie_shell.png", "group": "sea_snail", "rarity": 1}]}