{"zoom": 7, "x": 117, "y": 50, "points": [{"lat": 34.54, "lng": 151.38, "id": "126327", "name": "Snubnosed eel", "thumb": "tn_Sipar_u1.jpg", "sprite": "sp-electric_eel.png", "group": "eel", "rarity": 1, "waterType": "Saltwater"}, {"lat": 35.5085, "lng": 149.9875, "id": "128795", "name": "Agetus flaccus", "sprite": "sp-anchoviella_juruasanga.png", "group": "other", "rarity": 1}, {"lat": 34.99, "lng": 149.638, "id": "506289", "name": "Bathyspinula calcarella", "sprite": "sp-blue_mussel.png", "group": "clam_mussel", "rarity": 1}, {"lat": 35.3966, "lng": 150.11, "id": "104473", "name": "Undinula vulgaris", "sprite": "sp-anchoviella_juruasanga.png", "group": "other", "rarity": 1}, {"lat": 36.0, "lng": 150.0, "id": "104165", "name": "Pseudocalanus", "sprite": "sp-anchoviella_juruasanga.png", "group": "other", "rarity": 1}, {"lat": 35.648, "lng": 150.3765, "id": "104503", "name": "Clausocalanus furcatus", "sprite": "sp-anchoviella_juruasanga.png", "group": "other", "rarity": 1}, {"lat": 35.4433, "lng": 150.4183, "id": "344104", "name": "Phoebastria immutabilis", "sprite": "sp-anchoviella_juruasanga.png", "group": "other", "rarity": 1}, {"lat": 36.0, "lng": 150.0, "id": "196772", "name": "Neocalanus plumchrus", "sprite": "sp-anchoviella_juruasanga.png", "group": "other", "rarity": 1}, {"lat": 35.7415, "lng": 150.2665, "id": "360445", "name": "Sapphirina darwinii", "sprite": "sp-anchoviella_juruasanga.png", "group": "other", "rarity": 1}, {"lat": 35.483, "lng": 149.517, "id": "220928", "name": "Pontellina morii", "sprite": "sp-anchoviella_juruasanga.png", "group": "other", "rarity": 1}, {"lat": 35.0, "lng": 151.75, "id": "129053", "name": "Sapphirina nigromaculata", "sprite": "sp-anchoviella_juruasanga.png", "group": "other", "rarity": 1}, {"lat": 35.7627, "lng": 150.2223, "id": "104196", "name": "Paracalanus", "sprite": "sp-anchoviella_juruasanga.png", "group": "other", "rarity": 1}, {"lat": 36.01, "lng": 149.2917, "id": "158916", "name": "Patchwork lampfish", "thumb": "tn_Nores_u0.jpg", "sprite": "sp-anchoviella_juruasanga.png", "group": "other", "rarity": 1, "waterType": "Saltwater"}, {"lat": 35.7173, "lng": 150.1283, "id": "104103", "name": "Scolecitrichidae", "sprite": "sp-anchoviella_juruasanga.png", "group": "other", "rarity": 1}, {"lat": 35.573, "lng": 149.9576, "id": "104640", "name": "Pleuromamma piseki", "sprite": "sp-anchoviella_juruasanga.png", "group": "other", "rarity": 1}, {"lat": 35.7672, "lng": 150.1527, "id": "128939", "name": "Oncaea mediterranea", "sprite": "sp-anchoviella_juruasanga.png", "group": "other", "rarity": 1}, {"lat": 36.0117, "lng": 149.9767, "id": "126720", "name": "Longsnout blacksmelt", "thumb": "tn_Balon_u0.jpg", "sprite": "sp-anchoviella_juruasanga.png", "group": "other", "rarity": 1, "waterType": "Saltwater"}, {"lat": 35.3533, "lng": 150.345, "id": "104599", "name": "Lucicutia gaussae", "sprite": "sp-anchoviella_juruasanga.png", "group": "other", "rarity": 1}, {"lat": 36.1, "lng": 150.1934, "id": "104241", "name": "Temora", "sprite": "sp-anchoviella_juruasanga.png", "group": "other", "rarity": 1}, {"lat": 35.5, "lng": 151.0, "id": "104548", "name": "Subeucalanus subcrassus", "sprite": "sp-anchoviella_juruasanga.png", "group": "other", "rarity": 1}, {"lat": 35.7097, "lng": 150.4112, "id": "104669", "name": "Calocalanus pavo", "sprite": "sp-anchoviella_juruasanga.png", "group": "other", "rarity": 1}, {"lat": 35.5028, "lng": 150.4668, "id": "346439", "name": "Euchaeta longicornis", "sprite": "sp-anchoviella_juruasanga.png", "group": "other", "rarity": 1}, {"lat": 34.5, "lng": 149.5, "id": "344106", "name": "Phoebastria nigripes", "sprite": "sp-anchoviella_juruasanga.png", "group": "other", "rarity": 1}, {"lat": 35.6406, "lng": 150.174, "id": "346030", "name": "Acartia (Acartia) negligens", "sprite": "sp-anchoviella_juruasanga.png", "group": "other", "rarity": 1}, {"lat": 35.5, "lng": 150.25, "id": "104343", "name": "Undeuchaeta plumosa", "sprite": "sp-anchoviella_juruasanga.png", "group": "other", "rarity": 1}, {"lat": 35.8802, "lng": 150.0204, "id": "104616", "name": "Mecynocera clausi", "sprite": "sp-anchoviella_juruasanga.png", "group": "other", "rarity": 1}, {"lat": 35.2585, "lng": 151.017, "id": "220858", "name": "Amallothrix valida", "sprite": "sp-anchoviella_juruasanga.png", "group": "other", "rarity": 1}, {"lat": 36.0, "lng": 150.0, "id": "115805", "name": "Clytemnestra scutellata", "sprite": "sp-anchoviella_juruasanga.png", "group": "other", "rarity": 1}, {"lat": 35.7353, "lng": 150.2579, "id": "359744", "name": "Onychocorycaeus pacificus", "sprite": "sp-anchoviella_juruasanga.png", "group": "other", "rarity": 1}, {"lat": 35.3, "lng": 150.8634, "id": "128894", "name": "Lubbockia squillimana", "sprite": "sp-anchoviella_juruasanga.png", "group": "other", "rarity": 1}, {"lat": 35.0085, "lng": 151.3835, "id": "765217", "name": "Urocorycaeus longistylis", "sprite": "sp-anchoviella_juruasanga.png", "group": "other", "rarity": 1}, {"lat": 35.715, "lng": 150.235, "id": "734517", "name": "Oithona setigera setigera", "sprite": "sp-anchoviella_juruasanga.png", "group": "other", "rarity": 1}, {"lat": 35.5, "lng": 151.2668, "id": "104159", "name": "Centropages", "sprite": "sp-anchoviella_juruasanga.png", "group": "other", "rarity": 1}, {"lat": 35.6208, "lng": 150.3875, "id": "104547", "name": "Subeucalanus pileatus", "sprite": "sp-anchoviella_juruasanga.png", "group": "other", "rarity": 1}, {"lat": 35.2415, "lng": 149.8915, "id": "360544", "name": "Scolecithricella nicobarica", "sprite": "sp-anchoviella_juruasanga.png", "group": "other", "rarity": 1}, {"lat": 34.7433, "lng": 149.9667, "id": "275016", "name": "Astronesthes fedorovi", "sprite": "sp-anchoviella_juruasanga.png", "group": "other", "rarity": 1, "waterType": "Saltwater"}, {"lat": 35.569, "lng": 150.0191, "id": "104075", "name": "Aetideidae", "sprite": "sp-anchoviella_juruasanga.png", "group": "other", "rarity": 1}, {"lat": 35.767, "lng": 149.5085, "id": "128822", "name": "Urocorycaeus lautus", "sprite": "sp-anchoviella_juruasanga.png", "group": "other", "rarity": 1}, {"lat": 35.5, "lng": 150.25, "id": "104483", "name": "Candacia pachydactyla", "sprite": "sp-anchoviella_juruasanga.png", "group": "other", "rarity": 1}, {"lat": 35.7893, "lng": 150.2168, "id": "104108", "name": "Acartia", "sprite": "sp-anchoviella_juruasanga.png", "group": "other", "rarity": 1}, {"lat": 35.6321, "lng": 150.1167, "id": "128799", "name": "Corycaeus crassiusculus", "sprite": "sp-anchoviella_juruasanga.png", "group": "other", "rarity": 1}, {"lat": 36.0, "lng": 150.0, "id": "346443", "name": "Euchaeta plana", "sprite": "sp-anchoviella_juruasanga.png", "group": "other", "rarity": 1}, {"lat": 35.8, "lng": 150.1568, "id": "128690", "name": "Oncaea", "sprite": "sp-anchoviella_juruasanga.png", "group": "other", "rarity": 1}, {"lat": 36.0067, "lng": 151.4233, "id": "281374", "name": "Eared blacksmelt", "thumb": "tn_Lioch_u1.jpg", "sprite": "sp-anchoviella_juruasanga.png", "group": "other", "rarity": 1, "waterType": "Saltwater"}, {"lat": 36.1667, "lng": 149.6132, "id": "345781", "name": "Eucalanus hyalinus", "sprite": "sp-anchoviella_juruasanga.png", "group": "other", "rarity": 1}, {"lat": 35.9396, "lng": 150.0667, "id": "104509", "name": "Clausocalanus pergens", "sprite": "sp-anchoviella_juruasanga.png", "group": "other", "rarity": 1}, {"lat": 36.533, "lng": 149.5, "id": "128808", "name": "Ditrichocorycaeus minimus", "sprite": "sp-anchoviella_juruasanga.png", "group": "other", "rarity": 1}, {"lat": 35.25, "lng": 151.0165, "id": "104807", "name": "Scolecithricella dentata", "sprite": "sp-anchoviella_juruasanga.png", "group": "other", "rarity": 1}, {"lat": 34.99, "lng": 149.638, "id": "197471", "name": "Tindaria antarctica", "sprite": "sp-blue_mussel.png", "group": "clam_mussel", "rarity": 1}, {"lat": 35.5924, "lng": 150.3743, "id": "128796", "name": "Agetus limbatus", "sprite": "sp-anchoviella_juruasanga.png", "group": "other", "rarity": 1}, {"lat": 36.2667, "lng": 150.0667, "id": "220322", "name": "Ornithoteuthis volatilis", "sprite": "sp-giant_pacific_octopus.png", "group": "octopus_squid", "rarity": 1}, {"lat": 35.6723, "lng": 150.4695, "id": "128722", "name": "Sapphirina", "sprite": "sp-anchoviella_juruasanga.png", "group": "other", "rarity": 1}, {"lat": 35.7381, "lng": 150.1615, "id": "104597", "name": "Lucicutia flavicornis", "sprite": "sp-anchoviella_juruasanga.png", "group": "other", "rarity": 1}, {"lat": 35.7514, "lng": 150.1653, "id": "104161", "name": "Clausocalanus", "sprite": "sp-anchoviella_juruasanga.png", "group": "other", "rarity": 1}, {"lat": 36.0, "lng": 150.0, "id": "104298", "name": "Euchirella bitumida", "sprite": "sp-anchoviella_juruasanga.png", "group": "other", "rarity": 1}, {"lat": 36.0667, "lng": 149.6377, "id": "346213", "name": "Calanus jashnovi", "sprite": "sp-anchoviella_juruasanga.png", "group": "other", "rarity": 1}, {"lat": 36.5, "lng": 150.017, "id": "104290", "name": "Chiridius gracilis", "sprite": "sp-anchoviella_juruasanga.png", "group": "other", "rarity": 1}, {"lat": 35.522, "lng": 150.5728, "id": "1384339", "name": "Cosmocalanus darwinii darwinii", "sprite": "sp-anchoviella_juruasanga.png", "group": "other", "rarity": 1}, {"lat": 35.8201, "lng": 150.2239, "id": "104183", "name": "Lucicutia", "sprite": "sp-anchoviella_juruasanga.png", "group": "other", "rarity": 1}, {"lat": 36.01, "lng": 149.2917, "id": "125447", "name": "Paralepididae", "sprite": "sp-anchoviella_juruasanga.png", "group": "other", "rarity": 1}, {"lat": 35.7111, "lng": 150.3889, "id": "211848", "name": "Calocalanus plumulosus", "sprite": "sp-anchoviella_juruasanga.png", "group": "other", "rarity": 1}, {"lat": 35.3166, "lng": 150.6758, "id": "128821", "name": "Urocorycaeus furcifer", "sprite": "sp-anchoviella_juruasanga.png", "group": "other", "rarity": 1}, {"lat": 36.0113, "lng": 149.517, "id": "104543", "name": "Rhincalanus nasutus", "sprite": "sp-anchoviella_juruasanga.png", "group": "other", "rarity": 1}, {"lat": 35.6047, "lng": 150.5524, "id": "104821", "name": "Scolecithrix danae", "sprite": "sp-anchoviella_juruasanga.png", "group": "other", "rarity": 1}, {"lat": 36.1916, "lng": 149.7813, "id": "106656", "name": "Oithona similis", "sprite": "sp-anchoviella_juruasanga.png", "group": "other", "rarity": 1}, {"lat": 35.668, "lng": 150.4146, "id": "2", "name": "Animalia", "sprite": "sp-anchoviella_juruasanga.png", "group": "other", "rarity": 1}, {"lat": 36.125, "lng": 149.8042, "id": "104673", "name": "Calocalanus styliremis", "sprite": "sp-anchoviella_juruasanga.png", "group": "other", "rarity": 1}, {"lat": 35.7097, "lng": 150.232, "id": "104193", "name": "Calocalanus", "sprite": "sp-anchoviella_juruasanga.png", "group": "other", "rarity": 1}, {"lat": 35.7458, "lng": 149.9167, "id": "359743", "name": "Onychocorycaeus agilis", "sprite": "sp-anchoviella_juruasanga.png", "group": "other", "rarity": 1}, {"lat": 36.1034, "lng": 149.9034, "id": "149752", "name": "Acartia (Acartiura) omorii", "sprite": "sp-anchoviella_juruasanga.png", "group": "other", "rarity": 1}, {"lat": 36.0, "lng": 150.0, "id": "196779", "name": "Paraeuchaeta elongata", "sprite": "sp-anchoviella_juruasanga.png", "group": "other", "rarity": 1}, {"lat": 35.1723, "lng": 151.2613, "id": "106654", "name": "Oithona robusta", "sprite": "sp-anchoviella_juruasanga.png", "group": "other", "rarity": 1}, {"lat": 35.5, "lng": 150.1833, "id": "220916", "name": "Candacia truncata", "sprite": "sp-anchoviella_juruasanga.png", "group": "other", "rarity": 1}, {"lat": 36.0789, "lng": 149.8343, "id": "196784", "name": "Metridia pacifica", "sprite": "sp-anchoviella_juruasanga.png", "group": "other", "rarity": 1}, {"lat": 34.99, "lng": 149.638, "id": "140306", "name": "Katadesmia cuneata", "sprite": "sp-blue_mussel.png", "group": "clam_mussel", "rarity": 1}, {"lat": 35.7733, "lng": 150.1138, "id": "104468", "name": "Mesocalanus tenuicornis", "sprite": "sp-anchoviella_juruasanga.png", "group": "other", "rarity": 1}, {"lat": 36.0, "lng": 150.0, "id": "273823", "name": "Pacific bluefin tuna", "thumb": "tn_Thori_u1.gif", "sprite": "sp-bluefin_tuna.png", "group": "tuna_mackerel", "rarity": 1, "waterType": "Brackish"}, {"lat": 35.5041, "lng": 150.325, "id": "104792", "name": "Scaphocalanus curtus", "sprite": "sp-anchoviella_juruasanga.png", "group": "other", "rarity": 1}, {"lat": 35.68, "lng": 150.2592, "id": "128954", "name": "Oncaea venusta", "sprite": "sp-anchoviella_juruasanga.png", "group": "other", "rarity": 1}, {"lat": 36.0, "lng": 150.0, "id": "104303", "name": "Euchirella rostrata", "sprite": "sp-anchoviella_juruasanga.png", "group": "other", "rarity": 1}, {"lat": 35.5833, "lng": 150.7697, "id": "104580", "name": "Heterorhabdus papilliger", "sprite": "sp-anchoviella_juruasanga.png", "group": "other", "rarity": 1}, {"lat": 36.0, "lng": 150.0, "id": "104152", "name": "Calanus", "sprite": "sp-anchoviella_juruasanga.png", "group": "other", "rarity": 1}, {"lat": 36.017, "lng": 149.517, "id": "128950", "name": "Oncaea scottodicarloi", "sprite": "sp-anchoviella_juruasanga.png", "group": "other", "rarity": 1}, {"lat": 35.9755, "lng": 149.9334, "id": "764943", "name": "Ditrichocorycaeus affinis", "sprite": "sp-anchoviella_juruasanga.png", "group": "other", "rarity": 1}, {"lat": 35.7355, "lng": 150.2234, "id": "128800", "name": "Corycaeus speciosus", "sprite": "sp-anchoviella_juruasanga.png", "group": "other", "rarity": 1}, {"lat": 35.2542, "lng": 150.7938, "id": "220834", "name": "Canthocalanus pauper", "sprite": "sp-anchoviella_juruasanga.png", "group": "other", "rarity": 1}, {"lat": 35.5, "lng": 151.017, "id": "104433", "name": "Haloptilus ornatus", "sprite": "sp-anchoviella_juruasanga.png", "group": "other", "rarity": 1}, {"lat": 36.0, "lng": 151.0383, "id": "125788", "name": "Trachipterus", "sprite": "sp-anchoviella_juruasanga.png", "group": "other", "rarity": 1}, {"lat": 36.017, "lng": 149.517, "id": "359874", "name": "Paraeuchaeta russelli", "sprite": "sp-anchoviella_juruasanga.png", "group": "other", "rarity": 1}, {"lat": 35.5, "lng": 150.6335, "id": "129036", "name": "Copilia lata", "sprite": "sp-anchoviella_juruasanga.png", "group": "other", "rarity": 1}, {"lat": 35.483, "lng": 149.517, "id": "104342", "name": "Undeuchaeta major", "sprite": "sp-anchoviella_juruasanga.png", "group": "other", "rarity": 1}, {"lat": 35.7288, "lng": 150.1804, "id": "104079", "name": "Calanidae", "sprite": "sp-anchoviella_juruasanga.png", "group": "other", "rarity": 1}, {"lat": 35.6823, "lng": 150.2677, "id": "104469", "name": "Nannocalanus minor", "sprite": "sp-anchoviella_juruasanga.png", "group": "other", "rarity": 1}, {"lat": 36.533, "lng": 149.5, "id": "128814", "name": "Farranula rostrata", "sprite": "sp-anchoviella_juruasanga.png", "group": "other", "rarity": 1}, {"lat": 36.0625, "lng": 149.923, "id": "196771", "name": "Calanus pacificus", "sprite": "sp-anchoviella_juruasanga.png", "group": "other", "rarity": 1}, {"lat": 35.017, "lng": 151.017, "id": "129039", "name": "Copilia quadrata", "sprite": "sp-anchoviella_juruasanga.png", "group": "other", "rarity": 1}, {"lat": 36.0117, "lng": 149.9767, "id": "275121", "name": "Eustomias orientalis", "sprite": "sp-anchoviella_juruasanga.png", "group": "other", "rarity": 1, "waterType": "Saltwater"}, {"lat": 35.4887, "lng": 149.6833, "id": "104471", "name": "Neocalanus gracilis", "sprite": "sp-anchoviella_juruasanga.png", "group": "other", "rarity": 1}, {"lat": 35.4167, "lng": 150.8947, "id": "356949", "name": "Amallothrix tenuiserrata", "sprite": "sp-anchoviella_juruasanga.png", "group": "other", "rarity": 1}, {"lat": 35.5949, "lng": 149.9617, "id": "596242", "name": "Pleuromamma abdominalis abdominalis", "sprite": "sp-anchoviella_juruasanga.png", "group": "other", "rarity": 1}, {"lat": 36.5, "lng": 150.0, "id": "106659", "name": "Oithona vivida", "sprite": "sp-anchoviella_juruasanga.png", "group": "other", "rarity": 1}, {"lat": 35.5, "lng": 151.017, "id": "129041", "name": "Sapphirina angusta", "sprite": "sp-anchoviella_juruasanga.png", "group": "other", "rarity": 1}, {"lat": 35.6723, "lng": 149.9333, "id": "104643", "name": "Pleuromamma xiphias", "sprite": "sp-anchoviella_juruasanga.png", "group": "other", "rarity": 1}, {"lat": 35.5, "lng": 151.017, "id": "220903", "name": "Centropages gracilis", "sprite": "sp-anchoviella_juruasanga.png", "group": "other", "rarity": 1}, {"lat": 35.0, "lng": 150.283, "id": "136003", "name": "Pontoeciella abyssicola", "sprite": "sp-anchoviella_juruasanga.png", "group": "other", "rarity": 1}, {"lat": 35.8293, "lng": 150.1202, "id": "104507", "name": "Clausocalanus parapergens", "sprite": "sp-anchoviella_juruasanga.png", "group": "other", "rarity": 1}, {"lat": 35.9506, "lng": 149.9529, "id": "745865", "name": "Paracalanus parvus parvus", "sprite": "sp-anchoviella_juruasanga.png", "group": "other", "rarity": 1}, {"lat": 35.8371, "lng": 149.9427, "id": "104880", "name": "Temora turbinata", "sprite": "sp-anchoviella_juruasanga.png", "group": "other", "rarity": 1}, {"lat": 35.5085, "lng": 150.267, "id": "129052", "name": "Sapphirina metallina", "sprite": "sp-anchoviella_juruasanga.png", "group": "other", "rarity": 1}, {"lat": 36.25, "lng": 150.0085, "id": "104470", "name": "Neocalanus cristatus", "sprite": "sp-anchoviella_juruasanga.png", "group": "other", "rarity": 1}, {"lat": 36.0, "lng": 150.1133, "id": "127303", "name": "Oceanic lightfish", "thumb": "tn_Vinim_u1.gif", "sprite": "sp-anchoviella_juruasanga.png", "group": "other", "rarity": 1, "waterType": "Saltwater"}, {"lat": 35.7909, "lng": 150.2138, "id": "104510", "name": "Ctenocalanus vanus", "sprite": "sp-anchoviella_juruasanga.png", "group": "other", "rarity": 1}, {"lat": 36.0117, "lng": 149.9767, "id": "127351", "name": "Longbarb dragonfish", "thumb": "tn_Flbou_u0.jpg", "sprite": "sp-anchoviella_juruasanga.png", "group": "other", "rarity": 1, "waterType": "Saltwater"}, {"lat": 36.0117, "lng": 149.9767, "id": "217615", "name": "Grapevine dragonfish", "sprite": "sp-anchoviella_juruasanga.png", "group": "other", "rarity": 1, "waterType": "Saltwater"}, {"lat": 36.1667, "lng": 149.739, "id": "850801", "name": "Metridia lucens lucens", "sprite": "sp-anchoviella_juruasanga.png", "group": "other", "rarity": 1}, {"lat": 36.0117, "lng": 149.9767, "id": "273685", "name": "Howella zina", "thumb": "tn_Hozin_u1.jpg", "sprite": "sp-anchoviella_juruasanga.png", "group": "other", "rarity": 1, "waterType": "Saltwater"}, {"lat": 35.3915, "lng": 150.0716, "id": "1436445", "name": "Pleuromamma gracilis gracilis", "sprite": "sp-anchoviella_juruasanga.png", "group": "other", "rarity": 1}, {"lat": 35.3319, "lng": 150.4403, "id": "128797", "name": "Agetus typicus", "sprite": "sp-anchoviella_juruasanga.png", "group": "other", "rarity": 1}, {"lat": 36.21, "lng": 149.71, "id": "128938", "name": "Oncaea media", "sprite": "sp-anchoviella_juruasanga.png", "group": "other", "rarity": 1}, {"lat": 36.01, "lng": 149.2917, "id": "126993", "name": "Bluefin driftfish", "thumb": "tn_Pspel_u1.jpg", "sprite": "sp-anchoviella_juruasanga.png", "group": "other", "rarity": 1, "waterType": "Saltwater"}]}