{"zoom": 7, "x": 118, "y": 67, "points": [{"lat": -10.8268, "lng": 152.4239, "id": "218304", "name": "Yellow-edged lyretail", "thumb": "tn_Valou_uc.jpg", "sprite": "sp-chelidoperca_santosi.png", "group": "grouper", "rarity": 1, "waterType": "Saltwater"}, {"lat": -9.2086, "lng": 152.3001, "id": "125108", "name": "Histampica duplicata", "sprite": "sp-sea_cucumber.png", "group": "starfish", "rarity": 1}, {"lat": -9.553, "lng": 152.4233, "id": "111032", "name": "Crisia", "sprite": "sp-anchoviella_juruasanga.png", "group": "other", "rarity": 1}, {"lat": -10.8284, "lng": 152.4657, "id": "277504", "name": "Bleeker's parrotfish", "thumb": "tn_Chble_m1.jpg", "sprite": "sp-rainbow_parrotfish.png", "group": "parrotfish", "rarity": 1, "waterType": "Saltwater"}, {"lat": -10.8328, "lng": 152.4334, "id": "273913", "name": "Orange-spotted spinefoot", "thumb": "tn_Sigut_u6.jpg", "sprite": "sp-anchoviella_juruasanga.png", "group": "other", "rarity": 1, "waterType": "Brackish"}, {"lat": -11.0515, "lng": 152.477, "id": "123207", "name": "Ophiactidae", "sprite": "sp-sea_cucumber.png", "group": "starfish", "rarity": 1}, {"lat": -11.1048, "lng": 152.835, "id": "103465", "name": "Eudistoma", "sprite": "sp-anchoviella_juruasanga.png", "group": "other", "rarity": 1}, {"lat": -10.791, "lng": 152.3847, "id": "210472", "name": "Synalpheus neomeris", "sprite": "sp-american_lobster.png", "group": "crab_lobster", "rarity": 1}, {"lat": -10.8, "lng": 152.3667, "id": "1079110", "name": "Naria labrolineata", "sprite": "sp-cowrie_shell.png", "group": "sea_snail", "rarity": 1}, {"lat": -9.1108, "lng": 152.2358, "id": "123384", "name": "Echinocyamus", "sprite": "sp-sea_cucumber.png", "group": "starfish", "rarity": 1}, {"lat": -10.6685, "lng": 152.3513, "id": "210725", "name": "Heliopora coerulea", "sprite": "sp-actiniidae.png", "group": "coral", "rarity": 1}, {"lat": -8.7797, "lng": 152.7268, "id": "206286", "name": "Ostracoberyx", "sprite": "sp-anchoviella_juruasanga.png", "group": "other", "rarity": 1}, {"lat": -9.3, "lng": 153.5832, "id": "212059", "name": "Red snout emperor", "thumb": "tn_Leret_u2.jpg", "sprite": "sp-anchoviella_juruasanga.png", "group": "other", "rarity": 1, "waterType": "Saltwater"}, {"lat": -10.791, "lng": 152.3847, "id": "215828", "name": "Tapes literatus", "sprite": "sp-blue_mussel.png", "group": "clam_mussel", "rarity": 1}, {"lat": -10.8292, "lng": 152.4481, "id": "219125", "name": "Common parrotfish", "thumb": "tn_Scpsi_m0.jpg", "sprite": "sp-rainbow_parrotfish.png", "group": "parrotfish", "rarity": 1, "waterType": "Saltwater"}, {"lat": -9.083, "lng": 152.716, "id": "207578", "name": "Ocypode ceratophthalmus", "sprite": "sp-american_lobster.png", "group": "crab_lobster", "rarity": 1}, {"lat": -10.7717, "lng": 152.3792, "id": "213119", "name": "Archaster typicus", "sprite": "sp-sea_cucumber.png", "group": "starfish", "rarity": 1}, {"lat": -10.842, "lng": 152.4436, "id": "218759", "name": "Longnose butterflyfish", "thumb": "tn_Folon_u5.jpg", "sprite": "sp-chaetodon.png", "group": "butterflyfish", "rarity": 1, "waterType": "Saltwater"}, {"lat": -10.8361, "lng": 152.4044, "id": "212062", "name": "Trumpet emperor", "thumb": "tn_Lemin_u2.jpg", "sprite": "sp-anchoviella_juruasanga.png", "group": "other", "rarity": 1, "waterType": "Brackish"}, {"lat": -10.8184, "lng": 152.436, "id": "276750", "name": "Horned bannerfish", "thumb": "tn_Hevar_u0.jpg", "sprite": "sp-chaetodon.png", "group": "butterflyfish", "rarity": 1, "waterType": "Saltwater"}, {"lat": -9.4881, "lng": 152.6731, "id": "212466", "name": "Metalia dicrana", "sprite": "sp-sea_cucumber.png", "group": "starfish", "rarity": 1}, {"lat": -11.1, "lng": 152.2783, "id": "1806", "name": "Echinodermata", "sprite": "sp-sea_cucumber.png", "group": "starfish", "rarity": 1}, {"lat": -9.2835, "lng": 152.2867, "id": "210434", "name": "Acanthephyra armata", "sprite": "sp-american_lobster.png", "group": "crab_lobster", "rarity": 1}, {"lat": -10.7847, "lng": 152.3236, "id": "211101", "name": "Vasum ceramicum", "sprite": "sp-cowrie_shell.png", "group": "sea_snail", "rarity": 1}, {"lat": -9.2315, "lng": 152.426, "id": "250799", "name": "Lissoclinum patella", "sprite": "sp-anchoviella_juruasanga.png", "group": "other", "rarity": 1}, {"lat": -11.0515, "lng": 152.477, "id": "138125", "name": "Lima", "sprite": "sp-blue_mussel.png", "group": "clam_mussel", "rarity": 1}, {"lat": -10.8466, "lng": 152.4317, "id": "219658", "name": "Spotted surgeonfish", "thumb": "tn_Ctstr_u0.jpg", "sprite": "sp-acanthurus_albimento.png", "group": "surgeonfish", "rarity": 1, "waterType": "Saltwater"}, {"lat": -9.2102, "lng": 153.9227, "id": "106777", "name": "Hippolytidae", "sprite": "sp-american_lobster.png", "group": "crab_lobster", "rarity": 1}, {"lat": -10.7941, "lng": 152.3943, "id": "125704", "name": "Sargocentron", "sprite": "sp-anchoviella_juruasanga.png", "group": "other", "rarity": 1}, {"lat": -9.1337, "lng": 152.3135, "id": "206793", "name": "Hadropenaeus", "sprite": "sp-american_lobster.png", "group": "crab_lobster", "rarity": 1}, {"lat": -10.791, "lng": 152.3847, "id": "215996", "name": "Quadrans gargadia", "sprite": "sp-blue_mussel.png", "group": "clam_mussel", "rarity": 1}, {"lat": -10.8325, "lng": 152.4785, "id": "219626", "name": "Epaulette surgeonfish", "thumb": "tn_Acnig_um.jpg", "sprite": "sp-acanthurus_albimento.png", "group": "surgeonfish", "rarity": 1, "waterType": "Brackish"}, {"lat": -11.1025, "lng": 152.4717, "id": "368950", "name": "Fromia hadracantha", "sprite": "sp-sea_cucumber.png", "group": "starfish", "rarity": 1}, {"lat": -9.165, "lng": 152.6944, "id": "219512", "name": "Flagfin prawn goby", "thumb": "tn_Mamys_u2.jpg", "sprite": "sp-eviota_bipunctata.png", "group": "goby", "rarity": 1, "waterType": "Brackish"}, {"lat": -10.7767, "lng": 152.4934, "id": "272960", "name": "Fowler's surgeonfish", "thumb": "tn_Acfow_u2.jpg", "sprite": "sp-acanthurus_albimento.png", "group": "surgeonfish", "rarity": 1, "waterType": "Saltwater"}, {"lat": -11.0515, "lng": 152.477, "id": "210007", "name": "Sympodium caeruleum", "sprite": "sp-actiniidae.png", "group": "coral", "rarity": 1}, {"lat": -11.0823, "lng": 152.5296, "id": "204396", "name": "Xenia", "sprite": "sp-actiniidae.png", "group": "coral", "rarity": 1}, {"lat": -10.8137, "lng": 152.4246, "id": "137813", "name": "Conus", "sprite": "sp-cowrie_shell.png", "group": "sea_snail", "rarity": 1}, {"lat": -11.1409, "lng": 152.6905, "id": "712865", "name": "Creamback dwarfgoby", "thumb": "tn_Evdor_u1.jpg", "sprite": "sp-eviota_bipunctata.png", "group": "goby", "rarity": 1, "waterType": "Saltwater"}, {"lat": -9.1868, "lng": 152.264, "id": "243792", "name": "Ophiomoeris tenera", "sprite": "sp-sea_cucumber.png", "group": "starfish", "rarity": 1}, {"lat": -9.2315, "lng": 152.426, "id": "131754", "name": "Coscinoderma", "sprite": "sp-barrel_sponge.png", "group": "sponge", "rarity": 1}, {"lat": -10.4, "lng": 152.2, "id": "277151", "name": "Bluespot damsel", "thumb": "tn_Pogra_u1.jpg", "sprite": "sp-chrysiptera_caesifrons.png", "group": "clownfish", "rarity": 1, "waterType": "Saltwater"}, {"lat": -10.797, "lng": 152.4884, "id": "123208", "name": "Ophiotrichidae", "sprite": "sp-sea_cucumber.png", "group": "starfish", "rarity": 1}, {"lat": -9.1993, "lng": 152.7833, "id": "1070", "name": "Maxillopoda", "sprite": "sp-anchoviella_juruasanga.png", "group": "other", "rarity": 1}, {"lat": -10.828, "lng": 152.4515, "id": "218255", "name": "Masked grouper", "thumb": "tn_Gralb_u2.jpg", "sprite": "sp-chelidoperca_santosi.png", "group": "grouper", "rarity": 1, "waterType": "Saltwater"}, {"lat": -11.0418, "lng": 152.4787, "id": "367951", "name": "Echinaster luzonicus", "sprite": "sp-sea_cucumber.png", "group": "starfish", "rarity": 1}, {"lat": -9.316, "lng": 151.916, "id": "217797", "name": "Goatsbeard brotula", "thumb": "tn_Brmul_u6.jpg", "sprite": "sp-anchoviella_juruasanga.png", "group": "other", "rarity": 1, "waterType": "Saltwater"}, {"lat": -10.7969, "lng": 152.4365, "id": "218734", "name": "Lined butterflyfish", "thumb": "tn_Chlin_u3.jpg", "sprite": "sp-chaetodon.png", "group": "butterflyfish", "rarity": 1, "waterType": "Saltwater"}, {"lat": -9.316, "lng": 151.916, "id": "1577364", "name": "Pictichromis paccagnellorum", "sprite": "sp-anchoviella_juruasanga.png", "group": "other", "rarity": 1}, {"lat": -10.7831, "lng": 152.416, "id": "126068", "name": "Epinephelus", "sprite": "sp-chelidoperca_santosi.png", "group": "grouper", "rarity": 1}, {"lat": -11.1448, "lng": 153.014, "id": "250766", "name": "Leptoclinides sulawesii", "sprite": "sp-anchoviella_juruasanga.png", "group": "other", "rarity": 1}, {"lat": -10.4611, "lng": 152.3196, "id": "206094", "name": "Siphonogorgia", "sprite": "sp-actiniidae.png", "group": "coral", "rarity": 1}, {"lat": -9.547, "lng": 152.4272, "id": "165539", "name": "Dragmacidon australe", "sprite": "sp-barrel_sponge.png", "group": "sponge", "rarity": 1}, {"lat": -11.1025, "lng": 152.4787, "id": "220381", "name": "Hexabranchus sanguineus", "sprite": "sp-cowrie_shell.png", "group": "sea_snail", "rarity": 1}, {"lat": -10.7984, "lng": 152.4042, "id": "382205", "name": "Tridacna derasa", "sprite": "sp-blue_mussel.png", "group": "clam_mussel", "rarity": 1}, {"lat": -10.791, "lng": 152.3847, "id": "1549091", "name": "Lamarcka ventricosa", "sprite": "sp-blue_mussel.png", "group": "clam_mussel", "rarity": 1}, {"lat": -10.8293, "lng": 152.4264, "id": "105795", "name": "Blacktip reef shark", "thumb": "tn_Camel_u4.jpg", "sprite": "sp-great_white_shark.png", "group": "shark", "rarity": 1, "waterType": "Brackish"}, {"lat": -10.3681, "lng": 152.2984, "id": "205702", "name": "Rumphella", "sprite": "sp-actiniidae.png", "group": "coral", "rarity": 1}, {"lat": -10.6953, "lng": 152.3355, "id": "210896", "name": "Holothuria (Lessonothuria) lineata", "sprite": "sp-sea_cucumber.png", "group": "starfish", "rarity": 1}, {"lat": -10.1108, "lng": 152.3873, "id": "132092", "name": "Cinachyra", "sprite": "sp-barrel_sponge.png", "group": "sponge", "rarity": 1}, {"lat": -9.1337, "lng": 152.3135, "id": "515560", "name": "Lissosabinea indica", "sprite": "sp-american_lobster.png", "group": "crab_lobster", "rarity": 1}, {"lat": -10.6953, "lng": 152.3355, "id": "125316", "name": "Villogorgia", "sprite": "sp-actiniidae.png", "group": "coral", "rarity": 1}, {"lat": -9.1337, "lng": 152.3135, "id": "107046", "name": "Plesionika", "sprite": "sp-american_lobster.png", "group": "crab_lobster", "rarity": 1}, {"lat": -9.1337, "lng": 152.3135, "id": "388852", "name": "Glyphocrangon similior", "sprite": "sp-american_lobster.png", "group": "crab_lobster", "rarity": 1}, {"lat": -9.553, "lng": 152.4233, "id": "131983", "name": "Plakortis", "sprite": "sp-barrel_sponge.png", "group": "sponge", "rarity": 1}, {"lat": -10.7234, "lng": 152.3893, "id": "273354", "name": "Blueblotch butterflyfish", "thumb": "tn_Chple_u0.jpg", "sprite": "sp-chaetodon.png", "group": "butterflyfish", "rarity": 1, "waterType": "Saltwater"}, {"lat": -10.7913, "lng": 152.3626, "id": "737548", "name": "Latirolagena smaragdulus", "sprite": "sp-cowrie_shell.png", "group": "sea_snail", "rarity": 1}, {"lat": -9.2315, "lng": 152.426, "id": "169622", "name": "Suberea clavata", "sprite": "sp-barrel_sponge.png", "group": "sponge", "rarity": 1}, {"lat": -11.1, "lng": 152.2783, "id": "1080", "name": "Copepoda", "sprite": "sp-anchoviella_juruasanga.png", "group": "other", "rarity": 1}, {"lat": -10.967, "lng": 152.5929, "id": "138636", "name": "Dosinia", "sprite": "sp-blue_mussel.png", "group": "clam_mussel", "rarity": 1}, {"lat": -10.4, "lng": 152.2, "id": "1551095", "name": "Stegastes lacrymatus", "sprite": "sp-chrysiptera_caesifrons.png", "group": "clownfish", "rarity": 1}, {"lat": -10.4, "lng": 152.2, "id": "278655", "name": "Whitebarred goby", "thumb": "tn_Ampha_u8.jpg", "sprite": "sp-eviota_bipunctata.png", "group": "goby", "rarity": 1, "waterType": "Saltwater"}, {"lat": -10.8238, "lng": 152.4497, "id": "276046", "name": "Forsten's parrotfish", "thumb": "tn_Scfor_m1.jpg", "sprite": "sp-rainbow_parrotfish.png", "group": "parrotfish", "rarity": 1, "waterType": "Saltwater"}, {"lat": -10.7836, "lng": 152.2935, "id": "205505", "name": "Vasum", "sprite": "sp-cowrie_shell.png", "group": "sea_snail", "rarity": 1}, {"lat": -10.7769, "lng": 152.4697, "id": "276790", "name": "Bald-spot monocle bream", "thumb": "tn_Sctem_u2.jpg", "sprite": "sp-anchoviella_juruasanga.png", "group": "other", "rarity": 1, "waterType": "Saltwater"}, {"lat": -10.8027, "lng": 152.4348, "id": "159393", "name": "Sammara squirrelfish", "thumb": "tn_Nesam_u0.jpg", "sprite": "sp-anchoviella_juruasanga.png", "group": "other", "rarity": 1, "waterType": "Saltwater"}, {"lat": -9.648, "lng": 152.1984, "id": "131825", "name": "Callyspongia", "sprite": "sp-barrel_sponge.png", "group": "sponge", "rarity": 1}, {"lat": -9.2279, "lng": 152.2903, "id": "244059", "name": "Ophiosphalma elegans", "sprite": "sp-sea_cucumber.png", "group": "starfish", "rarity": 1}, {"lat": -10.794, "lng": 152.3001, "id": "216875", "name": "Monetaria annulus", "sprite": "sp-cowrie_shell.png", "group": "sea_snail", "rarity": 1}, {"lat": -10.6685, "lng": 152.3513, "id": "459541", "name": "Cryptasterina pentagona", "sprite": "sp-sea_cucumber.png", "group": "starfish", "rarity": 1}, {"lat": -10.8835, "lng": 152.5292, "id": "216904", "name": "Ovula ovum", "sprite": "sp-cowrie_shell.png", "group": "sea_snail", "rarity": 1}, {"lat": -10.7267, "lng": 152.4403, "id": "216382", "name": "Turbo petholatus", "sprite": "sp-cowrie_shell.png", "group": "sea_snail", "rarity": 1}, {"lat": -9.9167, "lng": 152.4, "id": "207031", "name": "Acropora grandis", "sprite": "sp-actiniidae.png", "group": "coral", "rarity": 1}, {"lat": -9.2183, "lng": 153.8958, "id": "118276", "name": "Serolidae", "sprite": "sp-american_lobster.png", "group": "crab_lobster", "rarity": 1}, {"lat": -9.547, "lng": 152.4272, "id": "165135", "name": "Ianthella basta", "sprite": "sp-barrel_sponge.png", "group": "sponge", "rarity": 1}, {"lat": -11.0933, "lng": 152.7463, "id": "204544", "name": "Tucetona", "sprite": "sp-blue_mussel.png", "group": "clam_mussel", "rarity": 1}, {"lat": -10.4, "lng": 152.2, "id": "278179", "name": "Brown dottyback", "thumb": "tn_Psxan_u0.jpg", "sprite": "sp-anchoviella_juruasanga.png", "group": "other", "rarity": 1, "waterType": "Saltwater"}, {"lat": -11.0744, "lng": 152.7552, "id": "208840", "name": "Thalamita quadrilobata", "sprite": "sp-american_lobster.png", "group": "crab_lobster", "rarity": 1}, {"lat": -9.083, "lng": 152.716, "id": "210322", "name": "Hippa adactyla", "sprite": "sp-american_lobster.png", "group": "crab_lobster", "rarity": 1}, {"lat": -9.547, "lng": 152.4272, "id": "166902", "name": "Xestospongia testudinaria", "sprite": "sp-barrel_sponge.png", "group": "sponge", "rarity": 1}, {"lat": -11.0128, "lng": 152.6234, "id": "213515", "name": "Gari maculosa", "sprite": "sp-blue_mussel.png", "group": "clam_mussel", "rarity": 1}, {"lat": -9.1542, "lng": 152.2457, "id": "1421346", "name": "Ophiuroglypha irrorata irrorata", "sprite": "sp-sea_cucumber.png", "group": "starfish", "rarity": 1}, {"lat": -9.2022, "lng": 153.9495, "id": "514737", "name": "Periclimenes uniunguiculatus", "sprite": "sp-american_lobster.png", "group": "crab_lobster", "rarity": 1}, {"lat": -11.1025, "lng": 152.4787, "id": "558499", "name": "Doriprismatica atromarginata", "sprite": "sp-cowrie_shell.png", "group": "sea_snail", "rarity": 1}, {"lat": -11.107, "lng": 153.0317, "id": "527355", "name": "Glossodoris pallida", "sprite": "sp-cowrie_shell.png", "group": "sea_snail", "rarity": 1}, {"lat": -11.0515, "lng": 152.477, "id": "106116", "name": "Acasta", "sprite": "sp-anchoviella_juruasanga.png", "group": "other", "rarity": 1}, {"lat": -11.1, "lng": 152.2783, "id": "103357", "name": "Appendicularia", "sprite": "sp-anchoviella_juruasanga.png", "group": "other", "rarity": 1}, {"lat": -10.9468, "lng": 152.4282, "id": "1061451", "name": "Oxyperas aspersum", "sprite": "sp-blue_mussel.png", "group": "clam_mussel", "rarity": 1}, {"lat": -9.3255, "lng": 153.2139, "id": "106792", "name": "Stylodactylidae", "sprite": "sp-american_lobster.png", "group": "crab_lobster", "rarity": 1}, {"lat": -11.065, "lng": 152.477, "id": "558302", "name": "Hypselodoris maritima", "sprite": "sp-cowrie_shell.png", "group": "sea_snail", "rarity": 1}, {"lat": -10.7841, "lng": 152.3925, "id": "212063", "name": "Thumbprint emperor", "thumb": "tn_Lehar_u6.jpg", "sprite": "sp-anchoviella_juruasanga.png", "group": "other", "rarity": 1, "waterType": "Brackish"}, {"lat": -10.6685, "lng": 152.3513, "id": "288010", "name": "Subergorgia suberosa", "sprite": "sp-actiniidae.png", "group": "coral", "rarity": 1}, {"lat": -10.9408, "lng": 152.4333, "id": "368977", "name": "Neoferdina cumingi", "sprite": "sp-sea_cucumber.png", "group": "starfish", "rarity": 1}, {"lat": -9.1108, "lng": 152.2358, "id": "243167", "name": "Astrocharis ijimai", "sprite": "sp-sea_cucumber.png", "group": "starfish", "rarity": 1}, {"lat": -10.6953, "lng": 152.3355, "id": "242074", "name": "Synaptula reticulata", "sprite": "sp-sea_cucumber.png", "group": "starfish", "rarity": 1}, {"lat": -10.8441, "lng": 152.485, "id": "218945", "name": "Humphead wrasse", "thumb": "tn_Chund_ua.jpg", "sprite": "sp-cleaner_wrasse.png", "group": "wrasse", "rarity": 1, "waterType": "Saltwater"}, {"lat": -9.2117, "lng": 152.2698, "id": "134666", "name": "Colossendeis macerrima", "sprite": "sp-anchoviella_juruasanga.png", "group": "other", "rarity": 1}, {"lat": -10.8146, "lng": 152.4388, "id": "219074", "name": "Green humphead parrotfish", "thumb": "tn_Bomur_u1.jpg", "sprite": "sp-rainbow_parrotfish.png", "group": "parrotfish", "rarity": 1, "waterType": "Saltwater"}, {"lat": -11.1237, "lng": 152.8262, "id": "215827", "name": "Tapes sulcarius", "sprite": "sp-blue_mussel.png", "group": "clam_mussel", "rarity": 1}, {"lat": -9.1898, "lng": 153.0926, "id": "118277", "name": "Sphaeromatidae", "sprite": "sp-american_lobster.png", "group": "crab_lobster", "rarity": 1}, {"lat": -10.6241, "lng": 152.5801, "id": "131930", "name": "Lissodendoryx", "sprite": "sp-barrel_sponge.png", "group": "sponge", "rarity": 1}, {"lat": -10.791, "lng": 152.3847, "id": "207666", "name": "Fragum fragum", "sprite": "sp-blue_mussel.png", "group": "clam_mussel", "rarity": 1}, {"lat": -11.0418, "lng": 152.4787, "id": "138127", "name": "Limatula", "sprite": "sp-blue_mussel.png", "group": "clam_mussel", "rarity": 1}, {"lat": -11.0515, "lng": 152.477, "id": "367453", "name": "Calcinus pulcher", "sprite": "sp-american_lobster.png", "group": "crab_lobster", "rarity": 1}, {"lat": -9.1337, "lng": 152.3135, "id": "242742", "name": "Amphiophiura turgida", "sprite": "sp-sea_cucumber.png", "group": "starfish", "rarity": 1}, {"lat": -10.7818, "lng": 152.4807, "id": "210916", "name": "Thelenota ananas", "sprite": "sp-sea_cucumber.png", "group": "starfish", "rarity": 1}, {"lat": -11.0515, "lng": 152.477, "id": "106904", "name": "Hyastenus", "sprite": "sp-american_lobster.png", "group": "crab_lobster", "rarity": 1}, {"lat": -9.1988, "lng": 152.269, "id": "515429", "name": "Heterocarpus corona", "sprite": "sp-american_lobster.png", "group": "crab_lobster", "rarity": 1}, {"lat": -9.7833, "lng": 152.6833, "id": "212606", "name": "Sterna bergii", "sprite": "sp-anchoviella_juruasanga.png", "group": "other", "rarity": 1}, {"lat": -10.9958, "lng": 152.6252, "id": "504759", "name": "Trapezium gilvum", "sprite": "sp-blue_mussel.png", "group": "clam_mussel", "rarity": 1}]}