{"zoom": 7, "x": 118, "y": 56, "points": [{"lat": 21.9167, "lng": 153.8651, "id": "567417", "name": "Hyphomicrobiaceae", "sprite": "sp-anchoviella_juruasanga.png", "group": "other", "rarity": 1}, {"lat": 21.7503, "lng": 153.9997, "id": "123193", "name": "Pelagothuriidae", "sprite": "sp-sea_cucumber.png", "group": "starfish", "rarity": 1}, {"lat": 21.9196, "lng": 153.8555, "id": "1261855", "name": "Caldithrix", "sprite": "sp-anchoviella_juruasanga.png", "group": "other", "rarity": 1}, {"lat": 21.9374, "lng": 153.7977, "id": "559981", "name": "Cryomorphaceae", "sprite": "sp-anchoviella_juruasanga.png", "group": "other", "rarity": 1}, {"lat": 21.9167, "lng": 153.8651, "id": "571298", "name": "Gemmatimonadetes", "sprite": "sp-anchoviella_juruasanga.png", "group": "other", "rarity": 1}, {"lat": 21.7561, "lng": 153.9956, "id": "529107", "name": "Peniagone leander", "sprite": "sp-sea_cucumber.png", "group": "starfish", "rarity": 1}, {"lat": 21.7503, "lng": 153.9997, "id": "106733", "name": "Galatheidae", "sprite": "sp-american_lobster.png", "group": "crab_lobster", "rarity": 1}, {"lat": 21.9167, "lng": 153.8651, "id": "392750", "name": "Alphaproteobacteria", "sprite": "sp-anchoviella_juruasanga.png", "group": "other", "rarity": 1}, {"lat": 21.875, "lng": 153.9324, "id": "129391", "name": "Nerillidium", "sprite": "sp-anchoviella_juruasanga.png", "group": "other", "rarity": 1}, {"lat": 21.9167, "lng": 153.8651, "id": "567812", "name": "Octadecabacter", "sprite": "sp-anchoviella_juruasanga.png", "group": "other", "rarity": 1}, {"lat": 21.875, "lng": 153.9324, "id": "570983", "name": "Coxiellaceae", "sprite": "sp-anchoviella_juruasanga.png", "group": "other", "rarity": 1}, {"lat": 21.9167, "lng": 153.8651, "id": "570404", "name": "Ectothiorhodospiraceae", "sprite": "sp-anchoviella_juruasanga.png", "group": "other", "rarity": 1}, {"lat": 21.9376, "lng": 153.8651, "id": "393045", "name": "Oceanospirillaceae", "sprite": "sp-anchoviella_juruasanga.png", "group": "other", "rarity": 1}, {"lat": 21.7564, "lng": 153.9954, "id": "13794", "name": "Asellota", "sprite": "sp-american_lobster.png", "group": "crab_lobster", "rarity": 1}, {"lat": 21.7555, "lng": 153.996, "id": "1248", "name": "Ctenophora", "sprite": "sp-anchoviella_juruasanga.png", "group": "other", "rarity": 1}, {"lat": 21.9167, "lng": 153.8651, "id": "565457", "name": "Phycisphaerales", "sprite": "sp-anchoviella_juruasanga.png", "group": "other", "rarity": 1}, {"lat": 21.9167, "lng": 153.8651, "id": "393944", "name": "Betaproteobacteria", "sprite": "sp-anchoviella_juruasanga.png", "group": "other", "rarity": 1}, {"lat": 21.7503, "lng": 153.9997, "id": "123082", "name": "Echinoidea", "sprite": "sp-sea_cucumber.png", "group": "starfish", "rarity": 1}, {"lat": 21.9376, "lng": 153.8651, "id": "417271", "name": "Amphisiella milnei", "sprite": "sp-anchoviella_juruasanga.png", "group": "other", "rarity": 1}, {"lat": 21.7503, "lng": 153.9997, "id": "107015", "name": "Nematocarcinus", "sprite": "sp-american_lobster.png", "group": "crab_lobster", "rarity": 1}, {"lat": 21.9167, "lng": 153.8651, "id": "1066", "name": "Crustacea", "sprite": "sp-anchoviella_juruasanga.png", "group": "other", "rarity": 1}, {"lat": 21.9376, "lng": 153.8651, "id": "178089", "name": "Mycobacterium", "sprite": "sp-anchoviella_juruasanga.png", "group": "other", "rarity": 1}, {"lat": 21.9141, "lng": 153.8735, "id": "799", "name": "Nematoda", "sprite": "sp-anchoviella_juruasanga.png", "group": "other", "rarity": 1}, {"lat": 21.9374, "lng": 153.7977, "id": "2549", "name": "Litinium", "sprite": "sp-anchoviella_juruasanga.png", "group": "other", "rarity": 1}, {"lat": 21.7564, "lng": 153.9954, "id": "1080", "name": "Copepoda", "sprite": "sp-anchoviella_juruasanga.png", "group": "other", "rarity": 1}, {"lat": 21.9167, "lng": 153.8651, "id": "582876", "name": "Capsula", "sprite": "sp-anchoviella_juruasanga.png", "group": "other", "rarity": 1}, {"lat": 21.9063, "lng": 153.8988, "id": "564184", "name": "Coraliomargarita", "sprite": "sp-anchoviella_juruasanga.png", "group": "other", "rarity": 1}, {"lat": 21.9374, "lng": 153.7977, "id": "571256", "name": "Elusimicrobiales", "sprite": "sp-anchoviella_juruasanga.png", "group": "other", "rarity": 1}, {"lat": 21.9167, "lng": 153.8651, "id": "393035", "name": "Alteromonadaceae", "sprite": "sp-anchoviella_juruasanga.png", "group": "other", "rarity": 1}, {"lat": 21.9167, "lng": 153.8651, "id": "393084", "name": "Rhodobacteraceae", "sprite": "sp-anchoviella_juruasanga.png", "group": "other", "rarity": 1}, {"lat": 21.875, "lng": 153.9324, "id": "2598", "name": "Prochaetosoma", "sprite": "sp-anchoviella_juruasanga.png", "group": "other", "rarity": 1}, {"lat": 21.9167, "lng": 153.8651, "id": "4", "name": "Fungi", "sprite": "sp-anchoviella_juruasanga.png", "group": "other", "rarity": 1}, {"lat": 21.9375, "lng": 153.8314, "id": "563891", "name": "Lutimonas", "sprite": "sp-anchoviella_juruasanga.png", "group": "other", "rarity": 1}, {"lat": 21.875, "lng": 153.9324, "id": "1371", "name": "Siphonophorae", "sprite": "sp-anchoviella_juruasanga.png", "group": "other", "rarity": 1}, {"lat": 21.9062, "lng": 153.8651, "id": "564211", "name": "Verrucomicrobiaceae", "sprite": "sp-anchoviella_juruasanga.png", "group": "other", "rarity": 1}, {"lat": 21.9167, "lng": 153.8651, "id": "571320", "name": "Hyphomicrobium", "sprite": "sp-anchoviella_juruasanga.png", "group": "other", "rarity": 1}, {"lat": 21.9236, "lng": 153.8501, "id": "559998", "name": "Flavobacteriales", "sprite": "sp-anchoviella_juruasanga.png", "group": "other", "rarity": 1}, {"lat": 21.9219, "lng": 153.8483, "id": "178054", "name": "Proteobacteria", "sprite": "sp-anchoviella_juruasanga.png", "group": "other", "rarity": 1}, {"lat": 21.9375, "lng": 153.8314, "id": "559809", "name": "Solirubrobacterales", "sprite": "sp-anchoviella_juruasanga.png", "group": "other", "rarity": 1}, {"lat": 21.9062, "lng": 153.8651, "id": "115230", "name": "Mesocletodes", "sprite": "sp-anchoviella_juruasanga.png", "group": "other", "rarity": 1}, {"lat": 21.7564, "lng": 153.9954, "id": "125748", "name": "Coryphaenoides", "sprite": "sp-anchoviella_juruasanga.png", "group": "other", "rarity": 1}, {"lat": 21.7503, "lng": 153.9997, "id": "123083", "name": "Holothuroidea", "sprite": "sp-sea_cucumber.png", "group": "starfish", "rarity": 1}, {"lat": 21.9167, "lng": 153.8651, "id": "564176", "name": "Opitutae", "sprite": "sp-anchoviella_juruasanga.png", "group": "other", "rarity": 1}, {"lat": 21.9167, "lng": 153.8651, "id": "569926", "name": "Nitrosomonadaceae", "sprite": "sp-anchoviella_juruasanga.png", "group": "other", "rarity": 1}, {"lat": 21.925, "lng": 153.8381, "id": "2303", "name": "Acantholaimus", "sprite": "sp-anchoviella_juruasanga.png", "group": "other", "rarity": 1}, {"lat": 21.9177, "lng": 153.8646, "id": "6", "name": "Bacteria", "sprite": "sp-anchoviella_juruasanga.png", "group": "other", "rarity": 1}, {"lat": 21.9196, "lng": 153.8555, "id": "573556", "name": "Cenarchaeaceae", "sprite": "sp-anchoviella_juruasanga.png", "group": "other", "rarity": 1}, {"lat": 21.9374, "lng": 153.7977, "id": "2474", "name": "Desmolaimus", "sprite": "sp-anchoviella_juruasanga.png", "group": "other", "rarity": 1}, {"lat": 21.875, "lng": 153.9324, "id": "8", "name": "Archaea", "sprite": "sp-anchoviella_juruasanga.png", "group": "other", "rarity": 1}, {"lat": 21.7537, "lng": 153.9973, "id": "152352", "name": "Osteichthyes", "sprite": "sp-anchoviella_juruasanga.png", "group": "other", "rarity": 1}, {"lat": 21.7562, "lng": 153.9955, "id": "149668", "name": "Mysida", "sprite": "sp-american_lobster.png", "group": "crab_lobster", "rarity": 1}, {"lat": 20.025, "lng": 154.4812, "id": "582421", "name": "Radiozoa", "sprite": "sp-anchoviella_juruasanga.png", "group": "other", "rarity": 1}, {"lat": 21.9218, "lng": 153.8314, "id": "570969", "name": "Rickettsiales", "sprite": "sp-anchoviella_juruasanga.png", "group": "other", "rarity": 1}, {"lat": 21.9167, "lng": 153.8651, "id": "571008", "name": "Bdellovibrio", "sprite": "sp-anchoviella_juruasanga.png", "group": "other", "rarity": 1}, {"lat": 21.7503, "lng": 153.9997, "id": "1130", "name": "Decapoda", "sprite": "sp-american_lobster.png", "group": "crab_lobster", "rarity": 1}, {"lat": 21.9219, "lng": 153.8651, "id": "2548", "name": "Halalaimus", "sprite": "sp-anchoviella_juruasanga.png", "group": "other", "rarity": 1}, {"lat": 21.9125, "lng": 153.8651, "id": "393148", "name": "Rhizobiales", "sprite": "sp-anchoviella_juruasanga.png", "group": "other", "rarity": 1}, {"lat": 21.9231, "lng": 153.8599, "id": "570951", "name": "Anaerolineae", "sprite": "sp-anchoviella_juruasanga.png", "group": "other", "rarity": 1}, {"lat": 21.875, "lng": 153.9324, "id": "559989", "name": "Fluviicola", "sprite": "sp-anchoviella_juruasanga.png", "group": "other", "rarity": 1}, {"lat": 21.7564, "lng": 153.9952, "id": "883", "name": "Polychaeta", "sprite": "sp-anchoviella_juruasanga.png", "group": "other", "rarity": 1}, {"lat": 21.9167, "lng": 153.8651, "id": "1410", "name": "Foraminifera", "sprite": "sp-anchoviella_juruasanga.png", "group": "other", "rarity": 1}, {"lat": 21.9187, "lng": 153.8584, "id": "2173", "name": "Desmoscolecidae", "sprite": "sp-anchoviella_juruasanga.png", "group": "other", "rarity": 1}, {"lat": 21.9167, "lng": 153.8651, "id": "415881", "name": "Pseudoalteromonas", "sprite": "sp-anchoviella_juruasanga.png", "group": "other", "rarity": 1}, {"lat": 21.7503, "lng": 153.9997, "id": "123080", "name": "Asteroidea", "sprite": "sp-sea_cucumber.png", "group": "starfish", "rarity": 1}, {"lat": 21.7503, "lng": 153.9997, "id": "16842", "name": "Rhopalonematidae", "sprite": "sp-anchoviella_juruasanga.png", "group": "other", "rarity": 1}, {"lat": 21.0, "lng": 153.0, "id": "137209", "name": "Dermochelys coriacea", "sprite": "sp-green_sea_turtle.png", "group": "sea_turtle", "rarity": 1}, {"lat": 21.756, "lng": 153.9956, "id": "124759", "name": "Enypniastes eximia", "sprite": "sp-sea_cucumber.png", "group": "starfish", "rarity": 1}, {"lat": 21.9375, "lng": 153.8427, "id": "570298", "name": "Colwelliaceae", "sprite": "sp-anchoviella_juruasanga.png", "group": "other", "rarity": 1}, {"lat": 21.9062, "lng": 153.8651, "id": "425576", "name": "Mesanophrys", "sprite": "sp-anchoviella_juruasanga.png", "group": "other", "rarity": 1}, {"lat": 21.9167, "lng": 153.8651, "id": "559440", "name": "Crenarchaeota", "sprite": "sp-anchoviella_juruasanga.png", "group": "other", "rarity": 1}, {"lat": 21.875, "lng": 153.9324, "id": "564333", "name": "Rubritalea", "sprite": "sp-anchoviella_juruasanga.png", "group": "other", "rarity": 1}, {"lat": 21.9376, "lng": 153.8651, "id": "416226", "name": "Euryarchaeota", "sprite": "sp-anchoviella_juruasanga.png", "group": "other", "rarity": 1}, {"lat": 21.9167, "lng": 153.8651, "id": "393021", "name": "Oceanospirillales", "sprite": "sp-anchoviella_juruasanga.png", "group": "other", "rarity": 1}, {"lat": 21.9156, "lng": 153.8651, "id": "393018", "name": "Gammaproteobacteria", "sprite": "sp-anchoviella_juruasanga.png", "group": "other", "rarity": 1}, {"lat": 21.9166, "lng": 153.8426, "id": "2311", "name": "Metacyatholaimus", "sprite": "sp-anchoviella_juruasanga.png", "group": "other", "rarity": 1}, {"lat": 21.9062, "lng": 153.8651, "id": "416268", "name": "Thermoplasmata", "sprite": "sp-anchoviella_juruasanga.png", "group": "other", "rarity": 1}, {"lat": 21.9205, "lng": 153.859, "id": "392751", "name": "Rhodospirillales", "sprite": "sp-anchoviella_juruasanga.png", "group": "other", "rarity": 1}, {"lat": 21.925, "lng": 153.8516, "id": "559921", "name": "Reichenbachiella", "sprite": "sp-anchoviella_juruasanga.png", "group": "other", "rarity": 1}, {"lat": 21.9167, "lng": 153.8651, "id": "565568", "name": "Planctomyces", "sprite": "sp-anchoviella_juruasanga.png", "group": "other", "rarity": 1}, {"lat": 21.7564, "lng": 153.9953, "id": "125856", "name": "Bassozetus", "sprite": "sp-anchoviella_juruasanga.png", "group": "other", "rarity": 1}, {"lat": 21.9376, "lng": 153.8651, "id": "564177", "name": "Puniceicoccaceae", "sprite": "sp-anchoviella_juruasanga.png", "group": "other", "rarity": 1}, {"lat": 21.9374, "lng": 153.7977, "id": "564100", "name": "Sphingobacteriales", "sprite": "sp-anchoviella_juruasanga.png", "group": "other", "rarity": 1}, {"lat": 21.875, "lng": 153.9324, "id": "115133", "name": "Aegisthidae", "sprite": "sp-anchoviella_juruasanga.png", "group": "other", "rarity": 1}, {"lat": 21.9188, "lng": 153.8651, "id": "447741", "name": "Chromatiales", "sprite": "sp-anchoviella_juruasanga.png", "group": "other", "rarity": 1}, {"lat": 21.9167, "lng": 153.8651, "id": "570208", "name": "Syntrophobacteraceae", "sprite": "sp-anchoviella_juruasanga.png", "group": "other", "rarity": 1}, {"lat": 21.9063, "lng": 153.8819, "id": "570982", "name": "Legionellales", "sprite": "sp-anchoviella_juruasanga.png", "group": "other", "rarity": 1}, {"lat": 21.9167, "lng": 153.8651, "id": "394106", "name": "Piscirickettsiaceae", "sprite": "sp-anchoviella_juruasanga.png", "group": "other", "rarity": 1}, {"lat": 21.9375, "lng": 153.8314, "id": "564326", "name": "Persicirhabdus", "sprite": "sp-anchoviella_juruasanga.png", "group": "other", "rarity": 1}, {"lat": 19.483, "lng": 152.016, "id": "125515", "name": "Acanthuridae", "sprite": "sp-acanthurus_albimento.png", "group": "surgeonfish", "rarity": 1}, {"lat": 20.2683, "lng": 153.3933, "id": "342071", "name": "Onychoteuthis meridiopacifica", "sprite": "sp-giant_pacific_octopus.png", "group": "octopus_squid", "rarity": 1}, {"lat": 21.9063, "lng": 153.8988, "id": "392757", "name": "Plesiocystis", "sprite": "sp-anchoviella_juruasanga.png", "group": "other", "rarity": 1}, {"lat": 21.9374, "lng": 153.7977, "id": "567523", "name": "Phyllobacteriaceae", "sprite": "sp-anchoviella_juruasanga.png", "group": "other", "rarity": 1}, {"lat": 21.9167, "lng": 153.8651, "id": "2469", "name": "Theristus", "sprite": "sp-anchoviella_juruasanga.png", "group": "other", "rarity": 1}, {"lat": 21.7503, "lng": 153.9997, "id": "138293", "name": "Grimpoteuthis", "sprite": "sp-giant_pacific_octopus.png", "group": "octopus_squid", "rarity": 1}, {"lat": 21.9376, "lng": 153.8651, "id": "564175", "name": "Verrucomicrobia", "sprite": "sp-anchoviella_juruasanga.png", "group": "other", "rarity": 1}, {"lat": 21.7503, "lng": 153.9997, "id": "562642", "name": "Munidopsidae", "sprite": "sp-american_lobster.png", "group": "crab_lobster", "rarity": 1}, {"lat": 21.9167, "lng": 153.8651, "id": "393086", "name": "Moritella", "sprite": "sp-anchoviella_juruasanga.png", "group": "other", "rarity": 1}, {"lat": 21.9376, "lng": 153.8651, "id": "570987", "name": "Arcobacter", "sprite": "sp-anchoviella_juruasanga.png", "group": "other", "rarity": 1}, {"lat": 21.9167, "lng": 153.8651, "id": "571376", "name": "Nitrospiraceae", "sprite": "sp-anchoviella_juruasanga.png", "group": "other", "rarity": 1}, {"lat": 21.875, "lng": 153.9324, "id": "571117", "name": "Coprococcus", "sprite": "sp-anchoviella_juruasanga.png", "group": "other", "rarity": 1}, {"lat": 21.9167, "lng": 153.8651, "id": "559995", "name": "Flavobacteriaceae", "sprite": "sp-anchoviella_juruasanga.png", "group": "other", "rarity": 1}, {"lat": 21.875, "lng": 153.9324, "id": "106438", "name": "Cyclopinella", "sprite": "sp-anchoviella_juruasanga.png", "group": "other", "rarity": 1}, {"lat": 21.7503, "lng": 153.9997, "id": "1071", "name": "Malacostraca", "sprite": "sp-american_lobster.png", "group": "crab_lobster", "rarity": 1}, {"lat": 21.9376, "lng": 153.8651, "id": "196539", "name": "Forskalia tholoides", "sprite": "sp-anchoviella_juruasanga.png", "group": "other", "rarity": 1}, {"lat": 21.9376, "lng": 153.8651, "id": "566341", "name": "Spirochaetaceae", "sprite": "sp-anchoviella_juruasanga.png", "group": "other", "rarity": 1}, {"lat": 21.9167, "lng": 153.8651, "id": "393930", "name": "Colwellia", "sprite": "sp-anchoviella_juruasanga.png", "group": "other", "rarity": 1}, {"lat": 21.9176, "lng": 153.8637, "id": "392754", "name": "Deltaproteobacteria", "sprite": "sp-anchoviella_juruasanga.png", "group": "other", "rarity": 1}, {"lat": 21.9167, "lng": 153.8651, "id": "564076", "name": "Ulvibacter", "sprite": "sp-anchoviella_juruasanga.png", "group": "other", "rarity": 1}, {"lat": 21.7562, "lng": 153.9955, "id": "1337", "name": "Hydrozoa", "sprite": "sp-anchoviella_juruasanga.png", "group": "other", "rarity": 1}, {"lat": 21.7503, "lng": 153.9997, "id": "5949", "name": "Sagittoidea", "sprite": "sp-anchoviella_juruasanga.png", "group": "other", "rarity": 1}, {"lat": 21.9376, "lng": 153.8651, "id": "836226", "name": "Litinium subterraneum", "sprite": "sp-anchoviella_juruasanga.png", "group": "other", "rarity": 1}, {"lat": 21.9374, "lng": 153.7977, "id": "571375", "name": "Nitrospirales", "sprite": "sp-anchoviella_juruasanga.png", "group": "other", "rarity": 1}, {"lat": 21.9063, "lng": 153.8988, "id": "121091", "name": "Microlaimus parahonestus", "sprite": "sp-anchoviella_juruasanga.png", "group": "other", "rarity": 1}, {"lat": 21.7503, "lng": 153.9997, "id": "1828", "name": "Gnathostomata", "sprite": "sp-anchoviella_juruasanga.png", "group": "other", "rarity": 1}, {"lat": 21.9374, "lng": 153.7977, "id": "559985", "name": "Crocinitomix", "sprite": "sp-anchoviella_juruasanga.png", "group": "other", "rarity": 1}, {"lat": 21.9188, "lng": 153.8651, "id": "565456", "name": "Phycisphaerae", "sprite": "sp-anchoviella_juruasanga.png", "group": "other", "rarity": 1}, {"lat": 21.9167, "lng": 153.8651, "id": "564113", "name": "Rubricoccus", "sprite": "sp-anchoviella_juruasanga.png", "group": "other", "rarity": 1}, {"lat": 21.9166, "lng": 153.8426, "id": "1556280", "name": "Rickettsiaceae", "sprite": "sp-anchoviella_juruasanga.png", "group": "other", "rarity": 1}, {"lat": 21.7503, "lng": 153.9997, "id": "118342", "name": "Munneurycope", "sprite": "sp-american_lobster.png", "group": "crab_lobster", "rarity": 1}, {"lat": 21.875, "lng": 153.9324, "id": "571338", "name": "Turneriella", "sprite": "sp-anchoviella_juruasanga.png", "group": "other", "rarity": 1}]}