{"zoom": 7, "x": 119, "y": 42, "points": [{"lat": 50.895, "lng": 157.47, "id": "101897", "name": "Ampelisca eschrichtii", "sprite": "sp-american_lobster.png", "group": "crab_lobster", "rarity": 1}, {"lat": 50.752, "lng": 156.653, "id": "124944", "name": "Stegophiura stuwitzii", "sprite": "sp-sea_cucumber.png", "group": "starfish", "rarity": 1}, {"lat": 51.7026, "lng": 155.6346, "id": "254974", "name": "Eubalaena japonica", "sprite": "sp-blue_whale.png", "group": "whale", "rarity": 1}, {"lat": 50.935, "lng": 155.445, "id": "557515", "name": "Anonyx oculatus", "sprite": "sp-american_lobster.png", "group": "crab_lobster", "rarity": 1}, {"lat": 51.617, "lng": 156.35, "id": "254484", "name": "Spirontocaris murdochi", "sprite": "sp-american_lobster.png", "group": "crab_lobster", "rarity": 1}, {"lat": 51.5066, "lng": 155.4883, "id": "490688", "name": "Ancistrolepis grammata", "sprite": "sp-cowrie_shell.png", "group": "sea_snail", "rarity": 1}, {"lat": 51.617, "lng": 156.35, "id": "107044", "name": "Pandalus", "sprite": "sp-american_lobster.png", "group": "crab_lobster", "rarity": 1}, {"lat": 51.617, "lng": 156.35, "id": "117342", "name": "Garveia nutans", "sprite": "sp-anchoviella_juruasanga.png", "group": "other", "rarity": 1}, {"lat": 51.617, "lng": 156.35, "id": "107006", "name": "Argis", "sprite": "sp-american_lobster.png", "group": "crab_lobster", "rarity": 1}, {"lat": 50.935, "lng": 155.445, "id": "102722", "name": "Socarnes bidenticulatus", "sprite": "sp-american_lobster.png", "group": "crab_lobster", "rarity": 1}, {"lat": 51.0447, "lng": 156.3424, "id": "254570", "name": "Dolly varden", "thumb": "tn_Samal_m0.jpg", "sprite": "sp-atlantic_salmon.png", "group": "salmon_trout", "rarity": 1, "waterType": "Brackish"}, {"lat": 51.0, "lng": 157.4167, "id": "1082", "name": "Cirripedia", "sprite": "sp-anchoviella_juruasanga.png", "group": "other", "rarity": 1}, {"lat": 50.9802, "lng": 156.7575, "id": "137075", "name": "Somateria spectabilis", "sprite": "sp-anchoviella_juruasanga.png", "group": "other", "rarity": 1}, {"lat": 50.8833, "lng": 156.3, "id": "274496", "name": "Eumicrotremus taranetzi", "sprite": "sp-anchoviella_juruasanga.png", "group": "other", "rarity": 1, "waterType": "Saltwater"}, {"lat": 51.667, "lng": 156.033, "id": "255119", "name": "Pedicellaster magister ochotensis", "sprite": "sp-sea_cucumber.png", "group": "starfish", "rarity": 1}, {"lat": 51.6767, "lng": 155.9667, "id": "254509", "name": "Podothecus veternus", "thumb": "tn_Povet_u1.gif", "sprite": "sp-anchoviella_juruasanga.png", "group": "other", "rarity": 1, "waterType": "Saltwater"}, {"lat": 50.9097, "lng": 156.3002, "id": "127184", "name": "Coho salmon", "thumb": "tn_Onkis_m3.jpg", "sprite": "sp-atlantic_salmon.png", "group": "salmon_trout", "rarity": 1, "waterType": "Brackish"}, {"lat": 50.8333, "lng": 155.4433, "id": "332756", "name": "Dipolydora commensalis", "sprite": "sp-anchoviella_juruasanga.png", "group": "other", "rarity": 1}, {"lat": 52.304, "lng": 155.237, "id": "181931", "name": "Diastylis bidentata", "sprite": "sp-american_lobster.png", "group": "crab_lobster", "rarity": 1}, {"lat": 50.935, "lng": 155.445, "id": "254725", "name": "Ampelisca birulai", "sprite": "sp-american_lobster.png", "group": "crab_lobster", "rarity": 1}, {"lat": 51.617, "lng": 156.35, "id": "233889", "name": "Paralithodes camtschaticus", "sprite": "sp-american_lobster.png", "group": "crab_lobster", "rarity": 1}, {"lat": 51.617, "lng": 156.35, "id": "287213", "name": "Aurelia labiata", "sprite": "sp-box_jellyfish.png", "group": "jellyfish", "rarity": 1}, {"lat": 51.0, "lng": 157.4167, "id": "1080", "name": "Copepoda", "sprite": "sp-anchoviella_juruasanga.png", "group": "other", "rarity": 1}, {"lat": 51.6233, "lng": 156.1217, "id": "123258", "name": "Ctenodiscus", "sprite": "sp-sea_cucumber.png", "group": "starfish", "rarity": 1}, {"lat": 50.8724, "lng": 156.2783, "id": "126507", "name": "Ninespine stickleback", "thumb": "tn_Pupun_u9.jpg", "sprite": "sp-anchoviella_juruasanga.png", "group": "other", "rarity": 1, "waterType": "Brackish"}, {"lat": 51.783, "lng": 155.917, "id": "123240", "name": "Cheiraster", "sprite": "sp-sea_cucumber.png", "group": "starfish", "rarity": 1}, {"lat": 51.633, "lng": 155.817, "id": "124147", "name": "Pteraster militaris", "sprite": "sp-sea_cucumber.png", "group": "starfish", "rarity": 1}, {"lat": 51.5, "lng": 155.5, "id": "344104", "name": "Phoebastria immutabilis", "sprite": "sp-anchoviella_juruasanga.png", "group": "other", "rarity": 1}, {"lat": 51.616, "lng": 155.34, "id": "137202", "name": "Puffinus griseus", "sprite": "sp-anchoviella_juruasanga.png", "group": "other", "rarity": 1}, {"lat": 51.4083, "lng": 156.2833, "id": "279949", "name": "Bothrocarina nigrocaudata", "sprite": "sp-anchoviella_juruasanga.png", "group": "other", "rarity": 1, "waterType": "Saltwater"}, {"lat": 51.7583, "lng": 155.5667, "id": "410749", "name": "Phascolion (Phascolion) strombus strombus", "sprite": "sp-anchoviella_juruasanga.png", "group": "other", "rarity": 1}, {"lat": 50.752, "lng": 156.653, "id": "181923", "name": "Diastylis alaskensis", "sprite": "sp-american_lobster.png", "group": "crab_lobster", "rarity": 1}, {"lat": 50.84, "lng": 156.712, "id": "555238", "name": "Metopa majuscula", "sprite": "sp-american_lobster.png", "group": "crab_lobster", "rarity": 1}, {"lat": 50.8239, "lng": 156.5078, "id": "279417", "name": "Silverspotted sculpin", "thumb": "tn_Blcir_u0.jpg", "sprite": "sp-anchoviella_juruasanga.png", "group": "other", "rarity": 1, "waterType": "Saltwater"}, {"lat": 51.3, "lng": 156.15, "id": "254376", "name": "Longnose poacher", "thumb": "tn_Lelep_u6.jpg", "sprite": "sp-anchoviella_juruasanga.png", "group": "other", "rarity": 1, "waterType": "Saltwater"}, {"lat": 52.0, "lng": 155.0, "id": "274290", "name": "Pacific halibut", "thumb": "tn_Histe_u3.jpg", "sprite": "sp-atlantic_halibut.png", "group": "flatfish", "rarity": 1, "waterType": "Saltwater"}, {"lat": 51.5939, "lng": 156.5086, "id": "254556", "name": "Pond smelt", "thumb": "tn_Hyoli_u1.jpg", "sprite": "sp-anchoviella_juruasanga.png", "group": "other", "rarity": 1, "waterType": "Brackish"}, {"lat": 51.4, "lng": 156.2, "id": "254562", "name": "Yellowfin sole", "thumb": "tn_Liasp_u0.jpg", "sprite": "sp-atlantic_halibut.png", "group": "flatfish", "rarity": 1, "waterType": "Saltwater"}, {"lat": 50.915, "lng": 155.987, "id": "124128", "name": "Diplopteraster multipes", "sprite": "sp-sea_cucumber.png", "group": "starfish", "rarity": 1}, {"lat": 50.895, "lng": 157.47, "id": "102512", "name": "Anonyx laticoxae", "sprite": "sp-american_lobster.png", "group": "crab_lobster", "rarity": 1}, {"lat": 51.593, "lng": 154.767, "id": "380763", "name": "Benthopecten rhopalophorus", "sprite": "sp-sea_cucumber.png", "group": "starfish", "rarity": 1}, {"lat": 51.192, "lng": 156.592, "id": "102513", "name": "Anonyx lilljeborgi", "sprite": "sp-american_lobster.png", "group": "crab_lobster", "rarity": 1}, {"lat": 51.6233, "lng": 156.1217, "id": "123304", "name": "Pseudarchaster", "sprite": "sp-sea_cucumber.png", "group": "starfish", "rarity": 1}, {"lat": 50.7988, "lng": 156.3822, "id": "127182", "name": "Pink salmon", "thumb": "tn_Ongor_f5.jpg", "sprite": "sp-atlantic_salmon.png", "group": "salmon_trout", "rarity": 1, "waterType": "Brackish"}, {"lat": 51.6825, "lng": 155.9125, "id": "124043", "name": "Hippasteria phrygiana", "sprite": "sp-sea_cucumber.png", "group": "starfish", "rarity": 1}, {"lat": 51.8208, "lng": 155.9758, "id": "110358", "name": "Echiurus", "sprite": "sp-anchoviella_juruasanga.png", "group": "other", "rarity": 1}, {"lat": 51.3797, "lng": 156.9776, "id": "254569", "name": "Sockeye salmon", "thumb": "tn_Onner_f0.jpg", "sprite": "sp-atlantic_salmon.png", "group": "salmon_trout", "rarity": 1, "waterType": "Brackish"}, {"lat": 51.0, "lng": 157.4167, "id": "104165", "name": "Pseudocalanus", "sprite": "sp-anchoviella_juruasanga.png", "group": "other", "rarity": 1}, {"lat": 51.4357, "lng": 156.2357, "id": "274372", "name": "Gymnocanthus detrisus", "thumb": "tn_Gydet_u0.jpg", "sprite": "sp-anchoviella_juruasanga.png", "group": "other", "rarity": 1, "waterType": "Saltwater"}, {"lat": 52.0056, "lng": 156.1167, "id": "281307", "name": "Northern rock sole", "thumb": "tn_Lepol_u0.jpg", "sprite": "sp-atlantic_halibut.png", "group": "flatfish", "rarity": 1, "waterType": "Saltwater"}, {"lat": 51.0, "lng": 157.4167, "id": "106656", "name": "Oithona similis", "sprite": "sp-anchoviella_juruasanga.png", "group": "other", "rarity": 1}, {"lat": 51.137, "lng": 156.4243, "id": "124934", "name": "Ophiura sarsii", "sprite": "sp-sea_cucumber.png", "group": "starfish", "rarity": 1}, {"lat": 51.1617, "lng": 156.65, "id": "529150", "name": "Chiridota orientalis", "sprite": "sp-sea_cucumber.png", "group": "starfish", "rarity": 1}, {"lat": 50.7736, "lng": 156.2567, "id": "154781", "name": "Starry flounder", "thumb": "tn_Plste_u1.jpg", "sprite": "sp-atlantic_halibut.png", "group": "flatfish", "rarity": 1, "waterType": "Brackish"}, {"lat": 51.973, "lng": 156.92, "id": "292709", "name": "Crossaster borealis ochotensis", "sprite": "sp-sea_cucumber.png", "group": "starfish", "rarity": 1}, {"lat": 50.935, "lng": 155.445, "id": "423441", "name": "Hippomedon granulosus", "sprite": "sp-american_lobster.png", "group": "crab_lobster", "rarity": 1}, {"lat": 50.8239, "lng": 156.5078, "id": "126152", "name": "Myoxocephalus", "sprite": "sp-anchoviella_juruasanga.png", "group": "other", "rarity": 1}, {"lat": 51.3, "lng": 156.15, "id": "254374", "name": "Sawback poacher", "thumb": "tn_Lefre_u2.jpg", "sprite": "sp-anchoviella_juruasanga.png", "group": "other", "rarity": 1, "waterType": "Saltwater"}, {"lat": 51.192, "lng": 156.592, "id": "870678", "name": "Uristidae incertae sedis anivae", "sprite": "sp-american_lobster.png", "group": "crab_lobster", "rarity": 1}, {"lat": 51.5833, "lng": 155.175, "id": "172496", "name": "Metaconchoecia alta", "sprite": "sp-anchoviella_juruasanga.png", "group": "other", "rarity": 1}, {"lat": 51.6248, "lng": 156.35, "id": "124446", "name": "Myriotrochus rinkii", "sprite": "sp-sea_cucumber.png", "group": "starfish", "rarity": 1}, {"lat": 50.9615, "lng": 156.5979, "id": "125125", "name": "Ophiopholis aculeata", "sprite": "sp-sea_cucumber.png", "group": "starfish", "rarity": 1}, {"lat": 50.96, "lng": 155.691, "id": "235741", "name": "Nassellaria", "sprite": "sp-anchoviella_juruasanga.png", "group": "other", "rarity": 1}, {"lat": 51.4357, "lng": 156.2357, "id": "274364", "name": "Artediellus ochotensis", "sprite": "sp-anchoviella_juruasanga.png", "group": "other", "rarity": 1, "waterType": "Saltwater"}, {"lat": 51.5919, "lng": 156.4922, "id": "154570", "name": "Steller's sculpin", "thumb": "tn_Myste_u0.jpg", "sprite": "sp-anchoviella_juruasanga.png", "group": "other", "rarity": 1, "waterType": "Brackish"}, {"lat": 52.3333, "lng": 155.5, "id": "274536", "name": "Liparis rhodosoma", "sprite": "sp-anchoviella_juruasanga.png", "group": "other", "rarity": 1, "waterType": "Saltwater"}, {"lat": 50.8239, "lng": 156.5078, "id": "240735", "name": "Rock greenling", "thumb": "tn_Helag_u1.jpg", "sprite": "sp-anchoviella_juruasanga.png", "group": "other", "rarity": 1, "waterType": "Saltwater"}, {"lat": 50.82, "lng": 156.642, "id": "146762", "name": "Nephtheidae", "sprite": "sp-actiniidae.png", "group": "coral", "rarity": 1}, {"lat": 50.819, "lng": 157.115, "id": "101908", "name": "Ampelisca macrocephala", "sprite": "sp-american_lobster.png", "group": "crab_lobster", "rarity": 1}, {"lat": 51.617, "lng": 156.517, "id": "192", "name": "Aeolidiidae", "sprite": "sp-cowrie_shell.png", "group": "sea_snail", "rarity": 1}, {"lat": 51.625, "lng": 156.433, "id": "377829", "name": "Ceramaster patagonicus productus", "sprite": "sp-sea_cucumber.png", "group": "starfish", "rarity": 1}, {"lat": 51.2003, "lng": 156.3907, "id": "137741", "name": "Serripes", "sprite": "sp-blue_mussel.png", "group": "clam_mussel", "rarity": 1}, {"lat": 50.8239, "lng": 156.5078, "id": "254544", "name": "Masked greenling", "thumb": "tn_Heoct_u0.jpg", "sprite": "sp-anchoviella_juruasanga.png", "group": "other", "rarity": 1, "waterType": "Saltwater"}, {"lat": 51.5235, "lng": 155.9985, "id": "102514", "name": "Anonyx nugax", "sprite": "sp-american_lobster.png", "group": "crab_lobster", "rarity": 1}, {"lat": 50.8724, "lng": 156.2783, "id": "126505", "name": "Three-spined stickleback", "thumb": "tn_Gaacu_u1.jpg", "sprite": "sp-anchoviella_juruasanga.png", "group": "other", "rarity": 1, "waterType": "Brackish"}, {"lat": 50.743, "lng": 156.76, "id": "423148", "name": "Anonyx pavlovskii", "sprite": "sp-american_lobster.png", "group": "crab_lobster", "rarity": 1}, {"lat": 50.8224, "lng": 156.5079, "id": "254396", "name": "Tubenose poacher", "thumb": "tn_Pabar_u1.gif", "sprite": "sp-anchoviella_juruasanga.png", "group": "other", "rarity": 1, "waterType": "Saltwater"}, {"lat": 50.7433, "lng": 155.7733, "id": "172595", "name": "Amphiodia", "sprite": "sp-sea_cucumber.png", "group": "starfish", "rarity": 1}, {"lat": 50.7433, "lng": 155.7733, "id": "123207", "name": "Ophiactidae", "sprite": "sp-sea_cucumber.png", "group": "starfish", "rarity": 1}, {"lat": 52.0333, "lng": 155.0167, "id": "274152", "name": "Zoarces andriashevi", "sprite": "sp-anchoviella_juruasanga.png", "group": "other", "rarity": 1, "waterType": "Saltwater"}, {"lat": 51.4207, "lng": 155.8016, "id": "2", "name": "Animalia", "sprite": "sp-anchoviella_juruasanga.png", "group": "other", "rarity": 1}, {"lat": 50.7433, "lng": 155.7733, "id": "123574", "name": "Ophiura", "sprite": "sp-sea_cucumber.png", "group": "starfish", "rarity": 1}, {"lat": 50.8333, "lng": 156.0, "id": "168127", "name": "Raspailia (Parasyringella) pacifica", "sprite": "sp-barrel_sponge.png", "group": "sponge", "rarity": 1}, {"lat": 50.9049, "lng": 156.2853, "id": "272522", "name": "Amur stickleback", "thumb": "tn_Pukai_u0.jpg", "sprite": "sp-anchoviella_juruasanga.png", "group": "other", "rarity": 1, "waterType": "Brackish"}, {"lat": 50.8239, "lng": 156.5078, "id": "282599", "name": "Stippled gunnel", "thumb": "tn_Rhdol_u0.gif", "sprite": "sp-anchoviella_juruasanga.png", "group": "other", "rarity": 1, "waterType": "Saltwater"}, {"lat": 51.1, "lng": 157.0667, "id": "231788", "name": "Karenia", "sprite": "sp-anchoviella_juruasanga.png", "group": "other", "rarity": 1}, {"lat": 51.4667, "lng": 156.1833, "id": "254351", "name": "Longsnout prickleback", "thumb": "tn_Lulon_u0.jpg", "sprite": "sp-anchoviella_juruasanga.png", "group": "other", "rarity": 1, "waterType": "Saltwater"}, {"lat": 51.593, "lng": 154.767, "id": "243906", "name": "Ophiopenia vicina", "sprite": "sp-sea_cucumber.png", "group": "starfish", "rarity": 1}, {"lat": 51.6167, "lng": 156.35, "id": "282880", "name": "Stelgistrum stejnegeri", "sprite": "sp-anchoviella_juruasanga.png", "group": "other", "rarity": 1, "waterType": "Saltwater"}, {"lat": 50.7756, "lng": 156.2587, "id": "125776", "name": "Pungitius", "sprite": "sp-anchoviella_juruasanga.png", "group": "other", "rarity": 1}, {"lat": 51.633, "lng": 156.35, "id": "116998", "name": "Aequorea", "sprite": "sp-anchoviella_juruasanga.png", "group": "other", "rarity": 1}, {"lat": 51.2543, "lng": 156.3177, "id": "242652", "name": "Amphiodia craterodmeta", "sprite": "sp-sea_cucumber.png", "group": "starfish", "rarity": 1}, {"lat": 52.3333, "lng": 155.5, "id": "1605262", "name": "Myzopsetta punctatissima", "sprite": "sp-atlantic_halibut.png", "group": "flatfish", "rarity": 1}, {"lat": 51.0676, "lng": 155.9382, "id": "124154", "name": "Crossaster papposus", "sprite": "sp-sea_cucumber.png", "group": "starfish", "rarity": 1}, {"lat": 51.5919, "lng": 156.4922, "id": "274526", "name": "Liparis miostomus", "sprite": "sp-anchoviella_juruasanga.png", "group": "other", "rarity": 1, "waterType": "Saltwater"}]}