{"zoom": 7, "x": 120, "y": 40, "points": [{"lat": 54.5, "lng": 158.5, "id": "137202", "name": "Puffinus griseus", "sprite": "sp-anchoviella_juruasanga.png", "group": "other", "rarity": 1}, {"lat": 55.037, "lng": 158.9689, "id": "254570", "name": "Dolly varden", "thumb": "tn_Samal_m0.jpg", "sprite": "sp-atlantic_salmon.png", "group": "salmon_trout", "rarity": 1, "waterType": "Brackish"}, {"lat": 55.037, "lng": 158.9689, "id": "154781", "name": "Starry flounder", "thumb": "tn_Plste_u1.jpg", "sprite": "sp-atlantic_halibut.png", "group": "flatfish", "rarity": 1, "waterType": "Brackish"}, {"lat": 54.405, "lng": 157.5961, "id": "254363", "name": "Northern lampfish", "thumb": "tn_Stleu_u3.gif", "sprite": "sp-anchoviella_juruasanga.png", "group": "other", "rarity": 1, "waterType": "Saltwater"}, {"lat": 55.0, "lng": 158.0, "id": "126735", "name": "Capelin", "thumb": "tn_Mavil_f0.jpg", "sprite": "sp-anchoviella_juruasanga.png", "group": "other", "rarity": 1, "waterType": "Brackish"}, {"lat": 55.0, "lng": 158.0, "id": "274782", "name": "Dusky rockfish", "thumb": "tn_Secil_u0.jpg", "sprite": "sp-anchoviella_juruasanga.png", "group": "other", "rarity": 1, "waterType": "Saltwater"}, {"lat": 54.4107, "lng": 157.5894, "id": "126040", "name": "Howella", "sprite": "sp-anchoviella_juruasanga.png", "group": "other", "rarity": 1}, {"lat": 54.405, "lng": 157.5961, "id": "254364", "name": "Garnet lanternfish", "thumb": "tn_Stnan_u0.gif", "sprite": "sp-anchoviella_juruasanga.png", "group": "other", "rarity": 1, "waterType": "Saltwater"}, {"lat": 55.0, "lng": 158.0, "id": "282959", "name": "Eulachon", "thumb": "tn_Thpac_u0.gif", "sprite": "sp-anchoviella_juruasanga.png", "group": "other", "rarity": 1, "waterType": "Brackish"}, {"lat": 55.037, "lng": 158.9689, "id": "254556", "name": "Pond smelt", "thumb": "tn_Hyoli_u1.jpg", "sprite": "sp-anchoviella_juruasanga.png", "group": "other", "rarity": 1, "waterType": "Brackish"}, {"lat": 54.243, "lng": 160.283, "id": "2", "name": "Animalia", "sprite": "sp-anchoviella_juruasanga.png", "group": "other", "rarity": 1}, {"lat": 55.0, "lng": 158.0, "id": "279792", "name": "Arrow-tooth flounder", "thumb": "tn_Resto_u0.jpg", "sprite": "sp-atlantic_halibut.png", "group": "flatfish", "rarity": 1, "waterType": "Saltwater"}, {"lat": 55.0, "lng": 158.0, "id": "274289", "name": "Flathead sole", "thumb": "tn_Hiela_u1.jpg", "sprite": "sp-atlantic_halibut.png", "group": "flatfish", "rarity": 1, "waterType": "Saltwater"}, {"lat": 54.5667, "lng": 158.9833, "id": "244630", "name": "Apseudes spectabilis", "sprite": "sp-american_lobster.png", "group": "crab_lobster", "rarity": 1}, {"lat": 55.1667, "lng": 158.5, "id": "344104", "name": "Phoebastria immutabilis", "sprite": "sp-anchoviella_juruasanga.png", "group": "other", "rarity": 1}]}