{"zoom": 7, "x": 120, "y": 74, "points": [{"lat": -29.4533, "lng": 159.1133, "id": "217937", "name": "Shy soldier", "thumb": "tn_Pllim_u6.jpg", "sprite": "sp-anchoviella_juruasanga.png", "group": "other", "rarity": 1, "waterType": "Saltwater"}, {"lat": -29.4934, "lng": 159.1873, "id": "206994", "name": "Acropora lutkeni", "sprite": "sp-actiniidae.png", "group": "coral", "rarity": 1}, {"lat": -29.4628, "lng": 159.0791, "id": "527557", "name": "Stomatella auricula", "sprite": "sp-cowrie_shell.png", "group": "sea_snail", "rarity": 1}, {"lat": -27.4214, "lng": 158.7986, "id": "109624", "name": "Dinophysis fortii", "sprite": "sp-anchoviella_juruasanga.png", "group": "other", "rarity": 1}, {"lat": -29.4854, "lng": 159.1423, "id": "107462", "name": "Planes minutus", "sprite": "sp-american_lobster.png", "group": "crab_lobster", "rarity": 1}, {"lat": -28.2911, "lng": 158.6314, "id": "138603", "name": "Bolma", "sprite": "sp-cowrie_shell.png", "group": "sea_snail", "rarity": 1}, {"lat": -29.45, "lng": 159.1167, "id": "758232", "name": "Dipsastraea veroni", "sprite": "sp-actiniidae.png", "group": "coral", "rarity": 1}, {"lat": -27.55, "lng": 159.62, "id": "841189", "name": "Tripos brevis", "sprite": "sp-anchoviella_juruasanga.png", "group": "other", "rarity": 1}, {"lat": -29.4487, "lng": 159.0982, "id": "218754", "name": "Vagabond butterflyfish", "thumb": "tn_Chvag_u4.jpg", "sprite": "sp-chaetodon.png", "group": "butterflyfish", "rarity": 1, "waterType": "Saltwater"}, {"lat": -27.55, "lng": 159.62, "id": "840627", "name": "Tripos furca", "sprite": "sp-anchoviella_juruasanga.png", "group": "other", "rarity": 1}, {"lat": -29.4314, "lng": 159.07, "id": "1130", "name": "Decapoda", "sprite": "sp-american_lobster.png", "group": "crab_lobster", "rarity": 1}, {"lat": -29.455, "lng": 159.0767, "id": "210968", "name": "Euapta godeffroyi", "sprite": "sp-sea_cucumber.png", "group": "starfish", "rarity": 1}, {"lat": -27.15, "lng": 159.2167, "id": "126867", "name": "Oilfish", "thumb": "tn_Rupre_f0.jpg", "sprite": "sp-anchoviella_juruasanga.png", "group": "other", "rarity": 1, "waterType": "Saltwater"}, {"lat": -29.4562, "lng": 159.0627, "id": "219113", "name": "Bridled parrotfish", "thumb": "tn_Scfre_m0.jpg", "sprite": "sp-rainbow_parrotfish.png", "group": "parrotfish", "rarity": 1, "waterType": "Saltwater"}, {"lat": -29.2269, "lng": 159.0095, "id": "577463", "name": "Gymnorete stabulatum", "sprite": "sp-barrel_sponge.png", "group": "sponge", "rarity": 1}, {"lat": -29.42, "lng": 159.0473, "id": "511742", "name": "Retizafra gemmulifera", "sprite": "sp-cowrie_shell.png", "group": "sea_snail", "rarity": 1}, {"lat": -29.4877, "lng": 159.1094, "id": "205546", "name": "Plagiotremus", "sprite": "sp-helcogramma_ascensionis.png", "group": "blenny", "rarity": 1}, {"lat": -28.2, "lng": 158.2, "id": "558969", "name": "Globoquadrina conglomerata", "sprite": "sp-anchoviella_juruasanga.png", "group": "other", "rarity": 1}, {"lat": -28.2871, "lng": 158.6305, "id": "286962", "name": "Dendrophyllia alcocki", "sprite": "sp-actiniidae.png", "group": "coral", "rarity": 1}, {"lat": -29.052, "lng": 159.007, "id": "337572", "name": "Phyllodoce duplex", "sprite": "sp-anchoviella_juruasanga.png", "group": "other", "rarity": 1}, {"lat": -29.5, "lng": 159.2, "id": "535078", "name": "Cantellius iwayama", "sprite": "sp-anchoviella_juruasanga.png", "group": "other", "rarity": 1}, {"lat": -28.2912, "lng": 158.6315, "id": "289705", "name": "Conotrochus brunneus", "sprite": "sp-actiniidae.png", "group": "coral", "rarity": 1}, {"lat": -29.5, "lng": 159.2, "id": "207416", "name": "Cyphastrea microphthalma", "sprite": "sp-actiniidae.png", "group": "coral", "rarity": 1}, {"lat": -29.2184, "lng": 159.0025, "id": "131781", "name": "Stylissa", "sprite": "sp-barrel_sponge.png", "group": "sponge", "rarity": 1}, {"lat": -29.4567, "lng": 159.0617, "id": "442384", "name": "Permanotus purpureus", "sprite": "sp-american_lobster.png", "group": "crab_lobster", "rarity": 1}, {"lat": -29.4633, "lng": 159.083, "id": "208915", "name": "Sixline wrasse", "thumb": "tn_Pshex_u1.jpg", "sprite": "sp-cleaner_wrasse.png", "group": "wrasse", "rarity": 1, "waterType": "Saltwater"}, {"lat": -29.4667, "lng": 159.0667, "id": "218700", "name": "Blackspot sweeper", "thumb": "tn_Peoua_u2.jpg", "sprite": "sp-anchoviella_juruasanga.png", "group": "other", "rarity": 1, "waterType": "Saltwater"}, {"lat": -29.2283, "lng": 159.02, "id": "243971", "name": "Ophioplinthaca plicata", "sprite": "sp-sea_cucumber.png", "group": "starfish", "rarity": 1}, {"lat": -28.2871, "lng": 158.6305, "id": "289532", "name": "Bourneotrochus stellulatus", "sprite": "sp-actiniidae.png", "group": "coral", "rarity": 1}, {"lat": -29.4431, "lng": 159.0706, "id": "456411", "name": "Euplica", "sprite": "sp-cowrie_shell.png", "group": "sea_snail", "rarity": 1}, {"lat": -29.5, "lng": 159.2, "id": "206969", "name": "Seriatopora caliendrum", "sprite": "sp-actiniidae.png", "group": "coral", "rarity": 1}, {"lat": -29.4642, "lng": 159.1048, "id": "276728", "name": "Scalyhead Triplefin", "thumb": "tn_Nosqu_u1.jpg", "sprite": "sp-helcogramma_ascensionis.png", "group": "blenny", "rarity": 1, "waterType": "Saltwater"}, {"lat": -29.4687, "lng": 159.1092, "id": "213289", "name": "Acanthaster planci", "sprite": "sp-sea_cucumber.png", "group": "starfish", "rarity": 1}, {"lat": -29.4717, "lng": 159.104, "id": "217659", "name": "Striped eel catfish", "thumb": "tn_Pllin_u1.jpg", "sprite": "sp-blue_catfish.png", "group": "catfish", "rarity": 1, "waterType": "Brackish"}, {"lat": -29.5, "lng": 159.2, "id": "207138", "name": "Montipora spumosa", "sprite": "sp-actiniidae.png", "group": "coral", "rarity": 1}, {"lat": -29.4916, "lng": 159.1838, "id": "207052", "name": "Acropora austera", "sprite": "sp-actiniidae.png", "group": "coral", "rarity": 1}, {"lat": -29.1971, "lng": 158.9812, "id": "151540", "name": "Paramuriceidae", "sprite": "sp-actiniidae.png", "group": "coral", "rarity": 1}, {"lat": -29.4578, "lng": 159.0783, "id": "212298", "name": "Culcita novaeguineae", "sprite": "sp-sea_cucumber.png", "group": "starfish", "rarity": 1}, {"lat": -28.2, "lng": 158.2, "id": "113462", "name": "Turborotalita quinqueloba", "sprite": "sp-anchoviella_juruasanga.png", "group": "other", "rarity": 1}, {"lat": -29.2082, "lng": 158.9962, "id": "123189", "name": "Psolidae", "sprite": "sp-sea_cucumber.png", "group": "starfish", "rarity": 1}, {"lat": -29.4537, "lng": 159.0839, "id": "205108", "name": "Clavus", "sprite": "sp-cowrie_shell.png", "group": "sea_snail", "rarity": 1}, {"lat": -29.0602, "lng": 159.042, "id": "23139", "name": "Vermetidae", "sprite": "sp-cowrie_shell.png", "group": "sea_snail", "rarity": 1}, {"lat": -29.4932, "lng": 159.1192, "id": "126017", "name": "Bodianus", "sprite": "sp-cleaner_wrasse.png", "group": "wrasse", "rarity": 1}, {"lat": -29.4522, "lng": 159.0564, "id": "282152", "name": "Black scalyfin", "thumb": "tn_Paalb_ua.jpg", "sprite": "sp-chrysiptera_caesifrons.png", "group": "clownfish", "rarity": 1, "waterType": "Saltwater"}, {"lat": -29.466, "lng": 159.0583, "id": "345686", "name": "Acrosterigma biradiatum", "sprite": "sp-blue_mussel.png", "group": "clam_mussel", "rarity": 1}, {"lat": -29.2294, "lng": 159.0223, "id": "131662", "name": "Ancorinidae", "sprite": "sp-barrel_sponge.png", "group": "sponge", "rarity": 1}, {"lat": -29.415, "lng": 159.0843, "id": "344045", "name": "Gygis alba", "sprite": "sp-anchoviella_juruasanga.png", "group": "other", "rarity": 1}, {"lat": -29.43, "lng": 159.047, "id": "159383", "name": "Myripristis", "sprite": "sp-anchoviella_juruasanga.png", "group": "other", "rarity": 1}, {"lat": -29.475, "lng": 159.0617, "id": "209075", "name": "Platypodia pseudogranulosa", "sprite": "sp-american_lobster.png", "group": "crab_lobster", "rarity": 1}, {"lat": -29.48, "lng": 159.125, "id": "213296", "name": "Dactylosaster cylindricus", "sprite": "sp-sea_cucumber.png", "group": "starfish", "rarity": 1}, {"lat": -29.46, "lng": 159.1117, "id": "140569", "name": "Smaragdia souverbiana", "sprite": "sp-cowrie_shell.png", "group": "sea_snail", "rarity": 1}, {"lat": -29.463, "lng": 159.0985, "id": "282438", "name": "Orange wrasse", "thumb": "tn_Psluc_u0.jpg", "sprite": "sp-cleaner_wrasse.png", "group": "wrasse", "rarity": 1, "waterType": "Saltwater"}, {"lat": -29.4622, "lng": 159.0872, "id": "208891", "name": "Camposcia retusa", "sprite": "sp-american_lobster.png", "group": "crab_lobster", "rarity": 1}, {"lat": -29.48, "lng": 159.125, "id": "559960", "name": "Glossodoris rufomarginata", "sprite": "sp-cowrie_shell.png", "group": "sea_snail", "rarity": 1}, {"lat": -29.4543, "lng": 159.0805, "id": "218744", "name": "Speckled butterflyfish", "thumb": "tn_Chcit_u6.jpg", "sprite": "sp-chaetodon.png", "group": "butterflyfish", "rarity": 1, "waterType": "Saltwater"}, {"lat": -28.0, "lng": 159.0, "id": "531791", "name": "Cellana howensis", "sprite": "sp-cowrie_shell.png", "group": "sea_snail", "rarity": 1}, {"lat": -29.4612, "lng": 159.1022, "id": "944", "name": "Chrysopetalidae", "sprite": "sp-anchoviella_juruasanga.png", "group": "other", "rarity": 1}, {"lat": -29.4667, "lng": 159.0667, "id": "273587", "name": "Blackbarred wrasse", "thumb": "tn_Thnig_u1.jpg", "sprite": "sp-cleaner_wrasse.png", "group": "wrasse", "rarity": 1, "waterType": "Saltwater"}, {"lat": -29.2147, "lng": 158.9842, "id": "131802", "name": "Axinyssa", "sprite": "sp-barrel_sponge.png", "group": "sponge", "rarity": 1}, {"lat": -29.4681, "lng": 159.0785, "id": "607362", "name": "Amphorites annasona", "sprite": "sp-american_lobster.png", "group": "crab_lobster", "rarity": 1}, {"lat": -28.2912, "lng": 158.6315, "id": "256398", "name": "Aegiochus coroo", "sprite": "sp-american_lobster.png", "group": "crab_lobster", "rarity": 1}, {"lat": -29.2255, "lng": 159.0372, "id": "883", "name": "Polychaeta", "sprite": "sp-anchoviella_juruasanga.png", "group": "other", "rarity": 1}, {"lat": -29.2187, "lng": 159.008, "id": "131638", "name": "Petrosiidae", "sprite": "sp-barrel_sponge.png", "group": "sponge", "rarity": 1}, {"lat": -29.5, "lng": 159.083, "id": "129829", "name": "Eurythoe complanata", "sprite": "sp-anchoviella_juruasanga.png", "group": "other", "rarity": 1}, {"lat": -29.466, "lng": 159.0547, "id": "473095", "name": "Cerithium balteatum", "sprite": "sp-cowrie_shell.png", "group": "sea_snail", "rarity": 1}, {"lat": -29.475, "lng": 159.0617, "id": "758237", "name": "Dipsastraea rotumana", "sprite": "sp-actiniidae.png", "group": "coral", "rarity": 1}, {"lat": -29.48, "lng": 159.125, "id": "558453", "name": "Goniobranchus", "sprite": "sp-cowrie_shell.png", "group": "sea_snail", "rarity": 1}, {"lat": -29.4934, "lng": 159.1873, "id": "207095", "name": "Acropora cytherea", "sprite": "sp-actiniidae.png", "group": "coral", "rarity": 1}, {"lat": -29.4582, "lng": 159.0834, "id": "398549", "name": "Oval butterflyfish", "thumb": "tn_Chlun_ua.jpg", "sprite": "sp-chaetodon.png", "group": "butterflyfish", "rarity": 1, "waterType": "Saltwater"}, {"lat": -29.4667, "lng": 159.1167, "id": "346431", "name": "Ranella australasia", "sprite": "sp-cowrie_shell.png", "group": "sea_snail", "rarity": 1}, {"lat": -29.4633, "lng": 159.083, "id": "159559", "name": "Red lionfish", "thumb": "tn_Ptvol_ul.jpg", "sprite": "sp-parascorpaena_moultoni.png", "group": "scorpionfish", "rarity": 1, "waterType": "Saltwater"}, {"lat": -29.4704, "lng": 159.0982, "id": "125122", "name": "Ophiactis savignyi", "sprite": "sp-sea_cucumber.png", "group": "starfish", "rarity": 1}, {"lat": -29.48, "lng": 159.125, "id": "220515", "name": "Calliactis polypus", "sprite": "sp-actiniidae.png", "group": "coral", "rarity": 1}, {"lat": -29.485, "lng": 159.135, "id": "220194", "name": "Pontoniopsis comanthi", "sprite": "sp-american_lobster.png", "group": "crab_lobster", "rarity": 1}, {"lat": -29.4361, "lng": 159.0206, "id": "443885", "name": "Trapezia septata", "sprite": "sp-american_lobster.png", "group": "crab_lobster", "rarity": 1}, {"lat": -29.2147, "lng": 158.9841, "id": "125308", "name": "Bebryce", "sprite": "sp-actiniidae.png", "group": "coral", "rarity": 1}, {"lat": -29.3841, "lng": 159.0823, "id": "413429", "name": "Turbo cepoides", "sprite": "sp-cowrie_shell.png", "group": "sea_snail", "rarity": 1}, {"lat": -27.1083, "lng": 159.2167, "id": "218206", "name": "Malabar grouper", "thumb": "tn_Epmal_u9.jpg", "sprite": "sp-chelidoperca_santosi.png", "group": "grouper", "rarity": 1, "waterType": "Brackish"}, {"lat": -29.4575, "lng": 159.0728, "id": "213377", "name": "Echinothrix calamaris", "sprite": "sp-sea_cucumber.png", "group": "starfish", "rarity": 1}, {"lat": -29.4442, "lng": 159.0738, "id": "570811", "name": "Monetaria caputserpentis", "sprite": "sp-cowrie_shell.png", "group": "sea_snail", "rarity": 1}, {"lat": -29.4546, "lng": 159.07, "id": "204317", "name": "Thamnaconus", "sprite": "sp-anchoviella_juruasanga.png", "group": "other", "rarity": 1}, {"lat": -29.453, "lng": 159.0919, "id": "118277", "name": "Sphaeromatidae", "sprite": "sp-american_lobster.png", "group": "crab_lobster", "rarity": 1}, {"lat": -29.48, "lng": 159.125, "id": "444462", "name": "Leptograpsus variegatus", "sprite": "sp-american_lobster.png", "group": "crab_lobster", "rarity": 1}, {"lat": -29.4883, "lng": 159.1654, "id": "207055", "name": "Acropora samoensis", "sprite": "sp-actiniidae.png", "group": "coral", "rarity": 1}, {"lat": -29.4817, "lng": 159.1086, "id": "273341", "name": "Crochet butterflyfish", "thumb": "tn_Chgue_ua.jpg", "sprite": "sp-chaetodon.png", "group": "butterflyfish", "rarity": 1, "waterType": "Saltwater"}, {"lat": -29.4567, "lng": 159.0617, "id": "123158", "name": "Cidaridae", "sprite": "sp-sea_cucumber.png", "group": "starfish", "rarity": 1}, {"lat": -29.4898, "lng": 159.1802, "id": "287943", "name": "Astreopora cucullata", "sprite": "sp-actiniidae.png", "group": "coral", "rarity": 1}, {"lat": -27.6667, "lng": 158.3333, "id": "291134", "name": "Stichodactyla haddoni", "sprite": "sp-actiniidae.png", "group": "coral", "rarity": 1}, {"lat": -27.48, "lng": 158.63, "id": "163249", "name": "Hemiaulus hauckii", "sprite": "sp-anchoviella_juruasanga.png", "group": "other", "rarity": 1}, {"lat": -29.4927, "lng": 159.0795, "id": "280765", "name": "Striped boarfish", "thumb": "tn_Evacu_u5.jpg", "sprite": "sp-anchoviella_juruasanga.png", "group": "other", "rarity": 1, "waterType": "Saltwater"}, {"lat": -29.224, "lng": 159.0139, "id": "123132", "name": "Echinasteridae", "sprite": "sp-sea_cucumber.png", "group": "starfish", "rarity": 1}, {"lat": -29.4844, "lng": 159.0646, "id": "219885", "name": "Yellow-spotted triggerfish", "thumb": "tn_Psfus_u1.jpg", "sprite": "sp-balistidae.png", "group": "triggerfish", "rarity": 1, "waterType": "Saltwater"}, {"lat": -29.3, "lng": 159.75, "id": "273328", "name": "Eastern triangular butterflyfish", "thumb": "tn_Chbar_u2.jpg", "sprite": "sp-chaetodon.png", "group": "butterflyfish", "rarity": 1, "waterType": "Saltwater"}, {"lat": -29.4967, "lng": 159.0517, "id": "117242", "name": "Errina", "sprite": "sp-anchoviella_juruasanga.png", "group": "other", "rarity": 1}, {"lat": -29.2187, "lng": 159.0075, "id": "248613", "name": "Cilicaeopsis", "sprite": "sp-american_lobster.png", "group": "crab_lobster", "rarity": 1}, {"lat": -29.485, "lng": 159.1347, "id": "531273", "name": "Plocamopherus imperialis", "sprite": "sp-cowrie_shell.png", "group": "sea_snail", "rarity": 1}, {"lat": -29.0602, "lng": 159.042, "id": "242423", "name": "Ophiologimus", "sprite": "sp-sea_cucumber.png", "group": "starfish", "rarity": 1}, {"lat": -29.4622, "lng": 159.0822, "id": "283033", "name": "Toadstool groper", "thumb": "tn_Trmac_u0.jpg", "sprite": "sp-chelidoperca_santosi.png", "group": "grouper", "rarity": 1, "waterType": "Saltwater"}, {"lat": -29.2267, "lng": 159.0078, "id": "131685", "name": "Pheronematidae", "sprite": "sp-barrel_sponge.png", "group": "sponge", "rarity": 1}, {"lat": -29.305, "lng": 159.0172, "id": "204279", "name": "Cirrhipathes", "sprite": "sp-actiniidae.png", "group": "coral", "rarity": 1}, {"lat": -29.2178, "lng": 159.0072, "id": "131902", "name": "Hamacantha", "sprite": "sp-barrel_sponge.png", "group": "sponge", "rarity": 1}, {"lat": -27.48, "lng": 158.63, "id": "110219", "name": "Protoperidinium divergens", "sprite": "sp-anchoviella_juruasanga.png", "group": "other", "rarity": 1}, {"lat": -29.4167, "lng": 159.0978, "id": "214656", "name": "Lovenia elongata", "sprite": "sp-sea_cucumber.png", "group": "starfish", "rarity": 1}, {"lat": -29.2189, "lng": 159.0084, "id": "577471", "name": "Anomochone furcata", "sprite": "sp-barrel_sponge.png", "group": "sponge", "rarity": 1}, {"lat": -29.4439, "lng": 159.0906, "id": "273846", "name": "Saddletail grouper", "thumb": "tn_Epdae_u0.jpg", "sprite": "sp-chelidoperca_santosi.png", "group": "grouper", "rarity": 1, "waterType": "Saltwater"}, {"lat": -29.4632, "lng": 159.0849, "id": "273705", "name": "Deepsea chromis", "thumb": "tn_Chaby_u0.jpg", "sprite": "sp-chrysiptera_caesifrons.png", "group": "clownfish", "rarity": 1, "waterType": "Saltwater"}, {"lat": -29.4717, "lng": 159.1172, "id": "178200", "name": "Mithrodia clavigera", "sprite": "sp-sea_cucumber.png", "group": "starfish", "rarity": 1}, {"lat": -29.454, "lng": 159.111, "id": "207135", "name": "Montipora spongodes", "sprite": "sp-actiniidae.png", "group": "coral", "rarity": 1}, {"lat": -29.4707, "lng": 159.0982, "id": "1074811", "name": "Carinomitra typha", "sprite": "sp-cowrie_shell.png", "group": "sea_snail", "rarity": 1}, {"lat": -29.4547, "lng": 159.0874, "id": "215475", "name": "Conus planorbis", "sprite": "sp-cowrie_shell.png", "group": "sea_snail", "rarity": 1}, {"lat": -29.435, "lng": 159.1364, "id": "530882", "name": "Ovatipsa chinensis", "sprite": "sp-cowrie_shell.png", "group": "sea_snail", "rarity": 1}, {"lat": -29.4567, "lng": 159.0617, "id": "326578", "name": "Arichlidon hanneloreae", "sprite": "sp-anchoviella_juruasanga.png", "group": "other", "rarity": 1}, {"lat": -29.4783, "lng": 159.0467, "id": "123148", "name": "Antedonidae", "sprite": "sp-sea_cucumber.png", "group": "starfish", "rarity": 1}, {"lat": -29.4783, "lng": 159.0467, "id": "393737", "name": "Mimachlamys sanguinea", "sprite": "sp-blue_mussel.png", "group": "clam_mussel", "rarity": 1}, {"lat": -29.48, "lng": 159.125, "id": "181240", "name": "Caloria indica", "sprite": "sp-cowrie_shell.png", "group": "sea_snail", "rarity": 1}, {"lat": -29.2123, "lng": 158.9812, "id": "817548", "name": "Enixotrophon carduelis", "sprite": "sp-cowrie_shell.png", "group": "sea_snail", "rarity": 1}, {"lat": -29.2354, "lng": 159.0306, "id": "131664", "name": "Geodiidae", "sprite": "sp-barrel_sponge.png", "group": "sponge", "rarity": 1}, {"lat": -29.4614, "lng": 159.09, "id": "592420", "name": "Pseudopisinna", "sprite": "sp-cowrie_shell.png", "group": "sea_snail", "rarity": 1}, {"lat": -29.2264, "lng": 159.0402, "id": "1605823", "name": "Garymunida procera", "sprite": "sp-american_lobster.png", "group": "crab_lobster", "rarity": 1}, {"lat": -29.4454, "lng": 159.1019, "id": "1018707", "name": "Brown stingray", "thumb": "tn_Daush_u0.jpg", "sprite": "sp-himantura_australis.png", "group": "ray", "rarity": 1, "waterType": "Saltwater"}]}