{"zoom": 7, "x": 121, "y": 86, "points": [{"lat": -52.5167, "lng": 160.5167, "id": "1131", "name": "Isopoda", "sprite": "sp-american_lobster.png", "group": "crab_lobster", "rarity": 1}, {"lat": -52.502, "lng": 160.4658, "id": "235675", "name": "Gyrothyris mawsoni", "sprite": "sp-anchoviella_juruasanga.png", "group": "other", "rarity": 1}, {"lat": -53.3468, "lng": 160.8722, "id": "1571884", "name": "Sagmatias australis", "sprite": "sp-bottlenose_dolphin.png", "group": "dolphin", "rarity": 1}, {"lat": -52.4873, "lng": 160.415, "id": "285806", "name": "Errina cheilopora", "sprite": "sp-anchoviella_juruasanga.png", "group": "other", "rarity": 1}, {"lat": -52.497, "lng": 160.4892, "id": "1803", "name": "Brachiopoda", "sprite": "sp-anchoviella_juruasanga.png", "group": "other", "rarity": 1}, {"lat": -52.497, "lng": 160.4892, "id": "231637", "name": "Latrunculia (Latrunculia)", "sprite": "sp-barrel_sponge.png", "group": "sponge", "rarity": 1}, {"lat": -52.5029, "lng": 160.4853, "id": "267809", "name": "Rhodelinda", "sprite": "sp-actiniidae.png", "group": "coral", "rarity": 1}, {"lat": -52.4938, "lng": 160.4644, "id": "170263", "name": "Poecillastra laminaris", "sprite": "sp-barrel_sponge.png", "group": "sponge", "rarity": 1}, {"lat": -52.4967, "lng": 160.6317, "id": "217708", "name": "Southern lanternfish", "thumb": "tn_Laaus_u4.jpg", "sprite": "sp-anchoviella_juruasanga.png", "group": "other", "rarity": 1, "waterType": "Saltwater"}, {"lat": -52.5168, "lng": 160.5168, "id": "160822", "name": "Pseudechinus magellanicus", "sprite": "sp-sea_cucumber.png", "group": "starfish", "rarity": 1}, {"lat": -52.68, "lng": 160.41, "id": "135209", "name": "Madrepora oculata", "sprite": "sp-actiniidae.png", "group": "coral", "rarity": 1}, {"lat": -52.4873, "lng": 160.415, "id": "206244", "name": "Notoplax", "sprite": "sp-anchoviella_juruasanga.png", "group": "other", "rarity": 1}, {"lat": -52.4873, "lng": 160.415, "id": "145", "name": "Naticidae", "sprite": "sp-cowrie_shell.png", "group": "sea_snail", "rarity": 1}, {"lat": -52.6, "lng": 162.1167, "id": "221048", "name": "Euphausia similis", "sprite": "sp-antarctic_krill.png", "group": "shrimp", "rarity": 1}, {"lat": -52.4967, "lng": 160.6317, "id": "127309", "name": "Half-naked hatchetfish", "thumb": "tn_Arhem_u6.jpg", "sprite": "sp-anchoviella_juruasanga.png", "group": "other", "rarity": 1, "waterType": "Saltwater"}, {"lat": -52.4938, "lng": 160.4644, "id": "100655", "name": "Actinostolidae", "sprite": "sp-actiniidae.png", "group": "coral", "rarity": 1}, {"lat": -53.0295, "lng": 161.3701, "id": "344000", "name": "Diomedea epomophora", "sprite": "sp-anchoviella_juruasanga.png", "group": "other", "rarity": 1}, {"lat": -52.497, "lng": 160.489, "id": "1613676", "name": "Latrunculia (Biannulata) macquariensis", "sprite": "sp-barrel_sponge.png", "group": "sponge", "rarity": 1}, {"lat": -52.497, "lng": 160.4892, "id": "468597", "name": "Telopora", "sprite": "sp-anchoviella_juruasanga.png", "group": "other", "rarity": 1}, {"lat": -52.4906, "lng": 160.4397, "id": "568354", "name": "Goniocidaris (Aspidocidaris) parasol", "sprite": "sp-sea_cucumber.png", "group": "starfish", "rarity": 1}, {"lat": -52.4901, "lng": 160.4362, "id": "168908", "name": "Lissodendoryx (Ectyodoryx)", "sprite": "sp-barrel_sponge.png", "group": "sponge", "rarity": 1}, {"lat": -53.3522, "lng": 161.3535, "id": "212583", "name": "Diomedea exulans", "sprite": "sp-anchoviella_juruasanga.png", "group": "other", "rarity": 1}, {"lat": -52.497, "lng": 160.4892, "id": "231645", "name": "Latrunculia (Latrunculia) brevis", "sprite": "sp-barrel_sponge.png", "group": "sponge", "rarity": 1}, {"lat": -52.4906, "lng": 160.4397, "id": "283381", "name": "Bolocera kerguelensis", "sprite": "sp-actiniidae.png", "group": "coral", "rarity": 1}, {"lat": -52.5101, "lng": 160.5075, "id": "173257", "name": "Ophiolimna antarctica", "sprite": "sp-sea_cucumber.png", "group": "starfish", "rarity": 1}, {"lat": -52.4873, "lng": 160.415, "id": "169107", "name": "Pyloderma demonstrans", "sprite": "sp-barrel_sponge.png", "group": "sponge", "rarity": 1}, {"lat": -52.487, "lng": 160.415, "id": "132005", "name": "Geodia", "sprite": "sp-barrel_sponge.png", "group": "sponge", "rarity": 1}, {"lat": -52.497, "lng": 160.4892, "id": "131873", "name": "Ophlitaspongia", "sprite": "sp-barrel_sponge.png", "group": "sponge", "rarity": 1}, {"lat": -52.4873, "lng": 160.415, "id": "138012", "name": "Emarginula", "sprite": "sp-cowrie_shell.png", "group": "sea_snail", "rarity": 1}, {"lat": -53.6788, "lng": 162.5753, "id": "103358", "name": "Fritillaria", "sprite": "sp-anchoviella_juruasanga.png", "group": "other", "rarity": 1}, {"lat": -53.8016, "lng": 162.4411, "id": "110671", "name": "Euphausiidae", "sprite": "sp-antarctic_krill.png", "group": "shrimp", "rarity": 1}, {"lat": -54.0833, "lng": 160.4333, "id": "220837", "name": "Rhincalanus gigas", "sprite": "sp-anchoviella_juruasanga.png", "group": "other", "rarity": 1}, {"lat": -52.4873, "lng": 160.415, "id": "469390", "name": "Caberea solida", "sprite": "sp-anchoviella_juruasanga.png", "group": "other", "rarity": 1}, {"lat": -52.4873, "lng": 160.415, "id": "103434", "name": "Aplousobranchia", "sprite": "sp-anchoviella_juruasanga.png", "group": "other", "rarity": 1}, {"lat": -52.4898, "lng": 160.4335, "id": "528922", "name": "Amphicyclus mortenseni", "sprite": "sp-sea_cucumber.png", "group": "starfish", "rarity": 1}, {"lat": -52.497, "lng": 160.4892, "id": "284800", "name": "Hydrodendron tottoni", "sprite": "sp-anchoviella_juruasanga.png", "group": "other", "rarity": 1}, {"lat": -52.4873, "lng": 160.415, "id": "131748", "name": "Spongionella", "sprite": "sp-barrel_sponge.png", "group": "sponge", "rarity": 1}, {"lat": -52.5069, "lng": 160.5029, "id": "235676", "name": "Neothyris lenticularis", "sprite": "sp-anchoviella_juruasanga.png", "group": "other", "rarity": 1}, {"lat": -52.4873, "lng": 160.415, "id": "183315", "name": "Ophiopleura inermis", "sprite": "sp-sea_cucumber.png", "group": "starfish", "rarity": 1}, {"lat": -52.9515, "lng": 161.4612, "id": "405117", "name": "Diomedea gibsoni", "sprite": "sp-anchoviella_juruasanga.png", "group": "other", "rarity": 1}, {"lat": -52.502, "lng": 160.4658, "id": "117242", "name": "Errina", "sprite": "sp-anchoviella_juruasanga.png", "group": "other", "rarity": 1}, {"lat": -52.5167, "lng": 160.5167, "id": "267499", "name": "Iciligorgia", "sprite": "sp-actiniidae.png", "group": "coral", "rarity": 1}, {"lat": -52.5167, "lng": 160.5167, "id": "504675", "name": "Cosa costata", "sprite": "sp-blue_mussel.png", "group": "clam_mussel", "rarity": 1}, {"lat": -52.4946, "lng": 160.4555, "id": "719185", "name": "Ophiacantha otagoensis", "sprite": "sp-sea_cucumber.png", "group": "starfish", "rarity": 1}, {"lat": -52.9515, "lng": 161.4612, "id": "231434", "name": "Lagenorhynchus obscurus", "sprite": "sp-bottlenose_dolphin.png", "group": "dolphin", "rarity": 1}, {"lat": -52.497, "lng": 160.4892, "id": "138068", "name": "Hiatella", "sprite": "sp-blue_mussel.png", "group": "clam_mussel", "rarity": 1}, {"lat": -52.4971, "lng": 160.459, "id": "530503", "name": "Pentactella laevigata", "sprite": "sp-sea_cucumber.png", "group": "starfish", "rarity": 1}, {"lat": -52.4873, "lng": 160.415, "id": "173570", "name": "Tokoprymno maia", "sprite": "sp-actiniidae.png", "group": "coral", "rarity": 1}, {"lat": -52.55, "lng": 160.5, "id": "225961", "name": "Pachyptila salvini", "sprite": "sp-anchoviella_juruasanga.png", "group": "other", "rarity": 1}, {"lat": -52.4873, "lng": 160.415, "id": "117196", "name": "Plumularia", "sprite": "sp-anchoviella_juruasanga.png", "group": "other", "rarity": 1}, {"lat": -52.4967, "lng": 160.6317, "id": "217699", "name": "Southern blacktip lanternfish", "thumb": "tn_Gypia_u0.gif", "sprite": "sp-anchoviella_juruasanga.png", "group": "other", "rarity": 1, "waterType": "Saltwater"}, {"lat": -53.0552, "lng": 161.4926, "id": "212651", "name": "Procellaria aequinoctialis", "sprite": "sp-anchoviella_juruasanga.png", "group": "other", "rarity": 1}, {"lat": -52.9337, "lng": 161.3709, "id": "225902", "name": "Thalassarche cauta", "sprite": "sp-anchoviella_juruasanga.png", "group": "other", "rarity": 1}, {"lat": -52.4922, "lng": 160.4521, "id": "101", "name": "Gastropoda", "sprite": "sp-cowrie_shell.png", "group": "sea_snail", "rarity": 1}, {"lat": -52.4912, "lng": 160.4447, "id": "129278", "name": "Eunice", "sprite": "sp-anchoviella_juruasanga.png", "group": "other", "rarity": 1}, {"lat": -52.5014, "lng": 160.4819, "id": "340812", "name": "Florometra austini", "sprite": "sp-sea_cucumber.png", "group": "starfish", "rarity": 1}, {"lat": -52.4873, "lng": 160.415, "id": "152391", "name": "Nemertea", "sprite": "sp-anchoviella_juruasanga.png", "group": "other", "rarity": 1}, {"lat": -52.4873, "lng": 160.415, "id": "132012", "name": "Characella", "sprite": "sp-barrel_sponge.png", "group": "sponge", "rarity": 1}, {"lat": -53.3036, "lng": 161.801, "id": "212640", "name": "Daption capense", "sprite": "sp-anchoviella_juruasanga.png", "group": "other", "rarity": 1}, {"lat": -52.4873, "lng": 160.415, "id": "291558", "name": "Crossaster multispinus", "sprite": "sp-sea_cucumber.png", "group": "starfish", "rarity": 1}, {"lat": -52.4873, "lng": 160.415, "id": "1363689", "name": "Penares turmericolor", "sprite": "sp-barrel_sponge.png", "group": "sponge", "rarity": 1}, {"lat": -52.4922, "lng": 160.4521, "id": "131994", "name": "Stelletta", "sprite": "sp-barrel_sponge.png", "group": "sponge", "rarity": 1}, {"lat": -52.497, "lng": 160.4892, "id": "291573", "name": "Echinaster farquhari", "sprite": "sp-sea_cucumber.png", "group": "starfish", "rarity": 1}, {"lat": -52.4873, "lng": 160.415, "id": "131807", "name": "Halichondria", "sprite": "sp-barrel_sponge.png", "group": "sponge", "rarity": 1}, {"lat": -52.497, "lng": 160.4892, "id": "117093", "name": "Eudendrium", "sprite": "sp-anchoviella_juruasanga.png", "group": "other", "rarity": 1}, {"lat": -52.497, "lng": 160.4892, "id": "100672", "name": "Hormathiidae", "sprite": "sp-actiniidae.png", "group": "coral", "rarity": 1}, {"lat": -52.4873, "lng": 160.415, "id": "246465", "name": "Sympagurus dimorphus", "sprite": "sp-american_lobster.png", "group": "crab_lobster", "rarity": 1}, {"lat": -52.4873, "lng": 160.415, "id": "174224", "name": "Turritigera", "sprite": "sp-anchoviella_juruasanga.png", "group": "other", "rarity": 1}, {"lat": -53.0875, "lng": 161.4464, "id": "567471", "name": "Stercorarius antarcticus", "sprite": "sp-anchoviella_juruasanga.png", "group": "other", "rarity": 1}, {"lat": -52.4873, "lng": 160.415, "id": "168314", "name": "Microtylostylifer", "sprite": "sp-barrel_sponge.png", "group": "sponge", "rarity": 1}, {"lat": -53.5838, "lng": 162.6776, "id": "342444", "name": "Clausocalanus laticeps", "sprite": "sp-anchoviella_juruasanga.png", "group": "other", "rarity": 1}, {"lat": -52.4873, "lng": 160.415, "id": "290021", "name": "Goniocorella dumosa", "sprite": "sp-actiniidae.png", "group": "coral", "rarity": 1}, {"lat": -52.9917, "lng": 161.475, "id": "325384", "name": "Themisto gaudichaudii", "sprite": "sp-american_lobster.png", "group": "crab_lobster", "rarity": 1}, {"lat": -53.7581, "lng": 162.4829, "id": "342434", "name": "Calanoides acutus", "sprite": "sp-anchoviella_juruasanga.png", "group": "other", "rarity": 1}, {"lat": -53.3833, "lng": 160.8333, "id": "103254", "name": "Hyperia spinigera", "sprite": "sp-american_lobster.png", "group": "crab_lobster", "rarity": 1}, {"lat": -52.5143, "lng": 160.5143, "id": "231603", "name": "Stylaster eguchii", "sprite": "sp-anchoviella_juruasanga.png", "group": "other", "rarity": 1}, {"lat": -53.3186, "lng": 161.6312, "id": "212642", "name": "Pterodroma lessonii", "sprite": "sp-anchoviella_juruasanga.png", "group": "other", "rarity": 1}, {"lat": -52.4873, "lng": 160.415, "id": "380755", "name": "Benthopecten munidae", "sprite": "sp-sea_cucumber.png", "group": "starfish", "rarity": 1}, {"lat": -52.5167, "lng": 160.5167, "id": "558", "name": "Porifera", "sprite": "sp-barrel_sponge.png", "group": "sponge", "rarity": 1}, {"lat": -52.4873, "lng": 160.415, "id": "1304270", "name": "Cymatona kampyla", "sprite": "sp-cowrie_shell.png", "group": "sea_snail", "rarity": 1}, {"lat": -52.6665, "lng": 161.8002, "id": "226048", "name": "Daption capense australe", "sprite": "sp-anchoviella_juruasanga.png", "group": "other", "rarity": 1}, {"lat": -52.4871, "lng": 160.415, "id": "411385", "name": "Goniocidaris", "sprite": "sp-sea_cucumber.png", "group": "starfish", "rarity": 1}, {"lat": -52.4873, "lng": 160.415, "id": "110942", "name": "Microporella", "sprite": "sp-anchoviella_juruasanga.png", "group": "other", "rarity": 1}, {"lat": -52.4873, "lng": 160.415, "id": "22805", "name": "Stylasteridae", "sprite": "sp-anchoviella_juruasanga.png", "group": "other", "rarity": 1}, {"lat": -52.4873, "lng": 160.415, "id": "169867", "name": "Penares palmatoclada", "sprite": "sp-barrel_sponge.png", "group": "sponge", "rarity": 1}, {"lat": -52.4873, "lng": 160.415, "id": "170779", "name": "Protosuberites", "sprite": "sp-barrel_sponge.png", "group": "sponge", "rarity": 1}, {"lat": -53.6547, "lng": 162.6021, "id": "1100", "name": "Calanoida", "sprite": "sp-anchoviella_juruasanga.png", "group": "other", "rarity": 1}, {"lat": -52.4873, "lng": 160.415, "id": "106993", "name": "Merhippolyte", "sprite": "sp-american_lobster.png", "group": "crab_lobster", "rarity": 1}, {"lat": -53.6889, "lng": 161.1699, "id": "231413", "name": "Mirounga leonina", "sprite": "sp-elephant_seal.png", "group": "seal", "rarity": 1}, {"lat": -52.9874, "lng": 161.3972, "id": "212696", "name": "Fregetta tropica", "sprite": "sp-anchoviella_juruasanga.png", "group": "other", "rarity": 1}, {"lat": -52.4873, "lng": 160.415, "id": "242143", "name": "Ophiocten cryptum", "sprite": "sp-sea_cucumber.png", "group": "starfish", "rarity": 1}, {"lat": -52.5068, "lng": 160.4908, "id": "239880", "name": "Pallenopsis kupei", "sprite": "sp-anchoviella_juruasanga.png", "group": "other", "rarity": 1}, {"lat": -52.497, "lng": 160.4892, "id": "534424", "name": "Enteroctopus zealandicus", "sprite": "sp-giant_pacific_octopus.png", "group": "octopus_squid", "rarity": 1}, {"lat": -53.088, "lng": 161.2149, "id": "343995", "name": "Thalassarche melanophris", "sprite": "sp-anchoviella_juruasanga.png", "group": "other", "rarity": 1}, {"lat": -53.6009, "lng": 162.2615, "id": "137092", "name": "Megaptera novaeangliae", "sprite": "sp-blue_whale.png", "group": "whale", "rarity": 1}, {"lat": -52.4873, "lng": 160.415, "id": "131922", "name": "Haliclona (Gellius)", "sprite": "sp-barrel_sponge.png", "group": "sponge", "rarity": 1}, {"lat": -53.6547, "lng": 162.6021, "id": "103367", "name": "Oikopleura", "sprite": "sp-anchoviella_juruasanga.png", "group": "other", "rarity": 1}, {"lat": -52.55, "lng": 160.5, "id": "225776", "name": "Thalassarche bulleri", "sprite": "sp-anchoviella_juruasanga.png", "group": "other", "rarity": 1}, {"lat": -52.4873, "lng": 160.415, "id": "862699", "name": "Geodia harpago", "sprite": "sp-barrel_sponge.png", "group": "sponge", "rarity": 1}, {"lat": -52.4873, "lng": 160.415, "id": "405346", "name": "Aegapheles", "sprite": "sp-american_lobster.png", "group": "crab_lobster", "rarity": 1}, {"lat": -52.4922, "lng": 160.4521, "id": "507916", "name": "Tawera mawsoni", "sprite": "sp-blue_mussel.png", "group": "clam_mussel", "rarity": 1}, {"lat": -52.497, "lng": 160.4892, "id": "123337", "name": "Lophaster", "sprite": "sp-sea_cucumber.png", "group": "starfish", "rarity": 1}, {"lat": -53.6547, "lng": 162.6021, "id": "342443", "name": "Clausocalanus brevipes", "sprite": "sp-anchoviella_juruasanga.png", "group": "other", "rarity": 1}, {"lat": -53.3833, "lng": 160.8333, "id": "234641", "name": "Rhombic lanternfish", "thumb": "tn_Krand_u1.gif", "sprite": "sp-anchoviella_juruasanga.png", "group": "other", "rarity": 1, "waterType": "Saltwater"}, {"lat": -52.4873, "lng": 160.415, "id": "468696", "name": "Phonicosia", "sprite": "sp-anchoviella_juruasanga.png", "group": "other", "rarity": 1}, {"lat": -52.497, "lng": 160.4892, "id": "205020", "name": "Celleporaria", "sprite": "sp-anchoviella_juruasanga.png", "group": "other", "rarity": 1}, {"lat": -53.5493, "lng": 162.7161, "id": "1080", "name": "Copepoda", "sprite": "sp-anchoviella_juruasanga.png", "group": "other", "rarity": 1}, {"lat": -53.5415, "lng": 162.7243, "id": "104616", "name": "Mecynocera clausi", "sprite": "sp-anchoviella_juruasanga.png", "group": "other", "rarity": 1}, {"lat": -52.4873, "lng": 160.415, "id": "746133", "name": "Psolidium marriotti", "sprite": "sp-sea_cucumber.png", "group": "starfish", "rarity": 1}, {"lat": -52.5141, "lng": 160.5041, "id": "513297", "name": "Goniocidaris (Goniocidaris) umbraculum", "sprite": "sp-sea_cucumber.png", "group": "starfish", "rarity": 1}, {"lat": -53.4275, "lng": 161.64, "id": "344007", "name": "Pelecanoides urinatrix", "sprite": "sp-anchoviella_juruasanga.png", "group": "other", "rarity": 1}, {"lat": -53.5, "lng": 161.1, "id": "212658", "name": "Eudyptes chrysolophus", "sprite": "sp-anchoviella_juruasanga.png", "group": "other", "rarity": 1}, {"lat": -52.6, "lng": 162.1167, "id": "221055", "name": "Euphausia lucens", "sprite": "sp-antarctic_krill.png", "group": "shrimp", "rarity": 1}, {"lat": -52.4873, "lng": 160.415, "id": "125109", "name": "Ophiactis abyssicola", "sprite": "sp-sea_cucumber.png", "group": "starfish", "rarity": 1}, {"lat": -52.4873, "lng": 160.415, "id": "131808", "name": "Hymeniacidon", "sprite": "sp-barrel_sponge.png", "group": "sponge", "rarity": 1}, {"lat": -52.4873, "lng": 160.415, "id": "117128", "name": "Acryptolaria", "sprite": "sp-anchoviella_juruasanga.png", "group": "other", "rarity": 1}, {"lat": -52.4873, "lng": 160.415, "id": "291562", "name": "Pteraster bathami", "sprite": "sp-sea_cucumber.png", "group": "starfish", "rarity": 1}, {"lat": -52.4873, "lng": 160.415, "id": "131847", "name": "Petrosia", "sprite": "sp-barrel_sponge.png", "group": "sponge", "rarity": 1}, {"lat": -53.6544, "lng": 162.602, "id": "345366", "name": "Subeucalanus longiceps", "sprite": "sp-anchoviella_juruasanga.png", "group": "other", "rarity": 1}, {"lat": -52.4971, "lng": 160.459, "id": "393701", "name": "Zygochlamys delicatula", "sprite": "sp-blue_mussel.png", "group": "clam_mussel", "rarity": 1}]}