{"zoom": 7, "x": 123, "y": 58, "points": [{"lat": 16.5806, "lng": 166.472, "id": "171842", "name": "Hyalostylus", "sprite": "sp-barrel_sponge.png", "group": "sponge", "rarity": 1}, {"lat": 16.5812, "lng": 166.4719, "id": "177833", "name": "Calyptrophora", "sprite": "sp-actiniidae.png", "group": "coral", "rarity": 1}, {"lat": 15.204, "lng": 168.113, "id": "219356", "name": "Dusky sleeper", "thumb": "tn_Elfus_u1.jpg", "sprite": "sp-anchoviella_juruasanga.png", "group": "other", "rarity": 1, "waterType": "Brackish"}, {"lat": 16.0, "lng": 166.0, "id": "104627", "name": "Metridia brevicauda", "sprite": "sp-anchoviella_juruasanga.png", "group": "other", "rarity": 1}, {"lat": 16.5814, "lng": 166.4719, "id": "267484", "name": "Hexapathes", "sprite": "sp-actiniidae.png", "group": "coral", "rarity": 1}, {"lat": 16.5817, "lng": 166.4718, "id": "1317075", "name": "Macroprimnoa ornata", "sprite": "sp-actiniidae.png", "group": "coral", "rarity": 1}, {"lat": 15.0817, "lng": 167.0215, "id": "219562", "name": "Red-tailed goby", "thumb": "tn_Silag_m0.jpg", "sprite": "sp-eviota_bipunctata.png", "group": "goby", "rarity": 1, "waterType": "Brackish"}, {"lat": 16.0, "lng": 166.0, "id": "104603", "name": "Lucicutia longiserrata", "sprite": "sp-anchoviella_juruasanga.png", "group": "other", "rarity": 1}, {"lat": 16.0, "lng": 166.0, "id": "104343", "name": "Undeuchaeta plumosa", "sprite": "sp-anchoviella_juruasanga.png", "group": "other", "rarity": 1}, {"lat": 16.5816, "lng": 166.4717, "id": "1419319", "name": "Keratoisidinae", "sprite": "sp-actiniidae.png", "group": "coral", "rarity": 1}, {"lat": 16.5807, "lng": 166.472, "id": "171837", "name": "Bolosoma", "sprite": "sp-barrel_sponge.png", "group": "sponge", "rarity": 1}, {"lat": 16.0, "lng": 166.0, "id": "104471", "name": "Neocalanus gracilis", "sprite": "sp-anchoviella_juruasanga.png", "group": "other", "rarity": 1}, {"lat": 16.5809, "lng": 166.4719, "id": "172066", "name": "Caulophacus (Oxydiscus)", "sprite": "sp-barrel_sponge.png", "group": "sponge", "rarity": 1}, {"lat": 16.0, "lng": 166.0, "id": "104636", "name": "Metridia venusta", "sprite": "sp-anchoviella_juruasanga.png", "group": "other", "rarity": 1}, {"lat": 16.0, "lng": 166.0, "id": "104553", "name": "Euchaeta media", "sprite": "sp-anchoviella_juruasanga.png", "group": "other", "rarity": 1}, {"lat": 16.0, "lng": 166.0, "id": "104485", "name": "Candacia tenuimana", "sprite": "sp-anchoviella_juruasanga.png", "group": "other", "rarity": 1}, {"lat": 16.5814, "lng": 166.4718, "id": "125278", "name": "Primnoidae", "sprite": "sp-actiniidae.png", "group": "coral", "rarity": 1}, {"lat": 16.5815, "lng": 166.4718, "id": "169507", "name": "Stelodoryx", "sprite": "sp-barrel_sponge.png", "group": "sponge", "rarity": 1}, {"lat": 16.0, "lng": 166.0, "id": "104299", "name": "Euchirella curticauda", "sprite": "sp-anchoviella_juruasanga.png", "group": "other", "rarity": 1}, {"lat": 15.1667, "lng": 167.2332, "id": "135092", "name": "Deltocyathus", "sprite": "sp-actiniidae.png", "group": "coral", "rarity": 1}, {"lat": 14.5, "lng": 166.5, "id": "137209", "name": "Dermochelys coriacea", "sprite": "sp-green_sea_turtle.png", "group": "sea_turtle", "rarity": 1}, {"lat": 16.5815, "lng": 166.4719, "id": "267854", "name": "Stauropathes", "sprite": "sp-actiniidae.png", "group": "coral", "rarity": 1}, {"lat": 16.5815, "lng": 166.472, "id": "131658", "name": "Myxillidae", "sprite": "sp-barrel_sponge.png", "group": "sponge", "rarity": 1}, {"lat": 16.0, "lng": 166.0, "id": "104643", "name": "Pleuromamma xiphias", "sprite": "sp-anchoviella_juruasanga.png", "group": "other", "rarity": 1}, {"lat": 16.5813, "lng": 166.4719, "id": "171836", "name": "Bolosominae", "sprite": "sp-barrel_sponge.png", "group": "sponge", "rarity": 1}, {"lat": 16.5815, "lng": 166.4718, "id": "132112", "name": "Caulophacus", "sprite": "sp-barrel_sponge.png", "group": "sponge", "rarity": 1}, {"lat": 16.0, "lng": 166.0, "id": "104546", "name": "Subeucalanus mucronatus", "sprite": "sp-anchoviella_juruasanga.png", "group": "other", "rarity": 1}, {"lat": 16.5816, "lng": 166.4717, "id": "759254", "name": "Eknomisis", "sprite": "sp-actiniidae.png", "group": "coral", "rarity": 1}, {"lat": 16.5802, "lng": 166.4721, "id": "171848", "name": "Corbitellinae", "sprite": "sp-barrel_sponge.png", "group": "sponge", "rarity": 1}, {"lat": 15.4889, "lng": 167.1422, "id": "216890", "name": "Staphylaea staphylaea", "sprite": "sp-cowrie_shell.png", "group": "sea_snail", "rarity": 1}, {"lat": 16.5803, "lng": 166.4721, "id": "131692", "name": "Euplectellidae", "sprite": "sp-barrel_sponge.png", "group": "sponge", "rarity": 1}, {"lat": 16.5814, "lng": 166.4719, "id": "172042", "name": "Caulophacus (Caulodiscus)", "sprite": "sp-barrel_sponge.png", "group": "sponge", "rarity": 1}, {"lat": 15.1667, "lng": 167.2333, "id": "287022", "name": "Flabellum (Flabellum) pavoninum", "sprite": "sp-actiniidae.png", "group": "coral", "rarity": 1}, {"lat": 15.542, "lng": 167.2733, "id": "345850", "name": "Spring Chromis", "thumb": "tn_Chear_u0.jpg", "sprite": "sp-chrysiptera_caesifrons.png", "group": "clownfish", "rarity": 1, "waterType": "Saltwater"}, {"lat": 16.0, "lng": 166.0, "id": "596242", "name": "Pleuromamma abdominalis abdominalis", "sprite": "sp-anchoviella_juruasanga.png", "group": "other", "rarity": 1}, {"lat": 16.0, "lng": 166.0, "id": "345779", "name": "Disseta palumbii", "sprite": "sp-anchoviella_juruasanga.png", "group": "other", "rarity": 1}]}