{"zoom": 7, "x": 123, "y": 70, "points": [{"lat": -17.5494, "lng": 168.2527, "id": "507829", "name": "Pitar prora", "sprite": "sp-blue_mussel.png", "group": "clam_mussel", "rarity": 1}, {"lat": -17.5, "lng": 167.5, "id": "713303", "name": "Doederlein's cardinalfish", "thumb": "tn_Apdoe_u0.jpg", "sprite": "sp-anchoviella_juruasanga.png", "group": "other", "rarity": 1, "waterType": "Saltwater"}, {"lat": -17.733, "lng": 168.3, "id": "459085", "name": "Drupa morum", "sprite": "sp-cowrie_shell.png", "group": "sea_snail", "rarity": 1}, {"lat": -17.456, "lng": 168.3253, "id": "277820", "name": "Manybar goatfish", "thumb": "tn_Pamul_u1.jpg", "sprite": "sp-anchoviella_juruasanga.png", "group": "other", "rarity": 1, "waterType": "Saltwater"}, {"lat": -16.787, "lng": 168.36, "id": "218096", "name": "Hairy scorpionfish", "thumb": "tn_Schir_u1.jpg", "sprite": "sp-parascorpaena_moultoni.png", "group": "scorpionfish", "rarity": 1, "waterType": "Saltwater"}, {"lat": -17.4836, "lng": 168.3778, "id": "219630", "name": "Convict surgeonfish", "thumb": "tn_Actri_u9.jpg", "sprite": "sp-acanthurus_albimento.png", "group": "surgeonfish", "rarity": 1, "waterType": "Saltwater"}, {"lat": -16.8272, "lng": 168.5033, "id": "213115", "name": "Luidia avicularia", "sprite": "sp-sea_cucumber.png", "group": "starfish", "rarity": 1}, {"lat": -17.7659, "lng": 168.272, "id": "456411", "name": "Euplica", "sprite": "sp-cowrie_shell.png", "group": "sea_snail", "rarity": 1}, {"lat": -18.06, "lng": 167.19, "id": "412931", "name": "Euchitonia", "sprite": "sp-anchoviella_juruasanga.png", "group": "other", "rarity": 1}, {"lat": -17.3956, "lng": 167.9026, "id": "219014", "name": "Bluestreak cleaner wrasse", "thumb": "tn_Ladim_u2.jpg", "sprite": "sp-cleaner_wrasse.png", "group": "wrasse", "rarity": 1, "waterType": "Saltwater"}, {"lat": -17.3493, "lng": 167.958, "id": "217662", "name": "Gracile lizardfish", "thumb": "tn_Bagra_u3.jpg", "sprite": "sp-anchoviella_juruasanga.png", "group": "other", "rarity": 1, "waterType": "Saltwater"}, {"lat": -17.5596, "lng": 167.6837, "id": "1592293", "name": "Pycnochromis agilis", "sprite": "sp-chrysiptera_caesifrons.png", "group": "clownfish", "rarity": 1}, {"lat": -17.0023, "lng": 168.3118, "id": "205799", "name": "Trimma", "sprite": "sp-eviota_bipunctata.png", "group": "goby", "rarity": 1}, {"lat": -17.6512, "lng": 168.4446, "id": "125541", "name": "Labridae", "sprite": "sp-cleaner_wrasse.png", "group": "wrasse", "rarity": 1}, {"lat": -17.8231, "lng": 168.4167, "id": "219285", "name": "Sea blenny", "thumb": "tn_Entha_u3.jpg", "sprite": "sp-helcogramma_ascensionis.png", "group": "blenny", "rarity": 1, "waterType": "Saltwater"}, {"lat": -17.8333, "lng": 168.65, "id": "139700", "name": "Cycloscala hyalina", "sprite": "sp-cowrie_shell.png", "group": "sea_snail", "rarity": 1}, {"lat": -17.7833, "lng": 168.2833, "id": "216892", "name": "Staphylaea limacina", "sprite": "sp-cowrie_shell.png", "group": "sea_snail", "rarity": 1}, {"lat": -17.7728, "lng": 168.2916, "id": "215729", "name": "Nassarius globosus", "sprite": "sp-cowrie_shell.png", "group": "sea_snail", "rarity": 1}, {"lat": -17.551, "lng": 168.2478, "id": "138598", "name": "Trochus", "sprite": "sp-cowrie_shell.png", "group": "sea_snail", "rarity": 1}, {"lat": -17.2107, "lng": 168.1742, "id": "718605", "name": "Aliculastrum cylindricum", "sprite": "sp-cowrie_shell.png", "group": "sea_snail", "rarity": 1}, {"lat": -17.7437, "lng": 168.2897, "id": "527899", "name": "Purpuradusta microdon", "sprite": "sp-cowrie_shell.png", "group": "sea_snail", "rarity": 1}, {"lat": -17.5, "lng": 167.5, "id": "126371", "name": "Brushtooth lizardfish", "thumb": "tn_Saund_u0.jpg", "sprite": "sp-anchoviella_juruasanga.png", "group": "other", "rarity": 1, "waterType": "Saltwater"}, {"lat": -16.8383, "lng": 168.4707, "id": "151475", "name": "Cirrhitidae", "sprite": "sp-anchoviella_juruasanga.png", "group": "other", "rarity": 1}, {"lat": -17.75, "lng": 168.333, "id": "217062", "name": "Pollia fumosa", "sprite": "sp-cowrie_shell.png", "group": "sea_snail", "rarity": 1}, {"lat": -17.5498, "lng": 168.2529, "id": "381510", "name": "Fragum unedo", "sprite": "sp-blue_mussel.png", "group": "clam_mussel", "rarity": 1}, {"lat": -16.964, "lng": 168.4455, "id": "125634", "name": "Anarchias", "sprite": "sp-anarchias.png", "group": "moray", "rarity": 1}, {"lat": -17.75, "lng": 168.3, "id": "758235", "name": "Dipsastraea laxa", "sprite": "sp-actiniidae.png", "group": "coral", "rarity": 1}, {"lat": -17.73, "lng": 168.28, "id": "212378", "name": "Ophiocoma scolopendrina", "sprite": "sp-sea_cucumber.png", "group": "starfish", "rarity": 1}, {"lat": -17.7413, "lng": 168.275, "id": "367639", "name": "Angaria delphinus", "sprite": "sp-cowrie_shell.png", "group": "sea_snail", "rarity": 1}, {"lat": -17.055, "lng": 168.3619, "id": "219546", "name": "Ghost goby", "thumb": "tn_Plmus_u1.jpg", "sprite": "sp-eviota_bipunctata.png", "group": "goby", "rarity": 1, "waterType": "Saltwater"}, {"lat": -17.666, "lng": 168.416, "id": "148", "name": "Muricidae", "sprite": "sp-cowrie_shell.png", "group": "sea_snail", "rarity": 1}, {"lat": -17.7108, "lng": 168.2816, "id": "219624", "name": "Whitebar surgeonfish", "thumb": "tn_Acleu_um.jpg", "sprite": "sp-acanthurus_albimento.png", "group": "surgeonfish", "rarity": 1, "waterType": "Saltwater"}, {"lat": -17.88, "lng": 168.4367, "id": "392234", "name": "Galathea inconspicua", "sprite": "sp-american_lobster.png", "group": "crab_lobster", "rarity": 1}, {"lat": -17.7415, "lng": 168.3165, "id": "217065", "name": "Pollia undosa", "sprite": "sp-cowrie_shell.png", "group": "sea_snail", "rarity": 1}, {"lat": -17.5704, "lng": 168.2221, "id": "272958", "name": "Whitefin surgeonfish", "thumb": "tn_Acalb_u0.jpg", "sprite": "sp-acanthurus_albimento.png", "group": "surgeonfish", "rarity": 1, "waterType": "Saltwater"}, {"lat": -17.733, "lng": 168.3, "id": "507273", "name": "Leptomya psittacus", "sprite": "sp-blue_mussel.png", "group": "clam_mussel", "rarity": 1}, {"lat": -17.71, "lng": 168.61, "id": "408913", "name": "Gonodactylellus rubriguttatus", "sprite": "sp-american_lobster.png", "group": "crab_lobster", "rarity": 1}, {"lat": -17.5, "lng": 167.5, "id": "272101", "name": "Uncisudis advena", "sprite": "sp-anchoviella_juruasanga.png", "group": "other", "rarity": 1, "waterType": "Saltwater"}, {"lat": -17.75, "lng": 168.333, "id": "506716", "name": "Dendostrea folium", "sprite": "sp-blue_mussel.png", "group": "clam_mussel", "rarity": 1}, {"lat": -17.8317, "lng": 168.192, "id": "741752", "name": "Cylichnium ancillarioides", "sprite": "sp-cowrie_shell.png", "group": "sea_snail", "rarity": 1}, {"lat": -17.4178, "lng": 168.2069, "id": "170406", "name": "Neamphius huxleyi", "sprite": "sp-barrel_sponge.png", "group": "sponge", "rarity": 1}, {"lat": -17.4051, "lng": 168.2366, "id": "218173", "name": "Arrowhead soapfish", "thumb": "tn_Becha_u7.jpg", "sprite": "sp-chelidoperca_santosi.png", "group": "grouper", "rarity": 1, "waterType": "Saltwater"}, {"lat": -17.81, "lng": 168.4733, "id": "270498", "name": "Praealticus", "sprite": "sp-helcogramma_ascensionis.png", "group": "blenny", "rarity": 1}, {"lat": -17.7494, "lng": 168.3286, "id": "216598", "name": "Timoclea marica", "sprite": "sp-blue_mussel.png", "group": "clam_mussel", "rarity": 1}, {"lat": -17.5779, "lng": 167.7496, "id": "217968", "name": "Razorfish", "thumb": "tn_Aestr_u1.jpg", "sprite": "sp-anchoviella_juruasanga.png", "group": "other", "rarity": 1, "waterType": "Saltwater"}, {"lat": -17.072, "lng": 168.0211, "id": "275752", "name": "Red-lined wrasse", "thumb": "tn_Habio_u2.jpg", "sprite": "sp-cleaner_wrasse.png", "group": "wrasse", "rarity": 1, "waterType": "Saltwater"}, {"lat": -17.0139, "lng": 168.2763, "id": "277948", "name": "Brown spotted snake moray", "thumb": "tn_Urfus_u0.jpg", "sprite": "sp-anarchias.png", "group": "moray", "rarity": 1, "waterType": "Saltwater"}, {"lat": -17.5939, "lng": 168.2604, "id": "275804", "name": "Threespot wrasse", "thumb": "tn_Hatri_m0.jpg", "sprite": "sp-cleaner_wrasse.png", "group": "wrasse", "rarity": 1, "waterType": "Saltwater"}, {"lat": -17.1358, "lng": 168.3883, "id": "279247", "name": "Rhinocerus triplefin", "thumb": "tn_Herhi_u0.jpg", "sprite": "sp-helcogramma_ascensionis.png", "group": "blenny", "rarity": 1, "waterType": "Saltwater"}, {"lat": -17.5, "lng": 167.5, "id": "1043439", "name": "Lea's cardinalfish", "thumb": "tn_Arlea_u1.jpg", "sprite": "sp-anchoviella_juruasanga.png", "group": "other", "rarity": 1, "waterType": "Saltwater"}, {"lat": -17.1887, "lng": 168.0661, "id": "218100", "name": "Lowfin scorpionfish", "thumb": "tn_Scpar_u8.jpg", "sprite": "sp-parascorpaena_moultoni.png", "group": "scorpionfish", "rarity": 1, "waterType": "Saltwater"}, {"lat": -17.5, "lng": 167.5, "id": "278886", "name": "Callogobius snelliusi", "thumb": "tn_Casne_u0.jpg", "sprite": "sp-eviota_bipunctata.png", "group": "goby", "rarity": 1, "waterType": "Saltwater"}, {"lat": -17.5, "lng": 167.5, "id": "344662", "name": "Hector's goby", "thumb": "tn_Amhec_u1.jpg", "sprite": "sp-eviota_bipunctata.png", "group": "goby", "rarity": 1, "waterType": "Saltwater"}, {"lat": -18.06, "lng": 167.19, "id": "412949", "name": "Spongotrochus glacialis", "sprite": "sp-anchoviella_juruasanga.png", "group": "other", "rarity": 1}, {"lat": -17.6942, "lng": 168.1695, "id": "280079", "name": "Helen's Triplefin", "sprite": "sp-helcogramma_ascensionis.png", "group": "blenny", "rarity": 1, "waterType": "Saltwater"}, {"lat": -17.75, "lng": 168.3, "id": "276862", "name": "Estuarine stonefish", "thumb": "tn_Syhor_u3.jpg", "sprite": "sp-anchoviella_juruasanga.png", "group": "other", "rarity": 1, "waterType": "Brackish"}, {"lat": -16.8473, "lng": 168.445, "id": "279230", "name": "Little hooded triplefin", "thumb": "tn_Hechi_u1.jpg", "sprite": "sp-helcogramma_ascensionis.png", "group": "blenny", "rarity": 1, "waterType": "Saltwater"}, {"lat": -17.75, "lng": 168.3, "id": "125551", "name": "Polynemidae", "sprite": "sp-anchoviella_juruasanga.png", "group": "other", "rarity": 1}, {"lat": -17.5, "lng": 167.5, "id": "218193", "name": "Humpback grouper", "thumb": "tn_Cralt_u1.jpg", "sprite": "sp-chelidoperca_santosi.png", "group": "grouper", "rarity": 1, "waterType": "Saltwater"}, {"lat": -17.5526, "lng": 168.264, "id": "219665", "name": "Orangespine unicornfish", "thumb": "tn_Nalit_u9.jpg", "sprite": "sp-acanthurus_albimento.png", "group": "surgeonfish", "rarity": 1, "waterType": "Saltwater"}, {"lat": -17.6864, "lng": 168.3865, "id": "209403", "name": "Variegated cardinalfish", "thumb": "tn_Fovar_u2.jpg", "sprite": "sp-anchoviella_juruasanga.png", "group": "other", "rarity": 1, "waterType": "Saltwater"}, {"lat": -17.666, "lng": 168.416, "id": "398507", "name": "Multi-barred cardinalfish", "thumb": "tn_Nelux_u0.jpg", "sprite": "sp-anchoviella_juruasanga.png", "group": "other", "rarity": 1, "waterType": "Saltwater"}, {"lat": -17.7347, "lng": 168.295, "id": "216714", "name": "Clypeomorus brevis", "sprite": "sp-cowrie_shell.png", "group": "sea_snail", "rarity": 1}, {"lat": -17.0778, "lng": 168.2539, "id": "220251", "name": "Aristeus virilis", "sprite": "sp-american_lobster.png", "group": "crab_lobster", "rarity": 1}, {"lat": -17.055, "lng": 168.3619, "id": "279018", "name": "Bownband perchlet", "thumb": "tn_Plnan_u0.jpg", "sprite": "sp-chelidoperca_santosi.png", "group": "grouper", "rarity": 1, "waterType": "Saltwater"}, {"lat": -16.8675, "lng": 168.5175, "id": "218113", "name": "Darkspotted scorpionfish", "thumb": "tn_Setin_u4.jpg", "sprite": "sp-parascorpaena_moultoni.png", "group": "scorpionfish", "rarity": 1, "waterType": "Saltwater"}, {"lat": -17.5, "lng": 167.5, "id": "279762", "name": "Blue devilfish", "thumb": "tn_Asmac_u3.jpg", "sprite": "sp-anchoviella_juruasanga.png", "group": "other", "rarity": 1, "waterType": "Saltwater"}, {"lat": -17.6852, "lng": 168.3104, "id": "560158", "name": "Nassarius callospira", "sprite": "sp-cowrie_shell.png", "group": "sea_snail", "rarity": 1}, {"lat": -17.3312, "lng": 168.3569, "id": "383262", "name": "Calliotectum egregium", "sprite": "sp-cowrie_shell.png", "group": "sea_snail", "rarity": 1}, {"lat": -17.733, "lng": 168.2915, "id": "570022", "name": "Tectonatica robillardi", "sprite": "sp-cowrie_shell.png", "group": "sea_snail", "rarity": 1}, {"lat": -17.5, "lng": 167.5, "id": "219622", "name": "Blackfin dartfish", "thumb": "tn_Ptevi_u8.jpg", "sprite": "sp-anchoviella_juruasanga.png", "group": "other", "rarity": 1, "waterType": "Saltwater"}, {"lat": -18.06, "lng": 167.19, "id": "493480", "name": "Collosphaera confossa", "sprite": "sp-anchoviella_juruasanga.png", "group": "other", "rarity": 1}, {"lat": -17.5253, "lng": 168.3666, "id": "218706", "name": "Brassy chub", "thumb": "tn_Kyvai_u6.jpg", "sprite": "sp-anchoviella_juruasanga.png", "group": "other", "rarity": 1, "waterType": "Saltwater"}, {"lat": -17.6991, "lng": 168.3586, "id": "216877", "name": "Palmadusta ziczac", "sprite": "sp-cowrie_shell.png", "group": "sea_snail", "rarity": 1}, {"lat": -17.733, "lng": 168.3, "id": "394000", "name": "Serratovola gardineri", "sprite": "sp-blue_mussel.png", "group": "clam_mussel", "rarity": 1}, {"lat": -17.8333, "lng": 168.65, "id": "220352", "name": "Two-spine triangular batfish", "thumb": "tn_Mamit_u0.jpg", "sprite": "sp-deep_sea_anglerfish.png", "group": "anglerfish", "rarity": 1, "waterType": "Saltwater"}, {"lat": -17.5, "lng": 167.5, "id": "1509596", "name": "Otomebora mullet", "thumb": "tn_Limel_u1.gif", "sprite": "sp-anchoviella_juruasanga.png", "group": "other", "rarity": 1, "waterType": "Brackish"}, {"lat": -17.6953, "lng": 168.5104, "id": "707659", "name": "Pythia scarabaeus", "sprite": "sp-cowrie_shell.png", "group": "sea_snail", "rarity": 1}, {"lat": -16.6463, "lng": 167.8693, "id": "283978", "name": "Stichopathes semiglabra", "sprite": "sp-actiniidae.png", "group": "coral", "rarity": 1}, {"lat": -18.06, "lng": 167.19, "id": "493630", "name": "Cycladophora bicornis", "sprite": "sp-anchoviella_juruasanga.png", "group": "other", "rarity": 1}, {"lat": -17.5, "lng": 167.5, "id": "712424", "name": "Ophichthus microstictus", "sprite": "sp-electric_eel.png", "group": "eel", "rarity": 1, "waterType": "Saltwater"}, {"lat": -17.6645, "lng": 168.1808, "id": "470231", "name": "Reteporellina babelensis", "sprite": "sp-anchoviella_juruasanga.png", "group": "other", "rarity": 1}, {"lat": -17.8063, "lng": 168.3758, "id": "123093", "name": "Comatulida", "sprite": "sp-sea_cucumber.png", "group": "starfish", "rarity": 1}, {"lat": -17.9, "lng": 168.67, "id": "392205", "name": "Enriquea leviantennata", "sprite": "sp-american_lobster.png", "group": "crab_lobster", "rarity": 1}, {"lat": -17.7478, "lng": 168.3219, "id": "106687", "name": "Paguroidea", "sprite": "sp-american_lobster.png", "group": "crab_lobster", "rarity": 1}, {"lat": -18.06, "lng": 167.19, "id": "412942", "name": "Stylodictya validispina", "sprite": "sp-anchoviella_juruasanga.png", "group": "other", "rarity": 1}, {"lat": -18.06, "lng": 167.19, "id": "367330", "name": "Trissocyclidae", "sprite": "sp-anchoviella_juruasanga.png", "group": "other", "rarity": 1}, {"lat": -17.7482, "lng": 168.2965, "id": "207654", "name": "Haliotis varia", "sprite": "sp-cowrie_shell.png", "group": "sea_snail", "rarity": 1}, {"lat": -17.3485, "lng": 168.1576, "id": "273353", "name": "Sunset butterflyfish", "thumb": "tn_Chpel_u5.jpg", "sprite": "sp-chaetodon.png", "group": "butterflyfish", "rarity": 1, "waterType": "Saltwater"}, {"lat": -16.6463, "lng": 167.8693, "id": "392219", "name": "Galathea amamiensis", "sprite": "sp-american_lobster.png", "group": "crab_lobster", "rarity": 1}, {"lat": -17.5, "lng": 167.5, "id": "218035", "name": "Alligator pipefish", "thumb": "tn_Sybia_m0.jpg", "sprite": "sp-cosmocampus_coccineus.png", "group": "seahorse", "rarity": 1, "waterType": "Saltwater"}, {"lat": -17.733, "lng": 168.3, "id": "594631", "name": "Haurakia", "sprite": "sp-cowrie_shell.png", "group": "sea_snail", "rarity": 1}, {"lat": -17.1585, "lng": 167.9345, "id": "212971", "name": "Whitetail damsel", "thumb": "tn_Pochr_u7.jpg", "sprite": "sp-chrysiptera_caesifrons.png", "group": "clownfish", "rarity": 1, "waterType": "Saltwater"}, {"lat": -17.5473, "lng": 167.951, "id": "218945", "name": "Humphead wrasse", "thumb": "tn_Chund_ua.jpg", "sprite": "sp-cleaner_wrasse.png", "group": "wrasse", "rarity": 1, "waterType": "Saltwater"}, {"lat": -16.65, "lng": 168.017, "id": "125862", "name": "Monomitopus", "sprite": "sp-anchoviella_juruasanga.png", "group": "other", "rarity": 1}, {"lat": -17.5, "lng": 167.5, "id": "276609", "name": "Neobythites bimarginatus", "sprite": "sp-anchoviella_juruasanga.png", "group": "other", "rarity": 1, "waterType": "Saltwater"}, {"lat": -17.1891, "lng": 167.7561, "id": "276902", "name": "Lord Howe Dottyback", "thumb": "tn_Pshow_u0.jpg", "sprite": "sp-anchoviella_juruasanga.png", "group": "other", "rarity": 1, "waterType": "Saltwater"}, {"lat": -17.867, "lng": 168.417, "id": "275292", "name": "Malayan deepsea boarfish", "sprite": "sp-anchoviella_juruasanga.png", "group": "other", "rarity": 1, "waterType": "Saltwater"}, {"lat": -16.7727, "lng": 168.1086, "id": "368082", "name": "Sympagurus symmetricus", "sprite": "sp-american_lobster.png", "group": "crab_lobster", "rarity": 1}, {"lat": -17.75, "lng": 168.3, "id": "212034", "name": "Tidepool snake moray", "thumb": "tn_Urmic_u0.jpg", "sprite": "sp-anarchias.png", "group": "moray", "rarity": 1, "waterType": "Brackish"}, {"lat": -17.7474, "lng": 168.123, "id": "1075005", "name": "Naria beckii", "sprite": "sp-cowrie_shell.png", "group": "sea_snail", "rarity": 1}, {"lat": -17.6645, "lng": 168.1808, "id": "165539", "name": "Dragmacidon australe", "sprite": "sp-barrel_sponge.png", "group": "sponge", "rarity": 1}, {"lat": -17.721, "lng": 168.2045, "id": "570658", "name": "Euthymella", "sprite": "sp-cowrie_shell.png", "group": "sea_snail", "rarity": 1}, {"lat": -17.7393, "lng": 168.2765, "id": "208638", "name": "Colubraria nitidula", "sprite": "sp-cowrie_shell.png", "group": "sea_snail", "rarity": 1}, {"lat": -17.5, "lng": 167.5, "id": "220089", "name": "Deep-water stingray", "thumb": "tn_Pldav_m0.jpg", "sprite": "sp-himantura_australis.png", "group": "ray", "rarity": 1, "waterType": "Saltwater"}, {"lat": -17.7245, "lng": 168.275, "id": "216921", "name": "Polinices flemingianus", "sprite": "sp-cowrie_shell.png", "group": "sea_snail", "rarity": 1}, {"lat": -17.5, "lng": 167.5, "id": "219459", "name": "Nebulous dwarfgoby", "thumb": "tn_Evneb_u1.jpg", "sprite": "sp-eviota_bipunctata.png", "group": "goby", "rarity": 1, "waterType": "Saltwater"}, {"lat": -17.3347, "lng": 168.0256, "id": "219535", "name": "Redhead goby", "thumb": "tn_Paech_f0.jpg", "sprite": "sp-eviota_bipunctata.png", "group": "goby", "rarity": 1, "waterType": "Saltwater"}, {"lat": -16.8109, "lng": 168.5025, "id": "389392", "name": "Danilia angulosa", "sprite": "sp-cowrie_shell.png", "group": "sea_snail", "rarity": 1}, {"lat": -18.17, "lng": 167.43, "id": "178180", "name": "Chaetoceros coarctatus", "sprite": "sp-anchoviella_juruasanga.png", "group": "other", "rarity": 1}, {"lat": -17.5, "lng": 167.5, "id": "126112", "name": "Cynoglossus", "sprite": "sp-atlantic_halibut.png", "group": "flatfish", "rarity": 1}, {"lat": -17.902, "lng": 168.7001, "id": "290316", "name": "Lochmaeotrochus gardineri", "sprite": "sp-actiniidae.png", "group": "coral", "rarity": 1}, {"lat": -16.9083, "lng": 168.3395, "id": "741795", "name": "Pyrunculus pyriformis", "sprite": "sp-cowrie_shell.png", "group": "sea_snail", "rarity": 1}, {"lat": -18.17, "lng": 167.43, "id": "163249", "name": "Hemiaulus hauckii", "sprite": "sp-anchoviella_juruasanga.png", "group": "other", "rarity": 1}, {"lat": -17.5267, "lng": 168.3486, "id": "219638", "name": "Whitecheek surgeonfish", "thumb": "tn_Acnig_u0.jpg", "sprite": "sp-acanthurus_albimento.png", "group": "surgeonfish", "rarity": 1, "waterType": "Saltwater"}, {"lat": -17.666, "lng": 168.416, "id": "447359", "name": "Oxymeris maculata", "sprite": "sp-cowrie_shell.png", "group": "sea_snail", "rarity": 1}, {"lat": -17.5, "lng": 167.5, "id": "272688", "name": "Regan's lanternfish", "thumb": "tn_Direg_u0.jpg", "sprite": "sp-anchoviella_juruasanga.png", "group": "other", "rarity": 1, "waterType": "Saltwater"}, {"lat": -17.8044, "lng": 168.5025, "id": "278563", "name": "Dashed-line blenny", "thumb": "tn_Blint_m0.jpg", "sprite": "sp-helcogramma_ascensionis.png", "group": "blenny", "rarity": 1, "waterType": "Saltwater"}, {"lat": -17.75, "lng": 168.3, "id": "126848", "name": "Live sharksucker", "thumb": "tn_Rerem_u5.jpg", "sprite": "sp-anchoviella_juruasanga.png", "group": "other", "rarity": 1, "waterType": "Brackish"}, {"lat": -17.4834, "lng": 168.2753, "id": "125686", "name": "Synodus", "sprite": "sp-anchoviella_juruasanga.png", "group": "other", "rarity": 1}]}