{"zoom": 7, "x": 123, "y": 82, "points": [{"lat": -46.0364, "lng": 167.0644, "id": "382879", "name": "Jasus edwardsii", "sprite": "sp-american_lobster.png", "group": "crab_lobster", "rarity": 1}, {"lat": -46.6329, "lng": 168.0588, "id": "445370", "name": "Haliotis virginea virginea", "sprite": "sp-cowrie_shell.png", "group": "sea_snail", "rarity": 1}, {"lat": -46.0352, "lng": 167.7071, "id": "391489", "name": "Sigapatella", "sprite": "sp-cowrie_shell.png", "group": "sea_snail", "rarity": 1}, {"lat": -45.6497, "lng": 167.0844, "id": "504266", "name": "Monia zelandica", "sprite": "sp-blue_mussel.png", "group": "clam_mussel", "rarity": 1}, {"lat": -46.5457, "lng": 168.1177, "id": "145309", "name": "Desmarestia ligulata", "sprite": "sp-anchoviella_juruasanga.png", "group": "other", "rarity": 1}, {"lat": -46.8003, "lng": 168.2104, "id": "724145", "name": "Rhyssoplax aerea", "sprite": "sp-anchoviella_juruasanga.png", "group": "other", "rarity": 1}, {"lat": -46.5842, "lng": 167.6162, "id": "106738", "name": "Paguridae", "sprite": "sp-american_lobster.png", "group": "crab_lobster", "rarity": 1}, {"lat": -46.435, "lng": 167.6067, "id": "256616", "name": "Eurydice subtruncata", "sprite": "sp-american_lobster.png", "group": "crab_lobster", "rarity": 1}, {"lat": -46.8526, "lng": 166.6972, "id": "465930", "name": "Dyocibicides", "sprite": "sp-anchoviella_juruasanga.png", "group": "other", "rarity": 1}, {"lat": -46.625, "lng": 168.22, "id": "470868", "name": "Disporella novaehollandiae", "sprite": "sp-anchoviella_juruasanga.png", "group": "other", "rarity": 1}, {"lat": -46.6875, "lng": 168.0159, "id": "573181", "name": "Tetrocycloecia neozelanica", "sprite": "sp-anchoviella_juruasanga.png", "group": "other", "rarity": 1}, {"lat": -46.8335, "lng": 167.9146, "id": "567471", "name": "Stercorarius antarcticus", "sprite": "sp-anchoviella_juruasanga.png", "group": "other", "rarity": 1}, {"lat": -46.9798, "lng": 168.1128, "id": "240621", "name": "Glycinde trifida", "sprite": "sp-anchoviella_juruasanga.png", "group": "other", "rarity": 1}, {"lat": -46.7783, "lng": 168.67, "id": "344701", "name": "Neocalanus tonsus", "sprite": "sp-anchoviella_juruasanga.png", "group": "other", "rarity": 1}, {"lat": -46.5359, "lng": 166.4747, "id": "279994", "name": "Smooth deep-sea skate", "sprite": "sp-himantura_australis.png", "group": "ray", "rarity": 1, "waterType": "Saltwater"}, {"lat": -46.9033, "lng": 168.1541, "id": "237055", "name": "Torridoharpinia hurleyi", "sprite": "sp-american_lobster.png", "group": "crab_lobster", "rarity": 1}, {"lat": -45.6908, "lng": 166.8672, "id": "466432", "name": "Patellinella inconspicua", "sprite": "sp-anchoviella_juruasanga.png", "group": "other", "rarity": 1}, {"lat": -45.5733, "lng": 166.6517, "id": "469777", "name": "Carbasea indivisa", "sprite": "sp-anchoviella_juruasanga.png", "group": "other", "rarity": 1}, {"lat": -46.9333, "lng": 168.1833, "id": "876685", "name": "Micrelenchus tessellatus", "sprite": "sp-cowrie_shell.png", "group": "sea_snail", "rarity": 1}, {"lat": -46.584, "lng": 168.1117, "id": "117588", "name": "Halecium delicatulum", "sprite": "sp-anchoviella_juruasanga.png", "group": "other", "rarity": 1}, {"lat": -46.4372, "lng": 166.3679, "id": "712800", "name": "Kathetostoma binigrasella", "sprite": "sp-anchoviella_juruasanga.png", "group": "other", "rarity": 1, "waterType": "Saltwater"}, {"lat": -45.0908, "lng": 168.5475, "id": "829630", "name": "Panopea worthingtoni", "sprite": "sp-blue_mussel.png", "group": "clam_mussel", "rarity": 1}, {"lat": -46.625, "lng": 166.7367, "id": "123298", "name": "Mediaster", "sprite": "sp-sea_cucumber.png", "group": "starfish", "rarity": 1}, {"lat": -46.0377, "lng": 166.408, "id": "469390", "name": "Caberea solida", "sprite": "sp-anchoviella_juruasanga.png", "group": "other", "rarity": 1}, {"lat": -46.0877, "lng": 167.7654, "id": "137618", "name": "Acteon", "sprite": "sp-cowrie_shell.png", "group": "sea_snail", "rarity": 1}, {"lat": -46.4654, "lng": 167.7455, "id": "290540", "name": "Oulactis muscosa", "sprite": "sp-actiniidae.png", "group": "coral", "rarity": 1}, {"lat": -46.7938, "lng": 167.9116, "id": "514967", "name": "Alpheus socialis", "sprite": "sp-american_lobster.png", "group": "crab_lobster", "rarity": 1}, {"lat": -46.0509, "lng": 167.7114, "id": "832835", "name": "Magnatica harrisensis", "sprite": "sp-cowrie_shell.png", "group": "sea_snail", "rarity": 1}, {"lat": -46.7789, "lng": 167.8331, "id": "873253", "name": "Zemysina globus", "sprite": "sp-blue_mussel.png", "group": "clam_mussel", "rarity": 1}, {"lat": -46.9359, "lng": 167.9836, "id": "325567", "name": "Scytothamnus fasciculatus", "sprite": "sp-anchoviella_juruasanga.png", "group": "other", "rarity": 1}, {"lat": -45.588, "lng": 166.639, "id": "505206", "name": "Perrierina perstriata", "sprite": "sp-blue_mussel.png", "group": "clam_mussel", "rarity": 1}, {"lat": -46.4783, "lng": 166.2383, "id": "244253", "name": "Ophiozonoida parva", "sprite": "sp-sea_cucumber.png", "group": "starfish", "rarity": 1}, {"lat": -46.4584, "lng": 166.1041, "id": "101376", "name": "Corophiidae", "sprite": "sp-american_lobster.png", "group": "crab_lobster", "rarity": 1}, {"lat": -46.0333, "lng": 167.7, "id": "138158", "name": "Mactra", "sprite": "sp-blue_mussel.png", "group": "clam_mussel", "rarity": 1}, {"lat": -46.9433, "lng": 168.3667, "id": "125573", "name": "Uranoscopidae", "sprite": "sp-anchoviella_juruasanga.png", "group": "other", "rarity": 1}, {"lat": -46.6568, "lng": 167.9227, "id": "468597", "name": "Telopora", "sprite": "sp-anchoviella_juruasanga.png", "group": "other", "rarity": 1}, {"lat": -46.5833, "lng": 167.9584, "id": "1410750", "name": "Desmediaperoecia biduplicata", "sprite": "sp-anchoviella_juruasanga.png", "group": "other", "rarity": 1}, {"lat": -46.0509, "lng": 167.7114, "id": "830084", "name": "Parvamussium vafer", "sprite": "sp-blue_mussel.png", "group": "clam_mussel", "rarity": 1}, {"lat": -46.7129, "lng": 166.4688, "id": "509196", "name": "Neolithodes brodiei", "sprite": "sp-american_lobster.png", "group": "crab_lobster", "rarity": 1}, {"lat": -46.5022, "lng": 167.1539, "id": "883", "name": "Polychaeta", "sprite": "sp-anchoviella_juruasanga.png", "group": "other", "rarity": 1}, {"lat": -46.4751, "lng": 167.5059, "id": "146142", "name": "Bryozoa", "sprite": "sp-anchoviella_juruasanga.png", "group": "other", "rarity": 1}, {"lat": -46.6347, "lng": 167.0467, "id": "273146", "name": "Southern rays bream", "thumb": "tn_Braus_u0.jpg", "sprite": "sp-anchoviella_juruasanga.png", "group": "other", "rarity": 1, "waterType": "Saltwater"}, {"lat": -46.6528, "lng": 166.5123, "id": "225825", "name": "Pholidoteuthis", "sprite": "sp-giant_pacific_octopus.png", "group": "octopus_squid", "rarity": 1}, {"lat": -46.4882, "lng": 166.4309, "id": "100702", "name": "Cribrinopsis", "sprite": "sp-actiniidae.png", "group": "coral", "rarity": 1}, {"lat": -45.3333, "lng": 166.7833, "id": "468394", "name": "Otionellina affinis", "sprite": "sp-anchoviella_juruasanga.png", "group": "other", "rarity": 1}, {"lat": -46.4872, "lng": 167.6775, "id": "393589", "name": "Talochlamys dichroa", "sprite": "sp-blue_mussel.png", "group": "clam_mussel", "rarity": 1}, {"lat": -46.7553, "lng": 168.1355, "id": "546857", "name": "Diloma bicanaliculatum", "sprite": "sp-cowrie_shell.png", "group": "sea_snail", "rarity": 1}, {"lat": -46.5054, "lng": 167.0121, "id": "480219", "name": "Bolivina decussata", "sprite": "sp-anchoviella_juruasanga.png", "group": "other", "rarity": 1}, {"lat": -46.2295, "lng": 166.836, "id": "1337", "name": "Hydrozoa", "sprite": "sp-anchoviella_juruasanga.png", "group": "other", "rarity": 1}, {"lat": -46.6821, "lng": 168.1865, "id": "346431", "name": "Ranella australasia", "sprite": "sp-cowrie_shell.png", "group": "sea_snail", "rarity": 1}, {"lat": -46.4708, "lng": 168.1373, "id": "476466", "name": "Cabestana spengleri", "sprite": "sp-cowrie_shell.png", "group": "sea_snail", "rarity": 1}, {"lat": -45.995, "lng": 167.099, "id": "417827", "name": "Amphicoryna separans", "sprite": "sp-anchoviella_juruasanga.png", "group": "other", "rarity": 1}, {"lat": -46.8999, "lng": 168.1393, "id": "373459", "name": "Spatoglossum chapmanii", "sprite": "sp-anchoviella_juruasanga.png", "group": "other", "rarity": 1}, {"lat": -45.7834, "lng": 166.6428, "id": "251472", "name": "Synoicum occidentalis", "sprite": "sp-anchoviella_juruasanga.png", "group": "other", "rarity": 1}, {"lat": -46.4848, "lng": 168.1922, "id": "444780", "name": "Hemigrapsus sexdentatus", "sprite": "sp-american_lobster.png", "group": "crab_lobster", "rarity": 1}, {"lat": -46.766, "lng": 166.1537, "id": "154693", "name": "Malacosteinae", "sprite": "sp-anchoviella_juruasanga.png", "group": "other", "rarity": 1}, {"lat": -45.1505, "lng": 167.0822, "id": "118404", "name": "Natatolana", "sprite": "sp-american_lobster.png", "group": "crab_lobster", "rarity": 1}, {"lat": -46.5045, "lng": 166.4891, "id": "212651", "name": "Procellaria aequinoctialis", "sprite": "sp-anchoviella_juruasanga.png", "group": "other", "rarity": 1}, {"lat": -46.2399, "lng": 168.2345, "id": "225770", "name": "Puffinus tenuirostris", "sprite": "sp-anchoviella_juruasanga.png", "group": "other", "rarity": 1}, {"lat": -46.4379, "lng": 168.2302, "id": "467567", "name": "Conopeum oretiensis", "sprite": "sp-anchoviella_juruasanga.png", "group": "other", "rarity": 1}, {"lat": -46.758, "lng": 166.4899, "id": "217773", "name": "Ridge scaled rattail", "thumb": "tn_Macar_u0.jpg", "sprite": "sp-anchoviella_juruasanga.png", "group": "other", "rarity": 1, "waterType": "Saltwater"}, {"lat": -46.6738, "lng": 168.0487, "id": "506798", "name": "Myadora subrostrata", "sprite": "sp-blue_mussel.png", "group": "clam_mussel", "rarity": 1}, {"lat": -45.5733, "lng": 166.6517, "id": "573243", "name": "Lacerna styphelia", "sprite": "sp-anchoviella_juruasanga.png", "group": "other", "rarity": 1}, {"lat": -46.7072, "lng": 167.6762, "id": "298238", "name": "Draughtsboard shark", "thumb": "tn_Ceisa_u0.jpg", "sprite": "sp-great_white_shark.png", "group": "shark", "rarity": 1, "waterType": "Saltwater"}, {"lat": -46.0017, "lng": 166.6958, "id": "869782", "name": "Enixotrophon latus", "sprite": "sp-cowrie_shell.png", "group": "sea_snail", "rarity": 1}, {"lat": -46.5165, "lng": 168.35, "id": "138050", "name": "Haliotis", "sprite": "sp-cowrie_shell.png", "group": "sea_snail", "rarity": 1}, {"lat": -46.9076, "lng": 168.1444, "id": "143885", "name": "Erythroglossum", "sprite": "sp-anchoviella_juruasanga.png", "group": "other", "rarity": 1}, {"lat": -46.7644, "lng": 168.0174, "id": "598759", "name": "Lenitrophon convexus", "sprite": "sp-cowrie_shell.png", "group": "sea_snail", "rarity": 1}, {"lat": -45.2833, "lng": 167.01, "id": "131642", "name": "Raspailiidae", "sprite": "sp-barrel_sponge.png", "group": "sponge", "rarity": 1}, {"lat": -46.9076, "lng": 168.1444, "id": "373421", "name": "Cladophora colensoi", "sprite": "sp-anchoviella_juruasanga.png", "group": "other", "rarity": 1}, {"lat": -46.8899, "lng": 168.17, "id": "373539", "name": "Sarcodia grandifolia", "sprite": "sp-anchoviella_juruasanga.png", "group": "other", "rarity": 1}, {"lat": -46.0292, "lng": 167.7086, "id": "890253", "name": "Finlayola angulifera", "sprite": "sp-cowrie_shell.png", "group": "sea_snail", "rarity": 1}, {"lat": -46.0117, "lng": 166.9175, "id": "241954", "name": "Pannychia moseleyi", "sprite": "sp-sea_cucumber.png", "group": "starfish", "rarity": 1}, {"lat": -45.0908, "lng": 168.5475, "id": "127185", "name": "Rainbow trout", "thumb": "tn_Onmyk_f0.jpg", "sprite": "sp-atlantic_salmon.png", "group": "salmon_trout", "rarity": 1, "waterType": "Brackish"}, {"lat": -46.0292, "lng": 167.7086, "id": "831487", "name": "Gemmula clifdenensis", "sprite": "sp-cowrie_shell.png", "group": "sea_snail", "rarity": 1}, {"lat": -45.283, "lng": 166.85, "id": "598464", "name": "Eatoniella lampra", "sprite": "sp-cowrie_shell.png", "group": "sea_snail", "rarity": 1}, {"lat": -45.6665, "lng": 167.1779, "id": "280795", "name": "Yellow-and-black triplefin", "thumb": "tn_Fofla_f0.jpg", "sprite": "sp-helcogramma_ascensionis.png", "group": "blenny", "rarity": 1, "waterType": "Saltwater"}, {"lat": -46.0533, "lng": 166.7883, "id": "1361", "name": "Ceriantharia", "sprite": "sp-actiniidae.png", "group": "coral", "rarity": 1}, {"lat": -46.5492, "lng": 168.0771, "id": "373322", "name": "Hormosira banksii", "sprite": "sp-anchoviella_juruasanga.png", "group": "other", "rarity": 1}, {"lat": -45.2197, "lng": 166.9776, "id": "165527", "name": "Cymbastela", "sprite": "sp-barrel_sponge.png", "group": "sponge", "rarity": 1}, {"lat": -45.2303, "lng": 168.3716, "id": "1436391", "name": "Podiceps cristatus australis", "sprite": "sp-anchoviella_juruasanga.png", "group": "other", "rarity": 1}, {"lat": -46.3433, "lng": 167.0599, "id": "112564", "name": "Miliolinella subrotunda", "sprite": "sp-anchoviella_juruasanga.png", "group": "other", "rarity": 1}, {"lat": -46.4905, "lng": 166.7639, "id": "254690", "name": "Oridorsalis umbonatus", "sprite": "sp-anchoviella_juruasanga.png", "group": "other", "rarity": 1}, {"lat": -46.0292, "lng": 167.7086, "id": "830454", "name": "Dolicrossea clifdenensis", "sprite": "sp-cowrie_shell.png", "group": "sea_snail", "rarity": 1}, {"lat": -45.9563, "lng": 166.7856, "id": "282439", "name": "Scarlet wrasse", "thumb": "tn_Psmil_m0.jpg", "sprite": "sp-cleaner_wrasse.png", "group": "wrasse", "rarity": 1, "waterType": "Saltwater"}, {"lat": -46.7432, "lng": 167.7248, "id": "11782", "name": "Octopodidae", "sprite": "sp-giant_pacific_octopus.png", "group": "octopus_squid", "rarity": 1}, {"lat": -46.7931, "lng": 166.5635, "id": "271420", "name": "Pacific spookfish", "thumb": "tn_Rhpac_u0.jpg", "sprite": "sp-anchoviella_juruasanga.png", "group": "other", "rarity": 1, "waterType": "Saltwater"}, {"lat": -47.0, "lng": 167.85, "id": "100696", "name": "Anthopleura", "sprite": "sp-actiniidae.png", "group": "coral", "rarity": 1}, {"lat": -45.7585, "lng": 166.9233, "id": "466009", "name": "Rotaliammina sigmoidea", "sprite": "sp-anchoviella_juruasanga.png", "group": "other", "rarity": 1}, {"lat": -46.5917, "lng": 166.7417, "id": "472063", "name": "Onchoporoides moseleyi", "sprite": "sp-anchoviella_juruasanga.png", "group": "other", "rarity": 1}, {"lat": -46.74, "lng": 168.22, "id": "441754", "name": "Elamena momona", "sprite": "sp-american_lobster.png", "group": "crab_lobster", "rarity": 1}, {"lat": -46.04, "lng": 167.7103, "id": "820966", "name": "Spissatella clifdenensis", "sprite": "sp-blue_mussel.png", "group": "clam_mussel", "rarity": 1}, {"lat": -46.6416, "lng": 167.6288, "id": "138451", "name": "Onoba", "sprite": "sp-cowrie_shell.png", "group": "sea_snail", "rarity": 1}, {"lat": -46.9802, "lng": 165.954, "id": "125650", "name": "Serrivomer", "sprite": "sp-electric_eel.png", "group": "eel", "rarity": 1}, {"lat": -46.3264, "lng": 167.8136, "id": "535071", "name": "Calantica villosa", "sprite": "sp-anchoviella_juruasanga.png", "group": "other", "rarity": 1}, {"lat": -46.0333, "lng": 167.7, "id": "831580", "name": "Rugobela tenuilirata", "sprite": "sp-cowrie_shell.png", "group": "sea_snail", "rarity": 1}, {"lat": -45.245, "lng": 166.9099, "id": "164729", "name": "Leucettusa tubulosa", "sprite": "sp-barrel_sponge.png", "group": "sponge", "rarity": 1}, {"lat": -46.4967, "lng": 167.46, "id": "273304", "name": "Yellowtail horse mackerel", "thumb": "tn_Trnov_u0.jpg", "sprite": "sp-anchoviella_juruasanga.png", "group": "other", "rarity": 1, "waterType": "Brackish"}, {"lat": -46.0313, "lng": 167.7043, "id": "138151", "name": "Myrtea", "sprite": "sp-blue_mussel.png", "group": "clam_mussel", "rarity": 1}, {"lat": -46.59, "lng": 168.0, "id": "536267", "name": "Zerotula bicarinata", "sprite": "sp-cowrie_shell.png", "group": "sea_snail", "rarity": 1}, {"lat": -46.8999, "lng": 168.1393, "id": "847087", "name": "Desmarestia herbacea subsp. firma", "sprite": "sp-anchoviella_juruasanga.png", "group": "other", "rarity": 1}, {"lat": -46.9753, "lng": 168.1369, "id": "834002", "name": "Bugulina flabellata", "sprite": "sp-anchoviella_juruasanga.png", "group": "other", "rarity": 1}, {"lat": -45.2833, "lng": 166.85, "id": "291704", "name": "Radiaster gracilis", "sprite": "sp-sea_cucumber.png", "group": "starfish", "rarity": 1}, {"lat": -46.7808, "lng": 167.0233, "id": "466023", "name": "Siphotextularia mestayerae", "sprite": "sp-anchoviella_juruasanga.png", "group": "other", "rarity": 1}, {"lat": -46.4172, "lng": 166.4925, "id": "125323", "name": "Thouarella", "sprite": "sp-actiniidae.png", "group": "coral", "rarity": 1}, {"lat": -46.8717, "lng": 167.0417, "id": "507046", "name": "Xyloredo nooi", "sprite": "sp-blue_mussel.png", "group": "clam_mussel", "rarity": 1}, {"lat": -46.3545, "lng": 167.4563, "id": "1651124", "name": "Magasella haurakiensis", "sprite": "sp-anchoviella_juruasanga.png", "group": "other", "rarity": 1}, {"lat": -46.5603, "lng": 167.1301, "id": "274176", "name": "Arnoglossus scapha", "thumb": "tn_Arsca_u0.jpg", "sprite": "sp-atlantic_halibut.png", "group": "flatfish", "rarity": 1, "waterType": "Saltwater"}, {"lat": -46.7017, "lng": 166.5618, "id": "154228", "name": "Astronesthinae", "sprite": "sp-anchoviella_juruasanga.png", "group": "other", "rarity": 1}, {"lat": -45.8584, "lng": 166.854, "id": "287039", "name": "Monomyces rubrum", "sprite": "sp-actiniidae.png", "group": "coral", "rarity": 1}, {"lat": -45.2145, "lng": 166.9069, "id": "168797", "name": "Strongylacidon conulosum", "sprite": "sp-barrel_sponge.png", "group": "sponge", "rarity": 1}, {"lat": -46.6414, "lng": 167.7543, "id": "278469", "name": "Ghost shark", "thumb": "tn_Camil_u7.jpg", "sprite": "sp-anchoviella_juruasanga.png", "group": "other", "rarity": 1, "waterType": "Brackish"}, {"lat": -46.5325, "lng": 167.6669, "id": "129580", "name": "Serpula", "sprite": "sp-anchoviella_juruasanga.png", "group": "other", "rarity": 1}, {"lat": -46.7791, "lng": 168.1136, "id": "506160", "name": "Mytilus planulatus", "sprite": "sp-blue_mussel.png", "group": "clam_mussel", "rarity": 1}, {"lat": -46.0623, "lng": 167.6432, "id": "103465", "name": "Eudistoma", "sprite": "sp-anchoviella_juruasanga.png", "group": "other", "rarity": 1}, {"lat": -46.7222, "lng": 167.59, "id": "469066", "name": "Beania stonycha", "sprite": "sp-anchoviella_juruasanga.png", "group": "other", "rarity": 1}, {"lat": -46.9759, "lng": 168.5552, "id": "283076", "name": "Blind electric ray", "sprite": "sp-himantura_australis.png", "group": "ray", "rarity": 1, "waterType": "Saltwater"}, {"lat": -46.0292, "lng": 167.7086, "id": "831614", "name": "Borsonia clifdenensis", "sprite": "sp-cowrie_shell.png", "group": "sea_snail", "rarity": 1}, {"lat": -46.713, "lng": 167.9885, "id": "1296", "name": "Sipunculidea", "sprite": "sp-anchoviella_juruasanga.png", "group": "other", "rarity": 1}, {"lat": -46.7789, "lng": 168.17, "id": "510535", "name": "Liljeborgia barhami", "sprite": "sp-american_lobster.png", "group": "crab_lobster", "rarity": 1}]}