{"zoom": 7, "x": 126, "y": 42, "points": [{"lat": 52.1249, "lng": 176.0804, "id": "171357", "name": "Craniella villosa", "sprite": "sp-barrel_sponge.png", "group": "sponge", "rarity": 1}, {"lat": 52.0706, "lng": 175.9141, "id": "169466", "name": "Myxilla (Myxilla) incrustans", "sprite": "sp-barrel_sponge.png", "group": "sponge", "rarity": 1}, {"lat": 52.0965, "lng": 175.8958, "id": "1341", "name": "Octocorallia", "sprite": "sp-actiniidae.png", "group": "coral", "rarity": 1}, {"lat": 52.2408, "lng": 174.7508, "id": "1100", "name": "Calanoida", "sprite": "sp-anchoviella_juruasanga.png", "group": "other", "rarity": 1}, {"lat": 51.91, "lng": 176.995, "id": "1836", "name": "Aves", "sprite": "sp-anchoviella_juruasanga.png", "group": "other", "rarity": 1}, {"lat": 51.988, "lng": 176.496, "id": "254562", "name": "Yellowfin sole", "thumb": "tn_Liasp_u0.jpg", "sprite": "sp-atlantic_halibut.png", "group": "flatfish", "rarity": 1, "waterType": "Saltwater"}, {"lat": 51.541, "lng": 176.6219, "id": "103530", "name": "Cnemidocarpa", "sprite": "sp-anchoviella_juruasanga.png", "group": "other", "rarity": 1}, {"lat": 52.048, "lng": 176.5451, "id": "281397", "name": "Hardhead snailfish", "sprite": "sp-anchoviella_juruasanga.png", "group": "other", "rarity": 1, "waterType": "Saltwater"}, {"lat": 52.1304, "lng": 176.1358, "id": "168379", "name": "Semisuberites cribrosa", "sprite": "sp-barrel_sponge.png", "group": "sponge", "rarity": 1}, {"lat": 52.3042, "lng": 175.8151, "id": "254536", "name": "Toad lumpsucker", "thumb": "tn_Euphr_u1.jpg", "sprite": "sp-anchoviella_juruasanga.png", "group": "other", "rarity": 1, "waterType": "Saltwater"}, {"lat": 51.8318, "lng": 175.8289, "id": "240735", "name": "Rock greenling", "thumb": "tn_Helag_u1.jpg", "sprite": "sp-anchoviella_juruasanga.png", "group": "other", "rarity": 1, "waterType": "Saltwater"}, {"lat": 52.047, "lng": 175.2865, "id": "520678", "name": "Calcigorgia beringi", "sprite": "sp-actiniidae.png", "group": "coral", "rarity": 1}, {"lat": 51.9317, "lng": 176.6801, "id": "132095", "name": "Tetilla", "sprite": "sp-barrel_sponge.png", "group": "sponge", "rarity": 1}, {"lat": 51.8543, "lng": 175.867, "id": "274401", "name": "Scaly breasted sculpin", "thumb": "tn_Trxen_u0.gif", "sprite": "sp-anchoviella_juruasanga.png", "group": "other", "rarity": 1, "waterType": "Saltwater"}, {"lat": 52.1027, "lng": 176.0125, "id": "165789", "name": "Halichondria (Eumastia) sitiens", "sprite": "sp-barrel_sponge.png", "group": "sponge", "rarity": 1}, {"lat": 52.089, "lng": 175.2183, "id": "123438", "name": "Chiridota", "sprite": "sp-sea_cucumber.png", "group": "starfish", "rarity": 1}, {"lat": 52.1882, "lng": 175.5615, "id": "288320", "name": "Distichopora borealis", "sprite": "sp-anchoviella_juruasanga.png", "group": "other", "rarity": 1}, {"lat": 52.1968, "lng": 175.5624, "id": "1424278", "name": "Geodia carolae", "sprite": "sp-barrel_sponge.png", "group": "sponge", "rarity": 1}, {"lat": 51.8405, "lng": 175.952, "id": "274869", "name": "Sharpchin rockfish", "thumb": "tn_Sezac_u0.jpg", "sprite": "sp-anchoviella_juruasanga.png", "group": "other", "rarity": 1, "waterType": "Saltwater"}, {"lat": 52.2728, "lng": 175.8695, "id": "124969", "name": "Gorgonocephalus eucnemis", "sprite": "sp-sea_cucumber.png", "group": "starfish", "rarity": 1}, {"lat": 52.46, "lng": 174.83, "id": "105837", "name": "Basking shark", "thumb": "tn_Cemax_u3.jpg", "sprite": "sp-great_white_shark.png", "group": "shark", "rarity": 1, "waterType": "Saltwater"}, {"lat": 52.1411, "lng": 175.8094, "id": "736899", "name": "Histodermella kagigunensis", "sprite": "sp-barrel_sponge.png", "group": "sponge", "rarity": 1}, {"lat": 51.7574, "lng": 175.6684, "id": "366321", "name": "Elassochirus gilli", "sprite": "sp-american_lobster.png", "group": "crab_lobster", "rarity": 1}, {"lat": 52.0475, "lng": 175.5017, "id": "236135", "name": "Giant grenadier", "thumb": "tn_Alpec_u0.jpg", "sprite": "sp-anchoviella_juruasanga.png", "group": "other", "rarity": 1, "waterType": "Saltwater"}, {"lat": 52.0168, "lng": 174.65, "id": "125294", "name": "Chrysogorgia", "sprite": "sp-actiniidae.png", "group": "coral", "rarity": 1}, {"lat": 51.9633, "lng": 175.8356, "id": "254597", "name": "Black eelpout", "thumb": "tn_Lydia_u0.jpg", "sprite": "sp-anchoviella_juruasanga.png", "group": "other", "rarity": 1, "waterType": "Saltwater"}, {"lat": 52.0435, "lng": 175.9385, "id": "170652", "name": "Polymastia pachymastia", "sprite": "sp-barrel_sponge.png", "group": "sponge", "rarity": 1}, {"lat": 51.8267, "lng": 176.15, "id": "124321", "name": "Strongylocentrotus droebachiensis", "sprite": "sp-sea_cucumber.png", "group": "starfish", "rarity": 1}, {"lat": 52.2728, "lng": 175.9143, "id": "165848", "name": "Halichondria (Halichondria) oblonga", "sprite": "sp-barrel_sponge.png", "group": "sponge", "rarity": 1}, {"lat": 52.46, "lng": 174.83, "id": "126333", "name": "Long snouted lancetfish", "thumb": "tn_Alfer_u0.jpg", "sprite": "sp-anchoviella_juruasanga.png", "group": "other", "rarity": 1, "waterType": "Saltwater"}, {"lat": 51.9901, "lng": 176.1284, "id": "279791", "name": "Kamchatka flounder", "thumb": "tn_Reeve_u1.jpg", "sprite": "sp-atlantic_halibut.png", "group": "flatfish", "rarity": 1, "waterType": "Saltwater"}, {"lat": 51.9159, "lng": 176.0986, "id": "126175", "name": "Sebastes", "sprite": "sp-anchoviella_juruasanga.png", "group": "other", "rarity": 1}, {"lat": 52.0679, "lng": 176.2971, "id": "123082", "name": "Echinoidea", "sprite": "sp-sea_cucumber.png", "group": "starfish", "rarity": 1}, {"lat": 52.225, "lng": 175.312, "id": "132005", "name": "Geodia", "sprite": "sp-barrel_sponge.png", "group": "sponge", "rarity": 1}, {"lat": 52.3472, "lng": 174.7779, "id": "162254", "name": "Asteromphalus", "sprite": "sp-anchoviella_juruasanga.png", "group": "other", "rarity": 1}, {"lat": 52.337, "lng": 174.563, "id": "109462", "name": "Dinophysis", "sprite": "sp-anchoviella_juruasanga.png", "group": "other", "rarity": 1}, {"lat": 51.9868, "lng": 176.8028, "id": "126088", "name": "Lumpenus", "sprite": "sp-anchoviella_juruasanga.png", "group": "other", "rarity": 1}, {"lat": 52.337, "lng": 174.563, "id": "180727", "name": "Navicula planamembranacea", "sprite": "sp-anchoviella_juruasanga.png", "group": "other", "rarity": 1}, {"lat": 51.8545, "lng": 175.8626, "id": "1839", "name": "Ascidiacea", "sprite": "sp-anchoviella_juruasanga.png", "group": "other", "rarity": 1}, {"lat": 51.9194, "lng": 176.6721, "id": "369053", "name": "Pteraster tesselatus", "sprite": "sp-sea_cucumber.png", "group": "starfish", "rarity": 1}, {"lat": 52.28, "lng": 176.23, "id": "574239", "name": "Plumarella echinata", "sprite": "sp-actiniidae.png", "group": "coral", "rarity": 1}, {"lat": 51.9267, "lng": 176.6318, "id": "1424119", "name": "Amphilectus ovulum", "sprite": "sp-barrel_sponge.png", "group": "sponge", "rarity": 1}, {"lat": 52.0615, "lng": 175.65, "id": "274056", "name": "Lycenchelys alta", "sprite": "sp-anchoviella_juruasanga.png", "group": "other", "rarity": 1, "waterType": "Saltwater"}, {"lat": 52.1514, "lng": 175.7776, "id": "171632", "name": "Aphrocallistes vastus", "sprite": "sp-barrel_sponge.png", "group": "sponge", "rarity": 1}, {"lat": 52.174, "lng": 175.962, "id": "106738", "name": "Paguridae", "sprite": "sp-american_lobster.png", "group": "crab_lobster", "rarity": 1}, {"lat": 52.2564, "lng": 174.8379, "id": "149023", "name": "Ditylum brightwellii", "sprite": "sp-anchoviella_juruasanga.png", "group": "other", "rarity": 1}, {"lat": 51.5, "lng": 175.0, "id": "1078", "name": "Ostracoda", "sprite": "sp-anchoviella_juruasanga.png", "group": "other", "rarity": 1}, {"lat": 52.0185, "lng": 174.65, "id": "257927", "name": "Antarcturus hirsutus", "sprite": "sp-american_lobster.png", "group": "crab_lobster", "rarity": 1}, {"lat": 51.9333, "lng": 175.3833, "id": "274840", "name": "Yellowmouth rockfish", "thumb": "tn_Seree_u0.jpg", "sprite": "sp-anchoviella_juruasanga.png", "group": "other", "rarity": 1, "waterType": "Saltwater"}, {"lat": 52.1003, "lng": 176.0038, "id": "386374", "name": "Placiphorella pacifica", "sprite": "sp-anchoviella_juruasanga.png", "group": "other", "rarity": 1}, {"lat": 52.0005, "lng": 175.9989, "id": "1130", "name": "Decapoda", "sprite": "sp-american_lobster.png", "group": "crab_lobster", "rarity": 1}, {"lat": 52.2, "lng": 175.55, "id": "344016", "name": "Aethia pusilla", "sprite": "sp-anchoviella_juruasanga.png", "group": "other", "rarity": 1}, {"lat": 51.9881, "lng": 176.2553, "id": "282289", "name": "Atka mackerel", "thumb": "tn_Plmon_u3.jpg", "sprite": "sp-anchoviella_juruasanga.png", "group": "other", "rarity": 1, "waterType": "Saltwater"}, {"lat": 51.9867, "lng": 176.16, "id": "550625", "name": "Lithodes couesi", "sprite": "sp-american_lobster.png", "group": "crab_lobster", "rarity": 1}, {"lat": 51.99, "lng": 175.83, "id": "280690", "name": "Petrale sole", "thumb": "tn_Eojor_u0.jpg", "sprite": "sp-atlantic_halibut.png", "group": "flatfish", "rarity": 1, "waterType": "Saltwater"}, {"lat": 52.089, "lng": 175.2183, "id": "123276", "name": "Henricia", "sprite": "sp-sea_cucumber.png", "group": "starfish", "rarity": 1}, {"lat": 51.99, "lng": 175.16, "id": "274833", "name": "Bocaccio rockfish", "thumb": "tn_Sepau_u0.jpg", "sprite": "sp-anchoviella_juruasanga.png", "group": "other", "rarity": 1, "waterType": "Saltwater"}, {"lat": 52.46, "lng": 174.5, "id": "127207", "name": "Ribbed sculpin", "thumb": "tn_Trpin_u2.jpg", "sprite": "sp-anchoviella_juruasanga.png", "group": "other", "rarity": 1, "waterType": "Saltwater"}, {"lat": 52.0134, "lng": 176.1603, "id": "125595", "name": "Scorpaenidae", "sprite": "sp-parascorpaena_moultoni.png", "group": "scorpionfish", "rarity": 1}, {"lat": 51.8736, "lng": 176.4229, "id": "125471", "name": "Macrouridae", "sprite": "sp-anchoviella_juruasanga.png", "group": "other", "rarity": 1}, {"lat": 52.0058, "lng": 176.199, "id": "1363", "name": "Scleractinia", "sprite": "sp-actiniidae.png", "group": "coral", "rarity": 1}, {"lat": 52.2635, "lng": 176.0139, "id": "602367", "name": "Clavularia", "sprite": "sp-anchoviella_juruasanga.png", "group": "other", "rarity": 1}, {"lat": 52.089, "lng": 175.2183, "id": "123594", "name": "Ophiolebes", "sprite": "sp-sea_cucumber.png", "group": "starfish", "rarity": 1}, {"lat": 51.8647, "lng": 176.3763, "id": "1544106", "name": "Keratoisididae", "sprite": "sp-actiniidae.png", "group": "coral", "rarity": 1}, {"lat": 52.1315, "lng": 175.9409, "id": "131807", "name": "Halichondria", "sprite": "sp-barrel_sponge.png", "group": "sponge", "rarity": 1}, {"lat": 51.9819, "lng": 176.4062, "id": "272732", "name": "Bigeye lanternfish", "sprite": "sp-anchoviella_juruasanga.png", "group": "other", "rarity": 1, "waterType": "Saltwater"}, {"lat": 52.1, "lng": 176.1235, "id": "195924", "name": "Plakina tanaga", "sprite": "sp-barrel_sponge.png", "group": "sponge", "rarity": 1}, {"lat": 51.9089, "lng": 175.7606, "id": "279415", "name": "Alaskan ronquil", "thumb": "tn_Bacae_u0.jpg", "sprite": "sp-anchoviella_juruasanga.png", "group": "other", "rarity": 1, "waterType": "Saltwater"}, {"lat": 52.1375, "lng": 175.8183, "id": "254551", "name": "Northern smoothtongue", "thumb": "tn_Lesch_u0.jpg", "sprite": "sp-anchoviella_juruasanga.png", "group": "other", "rarity": 1, "waterType": "Saltwater"}, {"lat": 52.0859, "lng": 175.12, "id": "279440", "name": "Whitetail sculpin", "thumb": "tn_Thale_u0.gif", "sprite": "sp-anchoviella_juruasanga.png", "group": "other", "rarity": 1, "waterType": "Saltwater"}, {"lat": 52.408, "lng": 174.978, "id": "837453", "name": "Tripos horridus", "sprite": "sp-anchoviella_juruasanga.png", "group": "other", "rarity": 1}, {"lat": 51.9961, "lng": 175.11, "id": "254585", "name": "Wattled eelpout", "sprite": "sp-anchoviella_juruasanga.png", "group": "other", "rarity": 1, "waterType": "Saltwater"}, {"lat": 51.9963, "lng": 175.5509, "id": "254299", "name": "Smooth lumpsucker", "thumb": "tn_Apven_u1.jpg", "sprite": "sp-anchoviella_juruasanga.png", "group": "other", "rarity": 1, "waterType": "Saltwater"}, {"lat": 52.065, "lng": 175.165, "id": "128495", "name": "Pennatula", "sprite": "sp-actiniidae.png", "group": "coral", "rarity": 1}, {"lat": 52.0556, "lng": 176.0981, "id": "590118", "name": "Placetron wosnessenskii", "sprite": "sp-american_lobster.png", "group": "crab_lobster", "rarity": 1}, {"lat": 51.9994, "lng": 176.0339, "id": "171329", "name": "Craniella craniana", "sprite": "sp-barrel_sponge.png", "group": "sponge", "rarity": 1}, {"lat": 52.1021, "lng": 176.1026, "id": "177839", "name": "Plumarella", "sprite": "sp-actiniidae.png", "group": "coral", "rarity": 1}, {"lat": 52.1457, "lng": 176.1018, "id": "279414", "name": "Longfin Irish lord", "thumb": "tn_Hezap_m0.jpg", "sprite": "sp-anchoviella_juruasanga.png", "group": "other", "rarity": 1, "waterType": "Saltwater"}, {"lat": 52.041, "lng": 175.814, "id": "282552", "name": "Rastrinus scutiger", "thumb": "tn_Rascu_u0.gif", "sprite": "sp-anchoviella_juruasanga.png", "group": "other", "rarity": 1, "waterType": "Saltwater"}, {"lat": 52.0151, "lng": 176.2675, "id": "274290", "name": "Pacific halibut", "thumb": "tn_Histe_u3.jpg", "sprite": "sp-atlantic_halibut.png", "group": "flatfish", "rarity": 1, "waterType": "Saltwater"}, {"lat": 52.2417, "lng": 174.7266, "id": "149070", "name": "Rhizosolenia hebetata", "sprite": "sp-anchoviella_juruasanga.png", "group": "other", "rarity": 1}, {"lat": 52.1341, "lng": 175.9568, "id": "286365", "name": "Muriceides nigra", "sprite": "sp-actiniidae.png", "group": "coral", "rarity": 1}, {"lat": 51.9667, "lng": 176.318, "id": "127144", "name": "Greenland halibut", "thumb": "tn_Rehip_u1.jpg", "sprite": "sp-atlantic_halibut.png", "group": "flatfish", "rarity": 1, "waterType": "Saltwater"}, {"lat": 52.2483, "lng": 175.9804, "id": "279418", "name": "Nutcracker prickleback", "sprite": "sp-anchoviella_juruasanga.png", "group": "other", "rarity": 1, "waterType": "Saltwater"}, {"lat": 52.1774, "lng": 176.0003, "id": "289747", "name": "Cryogorgia koolsae", "sprite": "sp-actiniidae.png", "group": "coral", "rarity": 1}, {"lat": 50.7833, "lng": 174.4, "id": "282922", "name": "Longfin dragonfish", "sprite": "sp-anchoviella_juruasanga.png", "group": "other", "rarity": 1, "waterType": "Saltwater"}, {"lat": 52.2781, "lng": 176.0609, "id": "132643", "name": "Hymeniacidon assimilis", "sprite": "sp-barrel_sponge.png", "group": "sponge", "rarity": 1}, {"lat": 52.3078, "lng": 175.8028, "id": "377832", "name": "Cladaster validus", "sprite": "sp-sea_cucumber.png", "group": "starfish", "rarity": 1}, {"lat": 52.0843, "lng": 175.203, "id": "134240", "name": "Stylocordyla borealis", "sprite": "sp-barrel_sponge.png", "group": "sponge", "rarity": 1}, {"lat": 52.1414, "lng": 175.2557, "id": "254541", "name": "Bigmouth sculpin", "thumb": "tn_Hebol_u0.jpg", "sprite": "sp-anchoviella_juruasanga.png", "group": "other", "rarity": 1, "waterType": "Saltwater"}, {"lat": 52.3007, "lng": 174.8795, "id": "163030", "name": "Phaeoceros", "sprite": "sp-anchoviella_juruasanga.png", "group": "other", "rarity": 1}, {"lat": 51.7161, "lng": 175.776, "id": "169518", "name": "Stelodoryx toporoki", "sprite": "sp-barrel_sponge.png", "group": "sponge", "rarity": 1}, {"lat": 52.1625, "lng": 175.9856, "id": "131774", "name": "Axinella", "sprite": "sp-barrel_sponge.png", "group": "sponge", "rarity": 1}, {"lat": 52.1619, "lng": 175.7042, "id": "285799", "name": "Crypthelia trophostega", "sprite": "sp-anchoviella_juruasanga.png", "group": "other", "rarity": 1}, {"lat": 51.67, "lng": 176.4933, "id": "148742", "name": "Diomedeidae", "sprite": "sp-anchoviella_juruasanga.png", "group": "other", "rarity": 1}, {"lat": 51.75, "lng": 177.05, "id": "274797", "name": "Gray rockfish", "thumb": "tn_Segla_u1.jpg", "sprite": "sp-anchoviella_juruasanga.png", "group": "other", "rarity": 1, "waterType": "Saltwater"}, {"lat": 52.162, "lng": 175.574, "id": "170169", "name": "Geodia robusta", "sprite": "sp-barrel_sponge.png", "group": "sponge", "rarity": 1}, {"lat": 52.1641, "lng": 175.9208, "id": "880531", "name": "Latrunculia (Uniannulata) oparinae", "sprite": "sp-barrel_sponge.png", "group": "sponge", "rarity": 1}, {"lat": 52.2818, "lng": 174.7623, "id": "196813", "name": "Neodenticula seminae", "sprite": "sp-anchoviella_juruasanga.png", "group": "other", "rarity": 1}, {"lat": 52.0838, "lng": 175.8755, "id": "168470", "name": "Isodictya rigida", "sprite": "sp-barrel_sponge.png", "group": "sponge", "rarity": 1}, {"lat": 52.3556, "lng": 175.9189, "id": "137134", "name": "Uria lomvia", "sprite": "sp-anchoviella_juruasanga.png", "group": "other", "rarity": 1}, {"lat": 51.67, "lng": 175.83, "id": "254501", "name": "Sturgeon poacher", "thumb": "tn_Poaci_u0.jpg", "sprite": "sp-anchoviella_juruasanga.png", "group": "other", "rarity": 1, "waterType": "Saltwater"}, {"lat": 52.2547, "lng": 175.9858, "id": "125326", "name": "Paragorgia", "sprite": "sp-actiniidae.png", "group": "coral", "rarity": 1}, {"lat": 52.3078, "lng": 175.8028, "id": "124147", "name": "Pteraster militaris", "sprite": "sp-sea_cucumber.png", "group": "starfish", "rarity": 1}, {"lat": 51.985, "lng": 176.66, "id": "151159", "name": "Pacific herring", "thumb": "tn_Clpal_u1.jpg", "sprite": "sp-atlantic_herring.png", "group": "herring", "rarity": 1, "waterType": "Brackish"}, {"lat": 52.305, "lng": 174.8084, "id": "119270", "name": "Nitzschia", "sprite": "sp-anchoviella_juruasanga.png", "group": "other", "rarity": 1}, {"lat": 51.684, "lng": 176.794, "id": "923", "name": "Maldanidae", "sprite": "sp-anchoviella_juruasanga.png", "group": "other", "rarity": 1}, {"lat": 51.67, "lng": 176.83, "id": "274775", "name": "Redbanded rockfish", "thumb": "tn_Sebab_u0.jpg", "sprite": "sp-anchoviella_juruasanga.png", "group": "other", "rarity": 1, "waterType": "Saltwater"}, {"lat": 52.2416, "lng": 174.6442, "id": "149629", "name": "Rhizosolenia styliformis", "sprite": "sp-anchoviella_juruasanga.png", "group": "other", "rarity": 1}, {"lat": 52.2885, "lng": 174.5925, "id": "104152", "name": "Calanus", "sprite": "sp-anchoviella_juruasanga.png", "group": "other", "rarity": 1}, {"lat": 52.1371, "lng": 175.6552, "id": "172025", "name": "Aulosaccus schulzei", "sprite": "sp-barrel_sponge.png", "group": "sponge", "rarity": 1}, {"lat": 51.8137, "lng": 176.992, "id": "137117", "name": "Phocoena phocoena", "sprite": "sp-bottlenose_dolphin.png", "group": "dolphin", "rarity": 1}, {"lat": 51.5, "lng": 175.0, "id": "603038", "name": "Heterorhabdus", "sprite": "sp-anchoviella_juruasanga.png", "group": "other", "rarity": 1}, {"lat": 52.089, "lng": 175.2183, "id": "124128", "name": "Diplopteraster multipes", "sprite": "sp-sea_cucumber.png", "group": "starfish", "rarity": 1}, {"lat": 52.286, "lng": 175.358, "id": "766503", "name": "Ancorina buldira", "sprite": "sp-barrel_sponge.png", "group": "sponge", "rarity": 1}, {"lat": 51.9618, "lng": 176.151, "id": "274777", "name": "Shortraker rockfish", "thumb": "tn_Sebor_u0.jpg", "sprite": "sp-anchoviella_juruasanga.png", "group": "other", "rarity": 1, "waterType": "Saltwater"}, {"lat": 51.8675, "lng": 176.4125, "id": "410385", "name": "Onykia robusta", "sprite": "sp-giant_pacific_octopus.png", "group": "octopus_squid", "rarity": 1}, {"lat": 52.3069, "lng": 174.8462, "id": "841259", "name": "Tripos longipes", "sprite": "sp-anchoviella_juruasanga.png", "group": "other", "rarity": 1}, {"lat": 51.8561, "lng": 176.3209, "id": "159463", "name": "Sablefish", "thumb": "tn_Anfim_u1.jpg", "sprite": "sp-anchoviella_juruasanga.png", "group": "other", "rarity": 1, "waterType": "Saltwater"}, {"lat": 52.086, "lng": 175.5506, "id": "286724", "name": "Caryophyllia (Caryophyllia) alaskensis", "sprite": "sp-actiniidae.png", "group": "coral", "rarity": 1}]}