{"zoom": 7, "x": 127, "y": 74, "points": [{"lat": -29.2667, "lng": 177.95, "id": "276775", "name": "Latticed goby", "thumb": "tn_Prspp_uf.jpg", "sprite": "sp-eviota_bipunctata.png", "group": "goby", "rarity": 1, "waterType": "Saltwater"}, {"lat": -28.55, "lng": 177.83, "id": "285797", "name": "Crypthelia stenopoma", "sprite": "sp-anchoviella_juruasanga.png", "group": "other", "rarity": 1}, {"lat": -28.7033, "lng": 179.383, "id": "126595", "name": "Soft lanternfish", "thumb": "tn_Dimol_u0.jpg", "sprite": "sp-anchoviella_juruasanga.png", "group": "other", "rarity": 1, "waterType": "Saltwater"}, {"lat": -28.3733, "lng": 178.4817, "id": "567827", "name": "Onychoprion fuscatus", "sprite": "sp-anchoviella_juruasanga.png", "group": "other", "rarity": 1}, {"lat": -28.8, "lng": 177.8, "id": "231603", "name": "Stylaster eguchii", "sprite": "sp-anchoviella_juruasanga.png", "group": "other", "rarity": 1}, {"lat": -29.25, "lng": 178.0, "id": "244140", "name": "Ophiothrix (Acanthophiothrix) lepidus", "sprite": "sp-sea_cucumber.png", "group": "starfish", "rarity": 1}, {"lat": -29.2433, "lng": 177.8783, "id": "281790", "name": "Inscribed wrasse", "thumb": "tn_Noins_u0.jpg", "sprite": "sp-cleaner_wrasse.png", "group": "wrasse", "rarity": 1, "waterType": "Saltwater"}, {"lat": -28.9667, "lng": 178.95, "id": "212640", "name": "Daption capense", "sprite": "sp-anchoviella_juruasanga.png", "group": "other", "rarity": 1}, {"lat": -28.71, "lng": 177.78, "id": "856308", "name": "Stylaster sinuosus", "sprite": "sp-anchoviella_juruasanga.png", "group": "other", "rarity": 1}, {"lat": -28.232, "lng": 177.92, "id": "225986", "name": "Puffinus bulleri", "sprite": "sp-anchoviella_juruasanga.png", "group": "other", "rarity": 1}, {"lat": -28.1628, "lng": 178.9917, "id": "212583", "name": "Diomedea exulans", "sprite": "sp-anchoviella_juruasanga.png", "group": "other", "rarity": 1}, {"lat": -29.2483, "lng": 177.87, "id": "277315", "name": "Kermadec triplefin", "sprite": "sp-helcogramma_ascensionis.png", "group": "blenny", "rarity": 1, "waterType": "Saltwater"}, {"lat": -28.8, "lng": 177.8, "id": "171169", "name": "Pleroma menoui", "sprite": "sp-barrel_sponge.png", "group": "sponge", "rarity": 1}, {"lat": -29.51, "lng": 178.167, "id": "382985", "name": "Polycheles enthrix", "sprite": "sp-american_lobster.png", "group": "crab_lobster", "rarity": 1}, {"lat": -29.27, "lng": 177.92, "id": "286957", "name": "Cladopsammia eguchii", "sprite": "sp-actiniidae.png", "group": "coral", "rarity": 1}, {"lat": -29.24, "lng": 177.95, "id": "412657", "name": "Eupulmonata", "sprite": "sp-cowrie_shell.png", "group": "sea_snail", "rarity": 1}, {"lat": -28.9667, "lng": 178.95, "id": "206822", "name": "Macronectes", "sprite": "sp-anchoviella_juruasanga.png", "group": "other", "rarity": 1}, {"lat": -29.16, "lng": 177.54, "id": "1351397", "name": "Terenochiton norfolcensis", "sprite": "sp-anchoviella_juruasanga.png", "group": "other", "rarity": 1}, {"lat": -28.9667, "lng": 178.95, "id": "343978", "name": "Pterodroma neglecta", "sprite": "sp-anchoviella_juruasanga.png", "group": "other", "rarity": 1}, {"lat": -29.2503, "lng": 177.9016, "id": "456679", "name": "Scutellastra kermadecensis", "sprite": "sp-cowrie_shell.png", "group": "sea_snail", "rarity": 1}, {"lat": -29.2824, "lng": 177.9028, "id": "932604", "name": "Rhynchocinetes okuno", "sprite": "sp-american_lobster.png", "group": "crab_lobster", "rarity": 1}, {"lat": -29.27, "lng": 177.92, "id": "286781", "name": "Coenocyathus brooki", "sprite": "sp-actiniidae.png", "group": "coral", "rarity": 1}, {"lat": -27.9836, "lng": 178.5818, "id": "225975", "name": "Pterodroma magentae", "sprite": "sp-anchoviella_juruasanga.png", "group": "other", "rarity": 1}, {"lat": -29.25, "lng": 177.95, "id": "281803", "name": "Stoutspine waspfish", "sprite": "sp-anchoviella_juruasanga.png", "group": "other", "rarity": 1, "waterType": "Saltwater"}, {"lat": -29.27, "lng": 177.92, "id": "168116", "name": "Raspailia (Clathriodendron) rubrum", "sprite": "sp-barrel_sponge.png", "group": "sponge", "rarity": 1}, {"lat": -28.8, "lng": 177.8, "id": "246624", "name": "Awhiowhio unda", "sprite": "sp-barrel_sponge.png", "group": "sponge", "rarity": 1}, {"lat": -29.2433, "lng": 177.8783, "id": "279826", "name": "Eastern footballer", "thumb": "tn_Atlat_u0.jpg", "sprite": "sp-anchoviella_juruasanga.png", "group": "other", "rarity": 1, "waterType": "Saltwater"}, {"lat": -28.55, "lng": 177.83, "id": "231630", "name": "Conopora verrucosa", "sprite": "sp-anchoviella_juruasanga.png", "group": "other", "rarity": 1}, {"lat": -28.565, "lng": 177.84, "id": "287509", "name": "Conopora laevis", "sprite": "sp-anchoviella_juruasanga.png", "group": "other", "rarity": 1}, {"lat": -29.27, "lng": 177.92, "id": "1023404", "name": "Gambierdiscus honu", "sprite": "sp-anchoviella_juruasanga.png", "group": "other", "rarity": 1}, {"lat": -29.25, "lng": 177.95, "id": "281533", "name": "Red little gurnard perch", "sprite": "sp-anchoviella_juruasanga.png", "group": "other", "rarity": 1, "waterType": "Saltwater"}, {"lat": -29.07, "lng": 179.6845, "id": "127094", "name": "Swordfish", "thumb": "tn_Xigla_u5.jpg", "sprite": "sp-blue_marlin.png", "group": "swordfish", "rarity": 1, "waterType": "Saltwater"}, {"lat": -28.3833, "lng": 178.4517, "id": "212634", "name": "Puffinus pacificus", "sprite": "sp-anchoviella_juruasanga.png", "group": "other", "rarity": 1}, {"lat": -28.631, "lng": 178.7793, "id": "137119", "name": "Physeter macrocephalus", "sprite": "sp-blue_whale.png", "group": "whale", "rarity": 1}, {"lat": -29.2607, "lng": 177.9152, "id": "956", "name": "Nephtyidae", "sprite": "sp-anchoviella_juruasanga.png", "group": "other", "rarity": 1}, {"lat": -29.2503, "lng": 177.9016, "id": "325446", "name": "Cellana craticulata", "sprite": "sp-cowrie_shell.png", "group": "sea_snail", "rarity": 1}, {"lat": -28.58, "lng": 177.85, "id": "135209", "name": "Madrepora oculata", "sprite": "sp-actiniidae.png", "group": "coral", "rarity": 1}, {"lat": -28.9667, "lng": 178.95, "id": "204680", "name": "Pachyptila", "sprite": "sp-anchoviella_juruasanga.png", "group": "other", "rarity": 1}, {"lat": -28.0562, "lng": 178.25, "id": "712905", "name": "Black marlin", "thumb": "tn_Maind_u2.jpg", "sprite": "sp-blue_marlin.png", "group": "swordfish", "rarity": 1, "waterType": "Saltwater"}, {"lat": -29.2326, "lng": 177.8752, "id": "225963", "name": "Pterodroma nigripennis", "sprite": "sp-anchoviella_juruasanga.png", "group": "other", "rarity": 1}, {"lat": -27.701, "lng": 179.716, "id": "712907", "name": "Striped marlin", "thumb": "tn_Teaud_u3.jpg", "sprite": "sp-blue_marlin.png", "group": "swordfish", "rarity": 1, "waterType": "Saltwater"}, {"lat": -28.2417, "lng": 178.9667, "id": "225957", "name": "Pterodroma cervicalis", "sprite": "sp-anchoviella_juruasanga.png", "group": "other", "rarity": 1}, {"lat": -28.2993, "lng": 178.838, "id": "343995", "name": "Thalassarche melanophris", "sprite": "sp-anchoviella_juruasanga.png", "group": "other", "rarity": 1}, {"lat": -29.2503, "lng": 177.9016, "id": "506963", "name": "Spondylus raoulensis", "sprite": "sp-blue_mussel.png", "group": "clam_mussel", "rarity": 1}, {"lat": -28.5244, "lng": 178.4356, "id": "137200", "name": "Puffinus assimilis", "sprite": "sp-anchoviella_juruasanga.png", "group": "other", "rarity": 1}, {"lat": -29.2503, "lng": 177.9016, "id": "443", "name": "Trochidae", "sprite": "sp-cowrie_shell.png", "group": "sea_snail", "rarity": 1}, {"lat": -27.5167, "lng": 178.9833, "id": "225774", "name": "Pterodroma leucoptera", "sprite": "sp-anchoviella_juruasanga.png", "group": "other", "rarity": 1}, {"lat": -28.55, "lng": 177.83, "id": "285778", "name": "Crypthelia cymas", "sprite": "sp-anchoviella_juruasanga.png", "group": "other", "rarity": 1}, {"lat": -28.483, "lng": 178.183, "id": "219729", "name": "Indo-Pacific blue marlin", "thumb": "tn_Mamaz_u2.jpg", "sprite": "sp-blue_marlin.png", "group": "swordfish", "rarity": 1, "waterType": "Saltwater"}, {"lat": -28.0, "lng": 178.0, "id": "137111", "name": "Tursiops truncatus", "sprite": "sp-bottlenose_dolphin.png", "group": "dolphin", "rarity": 1}, {"lat": -28.8333, "lng": 178.1667, "id": "137202", "name": "Puffinus griseus", "sprite": "sp-anchoviella_juruasanga.png", "group": "other", "rarity": 1}, {"lat": -28.6925, "lng": 178.5778, "id": "105838", "name": "Great white shark", "thumb": "tn_Cacar_f3.jpg", "sprite": "sp-great_white_shark.png", "group": "shark", "rarity": 1, "waterType": "Brackish"}]}