{"zoom": 7, "x": 127, "y": 71, "points": [{"lat": -20.417, "lng": 178.23, "id": "113473", "name": "Neogloboquadrina dutertrei", "sprite": "sp-anchoviella_juruasanga.png", "group": "other", "rarity": 1}, {"lat": -20.9283, "lng": 178.2783, "id": "127287", "name": "Hidden bristlemouth", "thumb": "tn_Cyobs_u0.jpg", "sprite": "sp-anchoviella_juruasanga.png", "group": "other", "rarity": 1, "waterType": "Saltwater"}, {"lat": -19.65, "lng": 178.17, "id": "409138", "name": "Eurysquilloides sibogae", "sprite": "sp-american_lobster.png", "group": "crab_lobster", "rarity": 1}, {"lat": -19.6575, "lng": 178.1725, "id": "1609214", "name": "Trapezionida notata", "sprite": "sp-american_lobster.png", "group": "crab_lobster", "rarity": 1}, {"lat": -21.033, "lng": 178.5, "id": "126609", "name": "Sunbeam lampfish", "thumb": "tn_Lauro_u0.jpg", "sprite": "sp-anchoviella_juruasanga.png", "group": "other", "rarity": 1, "waterType": "Saltwater"}, {"lat": -20.417, "lng": 178.23, "id": "113461", "name": "Turborotalita humilis", "sprite": "sp-anchoviella_juruasanga.png", "group": "other", "rarity": 1}, {"lat": -21.033, "lng": 178.5, "id": "125528", "name": "Chaetodontidae", "sprite": "sp-chaetodon.png", "group": "butterflyfish", "rarity": 1}, {"lat": -20.95, "lng": 178.74, "id": "388202", "name": "Sicyonia dejouanneti", "sprite": "sp-american_lobster.png", "group": "crab_lobster", "rarity": 1}, {"lat": -20.9981, "lng": 178.4261, "id": "221512", "name": "Elongated bristlemouth fish", "thumb": "tn_Goelo_u3.jpg", "sprite": "sp-anchoviella_juruasanga.png", "group": "other", "rarity": 1, "waterType": "Saltwater"}, {"lat": -19.5167, "lng": 177.7167, "id": "212596", "name": "Sula sula", "sprite": "sp-anchoviella_juruasanga.png", "group": "other", "rarity": 1}, {"lat": -21.033, "lng": 178.5, "id": "127303", "name": "Oceanic lightfish", "thumb": "tn_Vinim_u1.gif", "sprite": "sp-anchoviella_juruasanga.png", "group": "other", "rarity": 1, "waterType": "Saltwater"}, {"lat": -20.417, "lng": 178.23, "id": "113433", "name": "Beella digitata", "sprite": "sp-anchoviella_juruasanga.png", "group": "other", "rarity": 1}, {"lat": -20.9283, "lng": 178.2783, "id": "126340", "name": "Undistinguished sabretooth", "thumb": "tn_Odnor_u3.jpg", "sprite": "sp-anchoviella_juruasanga.png", "group": "other", "rarity": 1, "waterType": "Saltwater"}, {"lat": -21.033, "lng": 178.5, "id": "126194", "name": "Vinciguerria", "sprite": "sp-anchoviella_juruasanga.png", "group": "other", "rarity": 1}, {"lat": -21.033, "lng": 178.5, "id": "125498", "name": "Myctophidae", "sprite": "sp-anchoviella_juruasanga.png", "group": "other", "rarity": 1}, {"lat": -21.5833, "lng": 177.55, "id": "212634", "name": "Puffinus pacificus", "sprite": "sp-anchoviella_juruasanga.png", "group": "other", "rarity": 1}, {"lat": -21.6333, "lng": 178.75, "id": "217505", "name": "Blotch-necked moray", "thumb": "tn_Gymar_u4.jpg", "sprite": "sp-anarchias.png", "group": "moray", "rarity": 1, "waterType": "Saltwater"}, {"lat": -21.65, "lng": 178.6833, "id": "712695", "name": "Narrowstripe cardinalfish", "thumb": "tn_Apexo_u4.jpg", "sprite": "sp-anchoviella_juruasanga.png", "group": "other", "rarity": 1, "waterType": "Saltwater"}, {"lat": -21.033, "lng": 178.5, "id": "126211", "name": "Idiacanthus", "sprite": "sp-anchoviella_juruasanga.png", "group": "other", "rarity": 1}, {"lat": -20.417, "lng": 178.23, "id": "112200", "name": "Globorotalia", "sprite": "sp-anchoviella_juruasanga.png", "group": "other", "rarity": 1}, {"lat": -21.033, "lng": 178.5, "id": "126586", "name": "Warming's lantern fish", "thumb": "tn_Cewar_u0.jpg", "sprite": "sp-anchoviella_juruasanga.png", "group": "other", "rarity": 1, "waterType": "Saltwater"}, {"lat": -20.96, "lng": 178.74, "id": "392185", "name": "Babamunida javieri", "sprite": "sp-american_lobster.png", "group": "crab_lobster", "rarity": 1}, {"lat": -20.9981, "lng": 178.4261, "id": "125816", "name": "Bolinichthys", "sprite": "sp-anchoviella_juruasanga.png", "group": "other", "rarity": 1}, {"lat": -19.99, "lng": 178.3175, "id": "392666", "name": "Paramunida pictura", "sprite": "sp-american_lobster.png", "group": "crab_lobster", "rarity": 1}, {"lat": -21.6667, "lng": 178.6167, "id": "218647", "name": "Yellowstripe goatfish", "thumb": "tn_Mufla_u2.jpg", "sprite": "sp-anchoviella_juruasanga.png", "group": "other", "rarity": 1, "waterType": "Saltwater"}, {"lat": -20.417, "lng": 178.23, "id": "418106", "name": "Globigerinella calida", "sprite": "sp-anchoviella_juruasanga.png", "group": "other", "rarity": 1}, {"lat": -21.0, "lng": 178.0, "id": "218849", "name": "Dusky farmerfish", "thumb": "tn_Stnig_u1.jpg", "sprite": "sp-chrysiptera_caesifrons.png", "group": "clownfish", "rarity": 1, "waterType": "Saltwater"}, {"lat": -21.033, "lng": 178.5, "id": "126068", "name": "Epinephelus", "sprite": "sp-chelidoperca_santosi.png", "group": "grouper", "rarity": 1}, {"lat": -20.0, "lng": 178.0, "id": "218781", "name": "Sapphire devil", "thumb": "tn_Chcya_u9.jpg", "sprite": "sp-chrysiptera_caesifrons.png", "group": "clownfish", "rarity": 1, "waterType": "Saltwater"}, {"lat": -20.417, "lng": 178.23, "id": "113452", "name": "Globorotalia scitula", "sprite": "sp-anchoviella_juruasanga.png", "group": "other", "rarity": 1}, {"lat": -20.417, "lng": 178.23, "id": "418108", "name": "Sphaeroidinella dehiscens", "sprite": "sp-anchoviella_juruasanga.png", "group": "other", "rarity": 1}, {"lat": -19.65, "lng": 178.17, "id": "392202", "name": "Crosnierita dicata", "sprite": "sp-american_lobster.png", "group": "crab_lobster", "rarity": 1}, {"lat": -20.417, "lng": 178.23, "id": "113453", "name": "Globorotalia truncatulinoides", "sprite": "sp-anchoviella_juruasanga.png", "group": "other", "rarity": 1}, {"lat": -20.6167, "lng": 178.6667, "id": "217964", "name": "Chinese trumpetfish", "thumb": "tn_Auchi_u5.jpg", "sprite": "sp-anchoviella_juruasanga.png", "group": "other", "rarity": 1, "waterType": "Saltwater"}, {"lat": -19.8333, "lng": 178.25, "id": "205753", "name": "Tridacna", "sprite": "sp-blue_mussel.png", "group": "clam_mussel", "rarity": 1}, {"lat": -19.66, "lng": 178.17, "id": "441037", "name": "Hexaplax megalops", "sprite": "sp-american_lobster.png", "group": "crab_lobster", "rarity": 1}, {"lat": -21.033, "lng": 178.5, "id": "127340", "name": "Threadfin dragonfish", "thumb": "tn_Ecbar_u0.gif", "sprite": "sp-anchoviella_juruasanga.png", "group": "other", "rarity": 1, "waterType": "Saltwater"}, {"lat": -20.95, "lng": 178.74, "id": "392673", "name": "Paramunida stichas", "sprite": "sp-american_lobster.png", "group": "crab_lobster", "rarity": 1}, {"lat": -20.615, "lng": 178.505, "id": "712905", "name": "Black marlin", "thumb": "tn_Maind_u2.jpg", "sprite": "sp-blue_marlin.png", "group": "swordfish", "rarity": 1, "waterType": "Saltwater"}, {"lat": -21.6333, "lng": 178.75, "id": "209369", "name": "Bridled cardinalfish", "thumb": "tn_Apfra_u8.jpg", "sprite": "sp-anchoviella_juruasanga.png", "group": "other", "rarity": 1, "waterType": "Saltwater"}, {"lat": -20.188, "lng": 178.402, "id": "368069", "name": "Strobopagurus breviacus", "sprite": "sp-american_lobster.png", "group": "crab_lobster", "rarity": 1}, {"lat": -20.335, "lng": 178.47, "id": "1605670", "name": "Hexamunida sphecia", "sprite": "sp-american_lobster.png", "group": "crab_lobster", "rarity": 1}, {"lat": -20.417, "lng": 178.23, "id": "113440", "name": "Globigerinella siphonifera", "sprite": "sp-anchoviella_juruasanga.png", "group": "other", "rarity": 1}, {"lat": -20.0, "lng": 178.0, "id": "127004", "name": "Glasseye", "thumb": "tn_Hecru_u1.jpg", "sprite": "sp-anchoviella_juruasanga.png", "group": "other", "rarity": 1, "waterType": "Saltwater"}, {"lat": -20.417, "lng": 178.23, "id": "113464", "name": "Globigerinita glutinata", "sprite": "sp-anchoviella_juruasanga.png", "group": "other", "rarity": 1}, {"lat": -21.6333, "lng": 178.75, "id": "272213", "name": "Dwarf squirrelfish", "thumb": "tn_Saiot_u0.jpg", "sprite": "sp-anchoviella_juruasanga.png", "group": "other", "rarity": 1, "waterType": "Saltwater"}, {"lat": -20.417, "lng": 178.23, "id": "113444", "name": "Globigerinoides ruber", "sprite": "sp-anchoviella_juruasanga.png", "group": "other", "rarity": 1}, {"lat": -21.6333, "lng": 178.75, "id": "278830", "name": "Twospined angelfish", "thumb": "tn_Cebis_ub.jpg", "sprite": "sp-holacanthus.png", "group": "angelfish", "rarity": 1, "waterType": "Saltwater"}, {"lat": -20.0167, "lng": 177.75, "id": "138279", "name": "Ommastrephes", "sprite": "sp-giant_pacific_octopus.png", "group": "octopus_squid", "rarity": 1}, {"lat": -20.417, "lng": 178.23, "id": "418110", "name": "Candeina nitida", "sprite": "sp-anchoviella_juruasanga.png", "group": "other", "rarity": 1}, {"lat": -20.6667, "lng": 178.7166, "id": "215457", "name": "Conus marmoreus", "sprite": "sp-cowrie_shell.png", "group": "sea_snail", "rarity": 1}, {"lat": -20.0833, "lng": 177.3833, "id": "212640", "name": "Daption capense", "sprite": "sp-anchoviella_juruasanga.png", "group": "other", "rarity": 1}, {"lat": -21.033, "lng": 178.5, "id": "126619", "name": "Pygmy lanternfish", "thumb": "tn_Lapus_u0.jpg", "sprite": "sp-anchoviella_juruasanga.png", "group": "other", "rarity": 1, "waterType": "Saltwater"}, {"lat": -21.033, "lng": 178.5, "id": "158889", "name": "Luetken's lanternfish", "thumb": "tn_Dilue_u0.jpg", "sprite": "sp-anchoviella_juruasanga.png", "group": "other", "rarity": 1, "waterType": "Saltwater"}, {"lat": -19.5, "lng": 178.3333, "id": "712907", "name": "Striped marlin", "thumb": "tn_Teaud_u3.jpg", "sprite": "sp-blue_marlin.png", "group": "swordfish", "rarity": 1, "waterType": "Saltwater"}, {"lat": -21.033, "lng": 178.5, "id": "158886", "name": "Spurcheek lanternfish", "thumb": "tn_Bopho_f0.gif", "sprite": "sp-anchoviella_juruasanga.png", "group": "other", "rarity": 1, "waterType": "Saltwater"}, {"lat": -20.7567, "lng": 179.16, "id": "137202", "name": "Puffinus griseus", "sprite": "sp-anchoviella_juruasanga.png", "group": "other", "rarity": 1}, {"lat": -20.9981, "lng": 178.4261, "id": "217721", "name": "Highseas lampfish", "thumb": "tn_Trnig_u0.gif", "sprite": "sp-anchoviella_juruasanga.png", "group": "other", "rarity": 1, "waterType": "Saltwater"}, {"lat": -20.6167, "lng": 178.6667, "id": "212844", "name": "Reticulate dascyllus", "thumb": "tn_Daret_ub.jpg", "sprite": "sp-chrysiptera_caesifrons.png", "group": "clownfish", "rarity": 1, "waterType": "Saltwater"}, {"lat": -21.65, "lng": 178.6833, "id": "280467", "name": "Oblique-lined dottyback", "thumb": "tn_Cypur_u0.jpg", "sprite": "sp-anchoviella_juruasanga.png", "group": "other", "rarity": 1, "waterType": "Saltwater"}, {"lat": -20.97, "lng": 178.74, "id": "441085", "name": "Ancylodactyla nana", "sprite": "sp-american_lobster.png", "group": "crab_lobster", "rarity": 1}, {"lat": -21.033, "lng": 178.5, "id": "126611", "name": "Dusky lanternfish", "thumb": "tn_Laate_u0.gif", "sprite": "sp-anchoviella_juruasanga.png", "group": "other", "rarity": 1, "waterType": "Saltwater"}, {"lat": -21.6333, "lng": 178.75, "id": "218741", "name": "Melon butterflyfish", "thumb": "tn_Chtri_ut.jpg", "sprite": "sp-chaetodon.png", "group": "butterflyfish", "rarity": 1, "waterType": "Saltwater"}, {"lat": -20.9283, "lng": 178.2783, "id": "127283", "name": "Bristlemouth", "thumb": "tn_Cyalb_u2.gif", "sprite": "sp-anchoviella_juruasanga.png", "group": "other", "rarity": 1, "waterType": "Saltwater"}, {"lat": -19.68, "lng": 178.18, "id": "392656", "name": "Paramunida belone", "sprite": "sp-american_lobster.png", "group": "crab_lobster", "rarity": 1}, {"lat": -21.033, "lng": 178.5, "id": "126181", "name": "Melamphaes", "sprite": "sp-anchoviella_juruasanga.png", "group": "other", "rarity": 1}, {"lat": -20.417, "lng": 178.23, "id": "113460", "name": "Orbulina universa", "sprite": "sp-anchoviella_juruasanga.png", "group": "other", "rarity": 1}, {"lat": -21.033, "lng": 178.5, "id": "125459", "name": "Trachichthyidae", "sprite": "sp-anchoviella_juruasanga.png", "group": "other", "rarity": 1}, {"lat": -21.033, "lng": 178.5, "id": "126629", "name": "Topside lampfish", "thumb": "tn_Noval_m0.gif", "sprite": "sp-anchoviella_juruasanga.png", "group": "other", "rarity": 1, "waterType": "Saltwater"}, {"lat": -21.033, "lng": 178.5, "id": "125519", "name": "Blenniidae", "sprite": "sp-helcogramma_ascensionis.png", "group": "blenny", "rarity": 1}, {"lat": -21.033, "lng": 178.5, "id": "217700", "name": "Firefly lanternfish", "thumb": "tn_Hypro_u1.gif", "sprite": "sp-anchoviella_juruasanga.png", "group": "other", "rarity": 1, "waterType": "Saltwater"}, {"lat": -20.6167, "lng": 178.6667, "id": "217937", "name": "Shy soldier", "thumb": "tn_Pllim_u6.jpg", "sprite": "sp-anchoviella_juruasanga.png", "group": "other", "rarity": 1, "waterType": "Saltwater"}, {"lat": -19.66, "lng": 178.17, "id": "377638", "name": "Sicyonia laevis", "sprite": "sp-american_lobster.png", "group": "crab_lobster", "rarity": 1}, {"lat": -20.417, "lng": 178.23, "id": "1026410", "name": "Globoconella inflata", "sprite": "sp-anchoviella_juruasanga.png", "group": "other", "rarity": 1}, {"lat": -20.95, "lng": 178.74, "id": "440452", "name": "Ethusa orientalis", "sprite": "sp-american_lobster.png", "group": "crab_lobster", "rarity": 1}, {"lat": -20.5, "lng": 178.8167, "id": "219729", "name": "Indo-Pacific blue marlin", "thumb": "tn_Mamaz_u2.jpg", "sprite": "sp-blue_marlin.png", "group": "swordfish", "rarity": 1, "waterType": "Saltwater"}, {"lat": -21.033, "lng": 178.5, "id": "126599", "name": "Longfin lanternfish", "thumb": "tn_Diatl_u1.gif", "sprite": "sp-anchoviella_juruasanga.png", "group": "other", "rarity": 1, "waterType": "Saltwater"}, {"lat": -19.69, "lng": 178.17, "id": "388328", "name": "Phos alabastrum", "sprite": "sp-cowrie_shell.png", "group": "sea_snail", "rarity": 1}, {"lat": -19.67, "lng": 178.175, "id": "392674", "name": "Paramunida thalie", "sprite": "sp-american_lobster.png", "group": "crab_lobster", "rarity": 1}, {"lat": -21.6333, "lng": 178.75, "id": "217506", "name": "Barredfin moray", "thumb": "tn_Gyzon_u3.jpg", "sprite": "sp-anarchias.png", "group": "moray", "rarity": 1, "waterType": "Saltwater"}, {"lat": -21.3056, "lng": 178.6778, "id": "712696", "name": "Iridescent cardinalfish", "thumb": "tn_Prkal_u0.jpg", "sprite": "sp-anchoviella_juruasanga.png", "group": "other", "rarity": 1, "waterType": "Brackish"}, {"lat": -20.95, "lng": 178.74, "id": "1605830", "name": "Garymunida squamosa", "sprite": "sp-american_lobster.png", "group": "crab_lobster", "rarity": 1}, {"lat": -20.95, "lng": 178.74, "id": "1609133", "name": "Trapezionida leptitis", "sprite": "sp-american_lobster.png", "group": "crab_lobster", "rarity": 1}, {"lat": -19.4225, "lng": 178.1557, "id": "137119", "name": "Physeter macrocephalus", "sprite": "sp-blue_whale.png", "group": "whale", "rarity": 1}, {"lat": -21.033, "lng": 178.5, "id": "125958", "name": "Pseudoscopelus", "sprite": "sp-anchoviella_juruasanga.png", "group": "other", "rarity": 1}, {"lat": -20.0833, "lng": 177.3833, "id": "212583", "name": "Diomedea exulans", "sprite": "sp-anchoviella_juruasanga.png", "group": "other", "rarity": 1}, {"lat": -20.4733, "lng": 178.2917, "id": "162472", "name": "Tubonemertes aureola", "sprite": "sp-anchoviella_juruasanga.png", "group": "other", "rarity": 1}, {"lat": -21.033, "lng": 178.5, "id": "126589", "name": "Short-headed lantern fish", "thumb": "tn_Dibra_u1.jpg", "sprite": "sp-anchoviella_juruasanga.png", "group": "other", "rarity": 1, "waterType": "Saltwater"}, {"lat": -20.0204, "lng": 178.2839, "id": "105839", "name": "Shortfin mako", "thumb": "tn_Isoxy_u0.jpg", "sprite": "sp-great_white_shark.png", "group": "shark", "rarity": 1, "waterType": "Saltwater"}, {"lat": -20.9283, "lng": 178.2783, "id": "127289", "name": "Slender bristlemouth", "thumb": "tn_Cypse_u1.gif", "sprite": "sp-anchoviella_juruasanga.png", "group": "other", "rarity": 1, "waterType": "Saltwater"}, {"lat": -20.417, "lng": 178.23, "id": "418114", "name": "Globorotalia tumida", "sprite": "sp-anchoviella_juruasanga.png", "group": "other", "rarity": 1}, {"lat": -21.6333, "lng": 178.75, "id": "273353", "name": "Sunset butterflyfish", "thumb": "tn_Chpel_u5.jpg", "sprite": "sp-chaetodon.png", "group": "butterflyfish", "rarity": 1, "waterType": "Saltwater"}, {"lat": -20.417, "lng": 178.23, "id": "221331", "name": "Pulleniatina obliquiloculata", "sprite": "sp-anchoviella_juruasanga.png", "group": "other", "rarity": 1}, {"lat": -20.0, "lng": 178.0, "id": "277176", "name": "Ocellate damselfish", "thumb": "tn_Povai_u2.jpg", "sprite": "sp-chrysiptera_caesifrons.png", "group": "clownfish", "rarity": 1, "waterType": "Saltwater"}, {"lat": -20.0, "lng": 178.0, "id": "277164", "name": "Philippine damsel", "thumb": "tn_Pophi_u0.jpg", "sprite": "sp-chrysiptera_caesifrons.png", "group": "clownfish", "rarity": 1, "waterType": "Saltwater"}, {"lat": -20.417, "lng": 178.23, "id": "113454", "name": "Globoturborotalita rubescens", "sprite": "sp-anchoviella_juruasanga.png", "group": "other", "rarity": 1}, {"lat": -20.95, "lng": 178.74, "id": "1607272", "name": "Trapezionida galaxaura", "sprite": "sp-american_lobster.png", "group": "crab_lobster", "rarity": 1}, {"lat": -20.1033, "lng": 178.3667, "id": "1609218", "name": "Trapezionida ommata", "sprite": "sp-american_lobster.png", "group": "crab_lobster", "rarity": 1}, {"lat": -20.9667, "lng": 178.75, "id": "457408", "name": "Epitonium bevdeynzerae", "sprite": "sp-cowrie_shell.png", "group": "sea_snail", "rarity": 1}, {"lat": -19.68, "lng": 178.18, "id": "1609271", "name": "Trapezionida runcinata", "sprite": "sp-american_lobster.png", "group": "crab_lobster", "rarity": 1}, {"lat": -21.6333, "lng": 178.75, "id": "278487", "name": "Honey-bee pygmygoby", "thumb": "tn_Trant_f0.jpg", "sprite": "sp-eviota_bipunctata.png", "group": "goby", "rarity": 1, "waterType": "Saltwater"}, {"lat": -21.5833, "lng": 177.55, "id": "567827", "name": "Onychoprion fuscatus", "sprite": "sp-anchoviella_juruasanga.png", "group": "other", "rarity": 1}, {"lat": -19.65, "lng": 178.17, "id": "382958", "name": "Galearctus kitanoviriosus", "sprite": "sp-american_lobster.png", "group": "crab_lobster", "rarity": 1}, {"lat": -20.9283, "lng": 178.2783, "id": "127314", "name": "Diaphanous hatchet fish", "thumb": "tn_Stdia_u7.jpg", "sprite": "sp-anchoviella_juruasanga.png", "group": "other", "rarity": 1, "waterType": "Saltwater"}, {"lat": -21.633, "lng": 178.75, "id": "138268", "name": "Octopus", "sprite": "sp-giant_pacific_octopus.png", "group": "octopus_squid", "rarity": 1}, {"lat": -21.6333, "lng": 178.75, "id": "409004", "name": "Pseudosquillana richeri", "sprite": "sp-american_lobster.png", "group": "crab_lobster", "rarity": 1}, {"lat": -20.417, "lng": 178.23, "id": "418107", "name": "Globigerinoides tenellus", "sprite": "sp-anchoviella_juruasanga.png", "group": "other", "rarity": 1}, {"lat": -21.5833, "lng": 177.55, "id": "344045", "name": "Gygis alba", "sprite": "sp-anchoviella_juruasanga.png", "group": "other", "rarity": 1}, {"lat": -21.033, "lng": 178.5, "id": "151470", "name": "Pomacanthidae", "sprite": "sp-pomacanthidae.png", "group": "angelfish", "rarity": 1}, {"lat": -20.617, "lng": 178.667, "id": "210788", "name": "Octopus cyanea", "sprite": "sp-giant_pacific_octopus.png", "group": "octopus_squid", "rarity": 1}, {"lat": -21.033, "lng": 178.5, "id": "159667", "name": "Pseudoscopelus scriptus", "thumb": "tn_Psscr_u1.jpg", "sprite": "sp-anchoviella_juruasanga.png", "group": "other", "rarity": 1, "waterType": "Saltwater"}, {"lat": -21.033, "lng": 178.5, "id": "126610", "name": "Winged lanternfish", "thumb": "tn_Laala_u0.gif", "sprite": "sp-anchoviella_juruasanga.png", "group": "other", "rarity": 1, "waterType": "Saltwater"}, {"lat": -19.68, "lng": 178.18, "id": "390295", "name": "Anoplonida patae", "sprite": "sp-american_lobster.png", "group": "crab_lobster", "rarity": 1}, {"lat": -20.9981, "lng": 178.4261, "id": "126604", "name": "Reinhardt's lantern fish", "thumb": "tn_Larei_u1.gif", "sprite": "sp-anchoviella_juruasanga.png", "group": "other", "rarity": 1, "waterType": "Saltwater"}, {"lat": -20.0167, "lng": 177.75, "id": "236568", "name": "Lestrigonus bengalensis", "sprite": "sp-american_lobster.png", "group": "crab_lobster", "rarity": 1}, {"lat": -21.033, "lng": 178.5, "id": "125541", "name": "Labridae", "sprite": "sp-cleaner_wrasse.png", "group": "wrasse", "rarity": 1}, {"lat": -21.033, "lng": 178.5, "id": "151787", "name": "Scarinae", "sprite": "sp-rainbow_parrotfish.png", "group": "parrotfish", "rarity": 1}, {"lat": -20.96, "lng": 178.74, "id": "1609294", "name": "Trapezionida tuberculata", "sprite": "sp-american_lobster.png", "group": "crab_lobster", "rarity": 1}, {"lat": -20.0167, "lng": 177.75, "id": "236613", "name": "Anchylomera blossevillei", "sprite": "sp-american_lobster.png", "group": "crab_lobster", "rarity": 1}, {"lat": -19.6733, "lng": 178.17, "id": "1607280", "name": "Trapezionida guttata", "sprite": "sp-american_lobster.png", "group": "crab_lobster", "rarity": 1}]}