{"zoom": 7, "x": 127, "y": 60, "points": [{"lat": 9.98, "lng": 179.98, "id": "1066", "name": "Crustacea", "sprite": "sp-anchoviella_juruasanga.png", "group": "other", "rarity": 1}, {"lat": 9.5801, "lng": 179.5708, "id": "280483", "name": "Bottlelights", "sprite": "sp-anchoviella_juruasanga.png", "group": "other", "rarity": 1, "waterType": "Saltwater"}, {"lat": 9.98, "lng": 179.98, "id": "137214", "name": "Salpida", "sprite": "sp-anchoviella_juruasanga.png", "group": "other", "rarity": 1}, {"lat": 9.98, "lng": 179.98, "id": "1078", "name": "Ostracoda", "sprite": "sp-anchoviella_juruasanga.png", "group": "other", "rarity": 1}, {"lat": 9.5609, "lng": 179.5408, "id": "274967", "name": "Argyropelecus olfersii", "thumb": "tn_Arolf_u0.jpg", "sprite": "sp-anchoviella_juruasanga.png", "group": "other", "rarity": 1, "waterType": "Saltwater"}, {"lat": 9.98, "lng": 179.98, "id": "553074", "name": "Dictyocha messanensis", "sprite": "sp-anchoviella_juruasanga.png", "group": "other", "rarity": 1}, {"lat": 9.98, "lng": 179.98, "id": "137213", "name": "Pyrosomatida", "sprite": "sp-anchoviella_juruasanga.png", "group": "other", "rarity": 1}, {"lat": 9.5705, "lng": 179.5558, "id": "275004", "name": "Sternoptyx obscura", "thumb": "tn_Stobs_u0.jpg", "sprite": "sp-anchoviella_juruasanga.png", "group": "other", "rarity": 1, "waterType": "Saltwater"}, {"lat": 9.5609, "lng": 179.5408, "id": "125650", "name": "Serrivomer", "sprite": "sp-electric_eel.png", "group": "eel", "rarity": 1}, {"lat": 9.98, "lng": 179.98, "id": "103357", "name": "Appendicularia", "sprite": "sp-anchoviella_juruasanga.png", "group": "other", "rarity": 1}, {"lat": 9.5801, "lng": 179.5708, "id": "126194", "name": "Vinciguerria", "sprite": "sp-anchoviella_juruasanga.png", "group": "other", "rarity": 1}, {"lat": 9.98, "lng": 179.98, "id": "11707", "name": "Cephalopoda", "sprite": "sp-giant_pacific_octopus.png", "group": "octopus_squid", "rarity": 1}, {"lat": 9.5705, "lng": 179.5558, "id": "154831", "name": "Showy bristlemouth", "thumb": "tn_Cysig_u1.jpg", "sprite": "sp-anchoviella_juruasanga.png", "group": "other", "rarity": 1, "waterType": "Saltwater"}, {"lat": 9.5609, "lng": 179.5408, "id": "126204", "name": "Borostomias", "sprite": "sp-anchoviella_juruasanga.png", "group": "other", "rarity": 1}, {"lat": 9.5705, "lng": 179.5558, "id": "127282", "name": "Benttooth bristlemouth", "thumb": "tn_Cyacc_u0.jpg", "sprite": "sp-anchoviella_juruasanga.png", "group": "other", "rarity": 1, "waterType": "Saltwater"}, {"lat": 9.5801, "lng": 179.5708, "id": "127315", "name": "Highlight hatchetfish", "thumb": "tn_Stpse_u3.jpg", "sprite": "sp-anchoviella_juruasanga.png", "group": "other", "rarity": 1, "waterType": "Saltwater"}, {"lat": 9.5801, "lng": 179.5708, "id": "127283", "name": "Bristlemouth", "thumb": "tn_Cyalb_u2.gif", "sprite": "sp-anchoviella_juruasanga.png", "group": "other", "rarity": 1, "waterType": "Saltwater"}, {"lat": 9.98, "lng": 179.98, "id": "51", "name": "Mollusca", "sprite": "sp-anchoviella_juruasanga.png", "group": "other", "rarity": 1}, {"lat": 9.5, "lng": 178.0, "id": "137202", "name": "Puffinus griseus", "sprite": "sp-anchoviella_juruasanga.png", "group": "other", "rarity": 1}, {"lat": 9.5709, "lng": 179.5706, "id": "205260", "name": "Lactoria", "sprite": "sp-anchoviella_juruasanga.png", "group": "other", "rarity": 1}, {"lat": 9.5801, "lng": 179.5708, "id": "125448", "name": "Scopelarchidae", "sprite": "sp-anchoviella_juruasanga.png", "group": "other", "rarity": 1}, {"lat": 9.98, "lng": 179.98, "id": "1267", "name": "Cnidaria", "sprite": "sp-anchoviella_juruasanga.png", "group": "other", "rarity": 1}, {"lat": 9.98, "lng": 179.98, "id": "1806", "name": "Echinodermata", "sprite": "sp-sea_cucumber.png", "group": "starfish", "rarity": 1}, {"lat": 9.5609, "lng": 179.5408, "id": "274961", "name": "Panama lightfish", "thumb": "tn_Viluc_u0.jpg", "sprite": "sp-anchoviella_juruasanga.png", "group": "other", "rarity": 1, "waterType": "Saltwater"}, {"lat": 9.98, "lng": 179.98, "id": "13703", "name": "Thecosomata", "sprite": "sp-cowrie_shell.png", "group": "sea_snail", "rarity": 1}, {"lat": 9.98, "lng": 179.98, "id": "106730", "name": "Luciferidae", "sprite": "sp-american_lobster.png", "group": "crab_lobster", "rarity": 1}, {"lat": 9.98, "lng": 179.98, "id": "626988", "sprite": "sp-anchoviella_juruasanga.png", "group": "other", "rarity": 1}, {"lat": 9.98, "lng": 179.98, "id": "1410", "name": "Foraminifera", "sprite": "sp-anchoviella_juruasanga.png", "group": "other", "rarity": 1}, {"lat": 9.5609, "lng": 179.5408, "id": "127273", "name": "Crested bigscale", "thumb": "tn_Pocra_u0.gif", "sprite": "sp-anchoviella_juruasanga.png", "group": "other", "rarity": 1, "waterType": "Saltwater"}, {"lat": 9.98, "lng": 179.98, "id": "5", "name": "Protozoa", "sprite": "sp-anchoviella_juruasanga.png", "group": "other", "rarity": 1}, {"lat": 9.98, "lng": 179.98, "id": "11676", "name": "Pisces", "sprite": "sp-anchoviella_juruasanga.png", "group": "other", "rarity": 1}, {"lat": 8.5, "lng": 179.1, "id": "167559", "name": "Clathria (Clathria) pellicula", "sprite": "sp-barrel_sponge.png", "group": "sponge", "rarity": 1}, {"lat": 9.5609, "lng": 179.5408, "id": "127293", "name": "Atlantic fangjaw", "thumb": "tn_Goatl_u0.gif", "sprite": "sp-anchoviella_juruasanga.png", "group": "other", "rarity": 1, "waterType": "Saltwater"}, {"lat": 9.5609, "lng": 179.5408, "id": "127165", "name": "Pelican eel", "thumb": "tn_Eupel_u4.jpg", "sprite": "sp-anchoviella_juruasanga.png", "group": "other", "rarity": 1, "waterType": "Saltwater"}, {"lat": 9.98, "lng": 179.98, "id": "387338", "name": "Pterotracheoidea", "sprite": "sp-cowrie_shell.png", "group": "sea_snail", "rarity": 1}, {"lat": 9.5753, "lng": 179.5633, "id": "127288", "name": "Tan bristlemouth", "thumb": "tn_Cypal_u0.gif", "sprite": "sp-anchoviella_juruasanga.png", "group": "other", "rarity": 1, "waterType": "Saltwater"}, {"lat": 9.98, "lng": 179.98, "id": "1135", "name": "Amphipoda", "sprite": "sp-american_lobster.png", "group": "crab_lobster", "rarity": 1}, {"lat": 9.98, "lng": 179.98, "id": "1080", "name": "Copepoda", "sprite": "sp-anchoviella_juruasanga.png", "group": "other", "rarity": 1}, {"lat": 9.98, "lng": 179.98, "id": "141097", "name": "Pterygioteuthis giardi", "sprite": "sp-giant_pacific_octopus.png", "group": "octopus_squid", "rarity": 1}, {"lat": 9.5609, "lng": 179.5408, "id": "126196", "name": "Argyropelecus", "sprite": "sp-anchoviella_juruasanga.png", "group": "other", "rarity": 1}, {"lat": 9.98, "lng": 179.98, "id": "1248", "name": "Ctenophora", "sprite": "sp-anchoviella_juruasanga.png", "group": "other", "rarity": 1}, {"lat": 9.5609, "lng": 179.5408, "id": "126181", "name": "Melamphaes", "sprite": "sp-anchoviella_juruasanga.png", "group": "other", "rarity": 1}, {"lat": 9.5609, "lng": 179.5408, "id": "126184", "name": "Scopelogadus", "sprite": "sp-anchoviella_juruasanga.png", "group": "other", "rarity": 1}, {"lat": 9.5609, "lng": 179.5408, "id": "268947", "name": "Danaphos", "sprite": "sp-anchoviella_juruasanga.png", "group": "other", "rarity": 1}, {"lat": 9.98, "lng": 179.98, "id": "883", "name": "Polychaeta", "sprite": "sp-anchoviella_juruasanga.png", "group": "other", "rarity": 1}, {"lat": 9.98, "lng": 179.98, "id": "137212", "name": "Doliolida", "sprite": "sp-anchoviella_juruasanga.png", "group": "other", "rarity": 1}, {"lat": 9.5609, "lng": 179.5408, "id": "279335", "name": "Ebeling's fangjaw", "sprite": "sp-anchoviella_juruasanga.png", "group": "other", "rarity": 1, "waterType": "Saltwater"}, {"lat": 10.0, "lng": 178.5, "id": "137209", "name": "Dermochelys coriacea", "sprite": "sp-green_sea_turtle.png", "group": "sea_turtle", "rarity": 1}, {"lat": 9.98, "lng": 179.98, "id": "582421", "name": "Radiozoa", "sprite": "sp-anchoviella_juruasanga.png", "group": "other", "rarity": 1}, {"lat": 9.5659, "lng": 179.5557, "id": "125825", "name": "Lampanyctus", "sprite": "sp-anchoviella_juruasanga.png", "group": "other", "rarity": 1}, {"lat": 9.98, "lng": 179.98, "id": "138848", "name": "Bathyteuthis abyssicola", "sprite": "sp-giant_pacific_octopus.png", "group": "octopus_squid", "rarity": 1}, {"lat": 10.0411, "lng": 178.5097, "id": "220293", "name": "Lepidochelys olivacea", "sprite": "sp-green_sea_turtle.png", "group": "sea_turtle", "rarity": 1}, {"lat": 9.5609, "lng": 179.5408, "id": "126687", "name": "Bigeye smooth-head", "thumb": "tn_Bameg_u6.jpg", "sprite": "sp-anchoviella_juruasanga.png", "group": "other", "rarity": 1, "waterType": "Saltwater"}, {"lat": 9.5705, "lng": 179.5558, "id": "127289", "name": "Slender bristlemouth", "thumb": "tn_Cypse_u1.gif", "sprite": "sp-anchoviella_juruasanga.png", "group": "other", "rarity": 1, "waterType": "Saltwater"}, {"lat": 9.5801, "lng": 179.5708, "id": "126199", "name": "Sternoptyx", "sprite": "sp-anchoviella_juruasanga.png", "group": "other", "rarity": 1}, {"lat": 9.98, "lng": 179.98, "id": "155670", "name": "Diplostraca", "sprite": "sp-anchoviella_juruasanga.png", "group": "other", "rarity": 1}, {"lat": 9.5709, "lng": 179.5706, "id": "126096", "name": "Benthodesmus", "sprite": "sp-anchoviella_juruasanga.png", "group": "other", "rarity": 1}, {"lat": 9.5801, "lng": 179.5708, "id": "126183", "name": "Scopeloberyx", "sprite": "sp-anchoviella_juruasanga.png", "group": "other", "rarity": 1}, {"lat": 9.5801, "lng": 179.5708, "id": "127314", "name": "Diaphanous hatchet fish", "thumb": "tn_Stdia_u7.jpg", "sprite": "sp-anchoviella_juruasanga.png", "group": "other", "rarity": 1, "waterType": "Saltwater"}, {"lat": 9.98, "lng": 179.98, "id": "2081", "name": "Chaetognatha", "sprite": "sp-anchoviella_juruasanga.png", "group": "other", "rarity": 1}]}