{"zoom": 7, "x": 12, "y": 35, "points": [{"lat": 62.5, "lng": -144.5, "id": "344104", "name": "Phoebastria immutabilis", "sprite": "sp-anchoviella_juruasanga.png", "group": "other", "rarity": 1}, {"lat": 62.4895, "lng": -146.2185, "id": "127185", "name": "Rainbow trout", "thumb": "tn_Onmyk_f0.jpg", "sprite": "sp-atlantic_salmon.png", "group": "salmon_trout", "rarity": 1, "waterType": "Brackish"}, {"lat": 62.4167, "lng": -146.25, "id": "126505", "name": "Three-spined stickleback", "thumb": "tn_Gaacu_u1.jpg", "sprite": "sp-anchoviella_juruasanga.png", "group": "other", "rarity": 1, "waterType": "Brackish"}, {"lat": 62.5659, "lng": -144.6644, "id": "1506654", "name": "Canis latrans", "sprite": "sp-anchoviella_juruasanga.png", "group": "other", "rarity": 1}, {"lat": 61.75, "lng": -145.719, "id": "158726", "name": "Lake whitefish", "thumb": "tn_Coclu_u0.jpg", "sprite": "sp-atlantic_salmon.png", "group": "salmon_trout", "rarity": 1, "waterType": "Brackish"}, {"lat": 62.6076, "lng": -144.5638, "id": "101173", "name": "Arctic lamprey", "thumb": "tn_Lecam_u0.jpg", "sprite": "sp-pacific_lamprey.png", "group": "lamprey", "rarity": 1, "waterType": "Brackish"}, {"lat": 61.9574, "lng": -145.2889, "id": "314348", "name": "Pacific lamprey", "thumb": "tn_Latri_u3.jpg", "sprite": "sp-pacific_lamprey.png", "group": "lamprey", "rarity": 1, "waterType": "Brackish"}, {"lat": 62.8554, "lng": -145.5987, "id": "126139", "name": "Coregonus", "sprite": "sp-atlantic_salmon.png", "group": "salmon_trout", "rarity": 1}, {"lat": 62.5, "lng": -144.65, "id": "127183", "name": "Chum salmon", "thumb": "tn_Onket_m0.jpg", "sprite": "sp-atlantic_salmon.png", "group": "salmon_trout", "rarity": 1, "waterType": "Brackish"}, {"lat": 62.8554, "lng": -145.5987, "id": "126140", "name": "Oncorhynchus", "sprite": "sp-atlantic_salmon.png", "group": "salmon_trout", "rarity": 1}, {"lat": 62.4668, "lng": -144.7342, "id": "158075", "name": "Chinook salmon", "thumb": "tn_Ontsh_m1.jpg", "sprite": "sp-atlantic_salmon.png", "group": "salmon_trout", "rarity": 1, "waterType": "Brackish"}, {"lat": 62.4607, "lng": -144.996, "id": "282373", "name": "Round whitefish", "thumb": "tn_Prcyl_u1.jpg", "sprite": "sp-atlantic_salmon.png", "group": "salmon_trout", "rarity": 1, "waterType": "Brackish"}, {"lat": 62.3634, "lng": -145.297, "id": "158706", "name": "Longnose sucker", "thumb": "tn_Cacat_u3.jpg", "sprite": "sp-anchoviella_juruasanga.png", "group": "other", "rarity": 1, "waterType": "Brackish"}, {"lat": 62.27, "lng": -145.37, "id": "127184", "name": "Coho salmon", "thumb": "tn_Onkis_m3.jpg", "sprite": "sp-atlantic_salmon.png", "group": "salmon_trout", "rarity": 1, "waterType": "Brackish"}, {"lat": 61.8786, "lng": -145.5963, "id": "1506689", "name": "Canis lupus", "sprite": "sp-anchoviella_juruasanga.png", "group": "other", "rarity": 1}, {"lat": 62.2892, "lng": -145.0527, "id": "159512", "name": "Slimy sculpin", "thumb": "tn_Cocog_u0.jpg", "sprite": "sp-anchoviella_juruasanga.png", "group": "other", "rarity": 1, "waterType": "Brackish"}, {"lat": 62.4573, "lng": -144.2755, "id": "154388", "name": "Burbot", "thumb": "tn_Lolot_u0.jpg", "sprite": "sp-anchoviella_juruasanga.png", "group": "other", "rarity": 1, "waterType": "Brackish"}, {"lat": 62.3909, "lng": -145.0505, "id": "254570", "name": "Dolly varden", "thumb": "tn_Samal_m0.jpg", "sprite": "sp-atlantic_salmon.png", "group": "salmon_trout", "rarity": 1, "waterType": "Brackish"}, {"lat": 62.5386, "lng": -144.6277, "id": "254569", "name": "Sockeye salmon", "thumb": "tn_Onner_f0.jpg", "sprite": "sp-atlantic_salmon.png", "group": "salmon_trout", "rarity": 1, "waterType": "Brackish"}]}