{"zoom": 7, "x": 12, "y": 57, "points": [{"lat": 18.3, "lng": -144.1, "id": "158749", "name": "Stemonosudis", "sprite": "sp-anchoviella_juruasanga.png", "group": "other", "rarity": 1}, {"lat": 18.3, "lng": -144.1, "id": "127275", "name": "Scopeloberyx opisthopterus", "thumb": "tn_Scopi_u0.gif", "sprite": "sp-anchoviella_juruasanga.png", "group": "other", "rarity": 1, "waterType": "Saltwater"}, {"lat": 18.415, "lng": -145.04, "id": "225986", "name": "Puffinus bulleri", "sprite": "sp-anchoviella_juruasanga.png", "group": "other", "rarity": 1}, {"lat": 18.5, "lng": -145.5, "id": "137202", "name": "Puffinus griseus", "sprite": "sp-anchoviella_juruasanga.png", "group": "other", "rarity": 1}, {"lat": 18.3, "lng": -144.1, "id": "126194", "name": "Vinciguerria", "sprite": "sp-anchoviella_juruasanga.png", "group": "other", "rarity": 1}, {"lat": 18.3, "lng": -144.1, "id": "301537", "name": "Black lantern fish", "sprite": "sp-anchoviella_juruasanga.png", "group": "other", "rarity": 1, "waterType": "Saltwater"}, {"lat": 18.333, "lng": -144.083, "id": "11716", "name": "Teuthida", "sprite": "sp-giant_pacific_octopus.png", "group": "octopus_squid", "rarity": 1}, {"lat": 18.25, "lng": -144.5, "id": "137209", "name": "Dermochelys coriacea", "sprite": "sp-green_sea_turtle.png", "group": "sea_turtle", "rarity": 1}, {"lat": 18.3, "lng": -144.1, "id": "125447", "name": "Paralepididae", "sprite": "sp-anchoviella_juruasanga.png", "group": "other", "rarity": 1}, {"lat": 16.716, "lng": -145.684, "id": "216254", "name": "Nerita albicilla", "sprite": "sp-cowrie_shell.png", "group": "sea_snail", "rarity": 1}, {"lat": 18.3, "lng": -144.1, "id": "158752", "name": "Fierce pike smelt", "sprite": "sp-anchoviella_juruasanga.png", "group": "other", "rarity": 1, "waterType": "Saltwater"}, {"lat": 18.2116, "lng": -144.707, "id": "355925", "name": "Stygiopontius stabilitus", "sprite": "sp-anchoviella_juruasanga.png", "group": "other", "rarity": 1}, {"lat": 18.3, "lng": -144.1, "id": "275052", "name": "Panama snaggletooth", "sprite": "sp-anchoviella_juruasanga.png", "group": "other", "rarity": 1, "waterType": "Saltwater"}, {"lat": 17.267, "lng": -144.633, "id": "341831", "name": "Abralia heminuchalis", "sprite": "sp-giant_pacific_octopus.png", "group": "octopus_squid", "rarity": 1}, {"lat": 19.0, "lng": -144.0, "id": "129829", "name": "Eurythoe complanata", "sprite": "sp-anchoviella_juruasanga.png", "group": "other", "rarity": 1}, {"lat": 18.3, "lng": -144.1, "id": "275009", "name": "Twinlobe snaggletooth", "sprite": "sp-anchoviella_juruasanga.png", "group": "other", "rarity": 1, "waterType": "Saltwater"}, {"lat": 18.3, "lng": -144.1, "id": "1525477", "name": "Lampanyctus crypticus", "sprite": "sp-anchoviella_juruasanga.png", "group": "other", "rarity": 1, "waterType": "Saltwater"}, {"lat": 18.3, "lng": -144.1, "id": "127358", "name": "Stoplight loosejaw", "thumb": "tn_Manig_u6.jpg", "sprite": "sp-anchoviella_juruasanga.png", "group": "other", "rarity": 1, "waterType": "Saltwater"}, {"lat": 18.3, "lng": -144.1, "id": "125622", "name": "Ariosoma", "sprite": "sp-electric_eel.png", "group": "eel", "rarity": 1}, {"lat": 18.3, "lng": -144.1, "id": "126187", "name": "Cyclothone", "sprite": "sp-anchoviella_juruasanga.png", "group": "other", "rarity": 1}, {"lat": 17.807, "lng": -144.1427, "id": "220293", "name": "Lepidochelys olivacea", "sprite": "sp-green_sea_turtle.png", "group": "sea_turtle", "rarity": 1}, {"lat": 18.3, "lng": -144.1, "id": "127283", "name": "Bristlemouth", "thumb": "tn_Cyalb_u2.gif", "sprite": "sp-anchoviella_juruasanga.png", "group": "other", "rarity": 1, "waterType": "Saltwater"}, {"lat": 18.367, "lng": -144.733, "id": "11707", "name": "Cephalopoda", "sprite": "sp-giant_pacific_octopus.png", "group": "octopus_squid", "rarity": 1}, {"lat": 18.2116, "lng": -144.707, "id": "350037", "name": "Chasmatopontius thescalus", "sprite": "sp-anchoviella_juruasanga.png", "group": "other", "rarity": 1}, {"lat": 18.3, "lng": -144.1, "id": "154831", "name": "Showy bristlemouth", "thumb": "tn_Cysig_u1.jpg", "sprite": "sp-anchoviella_juruasanga.png", "group": "other", "rarity": 1, "waterType": "Saltwater"}]}