{"zoom": 7, "x": 13, "y": 48, "points": [{"lat": 40.4667, "lng": -141.9167, "id": "275007", "name": "Shiny loosejaw", "sprite": "sp-anchoviella_juruasanga.png", "group": "other", "rarity": 1, "waterType": "Saltwater"}, {"lat": 39.5667, "lng": -142.4883, "id": "149668", "name": "Mysida", "sprite": "sp-american_lobster.png", "group": "crab_lobster", "rarity": 1}, {"lat": 39.6383, "lng": -141.9533, "id": "274803", "name": "Sebastes inermis", "thumb": "tn_Seine_u0.jpg", "sprite": "sp-anchoviella_juruasanga.png", "group": "other", "rarity": 1, "waterType": "Saltwater"}, {"lat": 40.6167, "lng": -143.4167, "id": "272926", "name": "Bluethroat argentine", "sprite": "sp-anchoviella_juruasanga.png", "group": "other", "rarity": 1, "waterType": "Saltwater"}, {"lat": 40.6167, "lng": -143.4167, "id": "282178", "name": "Giant lampfish", "sprite": "sp-anchoviella_juruasanga.png", "group": "other", "rarity": 1, "waterType": "Saltwater"}, {"lat": 39.6, "lng": -141.9, "id": "127370", "name": "Photonectes margarita", "thumb": "tn_Phmar_u0.gif", "sprite": "sp-anchoviella_juruasanga.png", "group": "other", "rarity": 1, "waterType": "Saltwater"}, {"lat": 40.5417, "lng": -142.6667, "id": "301548", "name": "Broadfin lampfish", "sprite": "sp-anchoviella_juruasanga.png", "group": "other", "rarity": 1, "waterType": "Saltwater"}, {"lat": 40.2042, "lng": -142.4167, "id": "272731", "name": "California flashlightfish", "thumb": "tn_Prcro_u0.gif", "sprite": "sp-anchoviella_juruasanga.png", "group": "other", "rarity": 1, "waterType": "Saltwater"}, {"lat": 40.4667, "lng": -141.9167, "id": "126721", "name": "Bigscale deepsea smelt", "thumb": "tn_Meber_u1.jpg", "sprite": "sp-anchoviella_juruasanga.png", "group": "other", "rarity": 1, "waterType": "Saltwater"}, {"lat": 40.6167, "lng": -143.4167, "id": "272694", "name": "California headlightfish", "thumb": "tn_Dithe_u0.jpg", "sprite": "sp-anchoviella_juruasanga.png", "group": "other", "rarity": 1, "waterType": "Saltwater"}, {"lat": 40.6167, "lng": -143.4167, "id": "126486", "name": "Blue antimora", "thumb": "tn_Anros_u3.jpg", "sprite": "sp-anchoviella_juruasanga.png", "group": "other", "rarity": 1, "waterType": "Saltwater"}, {"lat": 39.7552, "lng": -142.1085, "id": "344106", "name": "Phoebastria nigripes", "sprite": "sp-anchoviella_juruasanga.png", "group": "other", "rarity": 1}, {"lat": 40.5417, "lng": -142.6667, "id": "274943", "name": "Deep-water bristlemouth", "thumb": "tn_Cypac_u0.gif", "sprite": "sp-anchoviella_juruasanga.png", "group": "other", "rarity": 1, "waterType": "Saltwater"}, {"lat": 40.5417, "lng": -142.6667, "id": "154831", "name": "Showy bristlemouth", "thumb": "tn_Cysig_u1.jpg", "sprite": "sp-anchoviella_juruasanga.png", "group": "other", "rarity": 1, "waterType": "Saltwater"}, {"lat": 39.5833, "lng": -141.2535, "id": "254997", "name": "Callorhinus ursinus", "sprite": "sp-elephant_seal.png", "group": "seal", "rarity": 1}, {"lat": 40.979, "lng": -140.719, "id": "235923", "name": "Calcidiscus leptoporus", "sprite": "sp-anchoviella_juruasanga.png", "group": "other", "rarity": 1}, {"lat": 40.4667, "lng": -141.9167, "id": "125821", "name": "Electrona", "sprite": "sp-anchoviella_juruasanga.png", "group": "other", "rarity": 1}, {"lat": 40.0087, "lng": -141.7192, "id": "344104", "name": "Phoebastria immutabilis", "sprite": "sp-anchoviella_juruasanga.png", "group": "other", "rarity": 1}, {"lat": 39.8778, "lng": -141.8944, "id": "275046", "name": "Highfin dragonfish", "sprite": "sp-anchoviella_juruasanga.png", "group": "other", "rarity": 1, "waterType": "Saltwater"}, {"lat": 40.0, "lng": -141.9167, "id": "255018", "name": "Mirounga angustirostris", "sprite": "sp-elephant_seal.png", "group": "seal", "rarity": 1}, {"lat": 40.6167, "lng": -143.4167, "id": "271904", "name": "Avocettina bowersii", "sprite": "sp-electric_eel.png", "group": "eel", "rarity": 1, "waterType": "Saltwater"}, {"lat": 39.6383, "lng": -141.9533, "id": "274861", "name": "Sebastes trivittatus", "thumb": "tn_Setri_u0.jpg", "sprite": "sp-anchoviella_juruasanga.png", "group": "other", "rarity": 1, "waterType": "Saltwater"}, {"lat": 39.9167, "lng": -141.0, "id": "117200", "name": "Velella", "sprite": "sp-anchoviella_juruasanga.png", "group": "other", "rarity": 1}, {"lat": 40.5417, "lng": -142.6667, "id": "127309", "name": "Half-naked hatchetfish", "thumb": "tn_Arhem_u6.jpg", "sprite": "sp-anchoviella_juruasanga.png", "group": "other", "rarity": 1, "waterType": "Saltwater"}, {"lat": 40.6167, "lng": -143.4167, "id": "272919", "name": "Slender blacksmelt", "thumb": "tn_Bapac_u0.jpg", "sprite": "sp-anchoviella_juruasanga.png", "group": "other", "rarity": 1, "waterType": "Saltwater"}, {"lat": 40.4667, "lng": -141.9167, "id": "282922", "name": "Longfin dragonfish", "sprite": "sp-anchoviella_juruasanga.png", "group": "other", "rarity": 1, "waterType": "Saltwater"}, {"lat": 40.5417, "lng": -142.6667, "id": "280483", "name": "Bottlelights", "sprite": "sp-anchoviella_juruasanga.png", "group": "other", "rarity": 1, "waterType": "Saltwater"}, {"lat": 40.5417, "lng": -142.6667, "id": "281374", "name": "Eared blacksmelt", "thumb": "tn_Lioch_u1.jpg", "sprite": "sp-anchoviella_juruasanga.png", "group": "other", "rarity": 1, "waterType": "Saltwater"}, {"lat": 40.4667, "lng": -141.9167, "id": "272716", "name": "Lampanyctus simulator", "sprite": "sp-anchoviella_juruasanga.png", "group": "other", "rarity": 1, "waterType": "Saltwater"}, {"lat": 40.5417, "lng": -142.6667, "id": "158837", "name": "Sladen's hatchet fish", "thumb": "tn_Arsla_u0.jpg", "sprite": "sp-anchoviella_juruasanga.png", "group": "other", "rarity": 1, "waterType": "Saltwater"}, {"lat": 39.7417, "lng": -142.6736, "id": "301517", "name": "Lampanyctus fernae", "sprite": "sp-anchoviella_juruasanga.png", "group": "other", "rarity": 1, "waterType": "Saltwater"}, {"lat": 39.9361, "lng": -142.1778, "id": "275151", "name": "Pacific blackdragon", "thumb": "tn_Idant_u0.jpg", "sprite": "sp-anchoviella_juruasanga.png", "group": "other", "rarity": 1, "waterType": "Saltwater"}, {"lat": 40.4667, "lng": -141.9167, "id": "126596", "name": "White-spotted lantern fish", "thumb": "tn_Diraf_j0.jpg", "sprite": "sp-anchoviella_juruasanga.png", "group": "other", "rarity": 1, "waterType": "Saltwater"}, {"lat": 39.9967, "lng": -142.3967, "id": "274932", "name": "Highsnout melamphid", "sprite": "sp-anchoviella_juruasanga.png", "group": "other", "rarity": 1, "waterType": "Saltwater"}, {"lat": 40.4667, "lng": -141.9167, "id": "125760", "name": "Melanonus", "sprite": "sp-anchoviella_juruasanga.png", "group": "other", "rarity": 1}, {"lat": 40.6167, "lng": -143.4167, "id": "275055", "name": "Pacific viperfish", "thumb": "tn_Chmac_ui.jpg", "sprite": "sp-anchoviella_juruasanga.png", "group": "other", "rarity": 1, "waterType": "Saltwater"}, {"lat": 40.4667, "lng": -141.9167, "id": "254363", "name": "Northern lampfish", "thumb": "tn_Stleu_u3.gif", "sprite": "sp-anchoviella_juruasanga.png", "group": "other", "rarity": 1, "waterType": "Saltwater"}, {"lat": 40.2278, "lng": -142.4111, "id": "281926", "name": "Pitgum lanternfish", "thumb": "tn_Opmit_u0.gif", "sprite": "sp-anchoviella_juruasanga.png", "group": "other", "rarity": 1, "waterType": "Saltwater"}, {"lat": 40.5417, "lng": -142.6667, "id": "272712", "name": "Brokenline lanternfish", "thumb": "tn_Lajor_u0.jpg", "sprite": "sp-anchoviella_juruasanga.png", "group": "other", "rarity": 1, "waterType": "Saltwater"}, {"lat": 40.6167, "lng": -143.4167, "id": "254364", "name": "Garnet lanternfish", "thumb": "tn_Stnan_u0.gif", "sprite": "sp-anchoviella_juruasanga.png", "group": "other", "rarity": 1, "waterType": "Saltwater"}, {"lat": 39.6383, "lng": -141.9533, "id": "274859", "name": "Sebastes taczanowskii", "thumb": "tn_Setac_u1.jpg", "sprite": "sp-anchoviella_juruasanga.png", "group": "other", "rarity": 1, "waterType": "Brackish"}, {"lat": 39.3126, "lng": -142.1371, "id": "137205", "name": "Caretta caretta", "sprite": "sp-green_sea_turtle.png", "group": "sea_turtle", "rarity": 1}, {"lat": 39.6383, "lng": -141.9533, "id": "274866", "name": "Sebastes vulpes", "thumb": "tn_Sevul_u1.jpg", "sprite": "sp-anchoviella_juruasanga.png", "group": "other", "rarity": 1, "waterType": "Saltwater"}]}