{"zoom": 7, "x": 14, "y": 46, "points": [{"lat": 43.5, "lng": -138.5, "id": "137090", "name": "Balaenoptera musculus", "sprite": "sp-blue_whale.png", "group": "whale", "rarity": 1}, {"lat": 44.0, "lng": -139.0, "id": "137202", "name": "Puffinus griseus", "sprite": "sp-anchoviella_juruasanga.png", "group": "other", "rarity": 1}, {"lat": 43.2096, "lng": -139.7694, "id": "137119", "name": "Physeter macrocephalus", "sprite": "sp-blue_whale.png", "group": "whale", "rarity": 1}, {"lat": 44.1031, "lng": -140.378, "id": "274437", "name": "Stippled snailfish", "sprite": "sp-anchoviella_juruasanga.png", "group": "other", "rarity": 1, "waterType": "Saltwater"}, {"lat": 44.785, "lng": -138.4858, "id": "126406", "name": "Pink flabby whalefish", "thumb": "tn_Cereg_u0.jpg", "sprite": "sp-anchoviella_juruasanga.png", "group": "other", "rarity": 1, "waterType": "Saltwater"}, {"lat": 44.95, "lng": -139.21, "id": "225986", "name": "Puffinus bulleri", "sprite": "sp-anchoviella_juruasanga.png", "group": "other", "rarity": 1}, {"lat": 43.7271, "lng": -139.1214, "id": "344106", "name": "Phoebastria nigripes", "sprite": "sp-anchoviella_juruasanga.png", "group": "other", "rarity": 1}, {"lat": 45.0617, "lng": -138.5533, "id": "272708", "name": "Lampadena yaquinae", "sprite": "sp-anchoviella_juruasanga.png", "group": "other", "rarity": 1, "waterType": "Saltwater"}, {"lat": 43.466, "lng": -139.133, "id": "344104", "name": "Phoebastria immutabilis", "sprite": "sp-anchoviella_juruasanga.png", "group": "other", "rarity": 1}, {"lat": 44.1818, "lng": -139.4545, "id": "255018", "name": "Mirounga angustirostris", "sprite": "sp-elephant_seal.png", "group": "seal", "rarity": 1}, {"lat": 44.9006, "lng": -138.4344, "id": "272694", "name": "California headlightfish", "thumb": "tn_Dithe_u0.jpg", "sprite": "sp-anchoviella_juruasanga.png", "group": "other", "rarity": 1, "waterType": "Saltwater"}]}