{"zoom": 7, "x": 14, "y": 79, "points": [{"lat": -39.68, "lng": -138.52, "id": "225986", "name": "Puffinus bulleri", "sprite": "sp-anchoviella_juruasanga.png", "group": "other", "rarity": 1}, {"lat": -39.3103, "lng": -139.8006, "id": "564124", "name": "Lewinella", "sprite": "sp-anchoviella_juruasanga.png", "group": "other", "rarity": 1}, {"lat": -40.4667, "lng": -139.9332, "id": "125498", "name": "Myctophidae", "sprite": "sp-anchoviella_juruasanga.png", "group": "other", "rarity": 1}, {"lat": -39.3103, "lng": -139.8006, "id": "562111", "name": "Winogradskyella", "sprite": "sp-anchoviella_juruasanga.png", "group": "other", "rarity": 1}, {"lat": -40.4675, "lng": -139.9225, "id": "883", "name": "Polychaeta", "sprite": "sp-anchoviella_juruasanga.png", "group": "other", "rarity": 1}, {"lat": -39.3103, "lng": -139.8006, "id": "416245", "name": "Halobacteriaceae", "sprite": "sp-anchoviella_juruasanga.png", "group": "other", "rarity": 1}, {"lat": -39.3103, "lng": -139.8006, "id": "564333", "name": "Rubritalea", "sprite": "sp-anchoviella_juruasanga.png", "group": "other", "rarity": 1}, {"lat": -39.3103, "lng": -139.8006, "id": "163725", "name": "Vibrio", "sprite": "sp-anchoviella_juruasanga.png", "group": "other", "rarity": 1}, {"lat": -39.3103, "lng": -139.8006, "id": "570983", "name": "Coxiellaceae", "sprite": "sp-anchoviella_juruasanga.png", "group": "other", "rarity": 1}, {"lat": -40.45, "lng": -139.883, "id": "11716", "name": "Teuthida", "sprite": "sp-giant_pacific_octopus.png", "group": "octopus_squid", "rarity": 1}, {"lat": -40.7311, "lng": -137.9026, "id": "137119", "name": "Physeter macrocephalus", "sprite": "sp-blue_whale.png", "group": "whale", "rarity": 1}, {"lat": -39.3103, "lng": -139.8006, "id": "146537", "name": "Cyanobacteria", "sprite": "sp-anchoviella_juruasanga.png", "group": "other", "rarity": 1}, {"lat": -39.3103, "lng": -139.8006, "id": "416226", "name": "Euryarchaeota", "sprite": "sp-anchoviella_juruasanga.png", "group": "other", "rarity": 1}, {"lat": -39.3103, "lng": -139.8006, "id": "414809", "name": "Enterobacteriaceae", "sprite": "sp-anchoviella_juruasanga.png", "group": "other", "rarity": 1}, {"lat": -39.8333, "lng": -139.1667, "id": "137202", "name": "Puffinus griseus", "sprite": "sp-anchoviella_juruasanga.png", "group": "other", "rarity": 1}, {"lat": -40.465, "lng": -139.915, "id": "135220", "name": "Scyphozoa", "sprite": "sp-box_jellyfish.png", "group": "jellyfish", "rarity": 1}, {"lat": -39.3103, "lng": -139.8006, "id": "722760", "name": "Coxiella", "sprite": "sp-cowrie_shell.png", "group": "sea_snail", "rarity": 1}, {"lat": -39.3103, "lng": -139.8006, "id": "564120", "name": "Saprospiraceae", "sprite": "sp-anchoviella_juruasanga.png", "group": "other", "rarity": 1}, {"lat": -39.3103, "lng": -139.8006, "id": "564346", "name": "Chloroflexi", "sprite": "sp-anchoviella_juruasanga.png", "group": "other", "rarity": 1}, {"lat": -40.467, "lng": -139.933, "id": "176644", "name": "Archiconchoecetta bimucronata", "sprite": "sp-anchoviella_juruasanga.png", "group": "other", "rarity": 1}, {"lat": -39.3103, "lng": -139.8006, "id": "562088", "name": "Psychroserpens", "sprite": "sp-anchoviella_juruasanga.png", "group": "other", "rarity": 1}, {"lat": -40.0663, "lng": -139.233, "id": "137200", "name": "Puffinus assimilis", "sprite": "sp-anchoviella_juruasanga.png", "group": "other", "rarity": 1}, {"lat": -39.3103, "lng": -139.8006, "id": "8", "name": "Archaea", "sprite": "sp-anchoviella_juruasanga.png", "group": "other", "rarity": 1}, {"lat": -39.3103, "lng": -139.8006, "id": "559510", "name": "Actinobacteria", "sprite": "sp-anchoviella_juruasanga.png", "group": "other", "rarity": 1}, {"lat": -39.3103, "lng": -139.8006, "id": "563947", "name": "Polaribacter", "sprite": "sp-anchoviella_juruasanga.png", "group": "other", "rarity": 1}, {"lat": -40.45, "lng": -139.87, "id": "387338", "name": "Pterotracheoidea", "sprite": "sp-cowrie_shell.png", "group": "sea_snail", "rarity": 1}, {"lat": -40.47, "lng": -139.93, "id": "146203", "name": "Dinoflagellata", "sprite": "sp-anchoviella_juruasanga.png", "group": "other", "rarity": 1}, {"lat": -39.3103, "lng": -139.8006, "id": "570675", "name": "Methylophaga", "sprite": "sp-anchoviella_juruasanga.png", "group": "other", "rarity": 1}, {"lat": -39.3103, "lng": -139.8006, "id": "393074", "name": "Sphingomonadaceae", "sprite": "sp-anchoviella_juruasanga.png", "group": "other", "rarity": 1}, {"lat": -39.3103, "lng": -139.8006, "id": "571298", "name": "Gemmatimonadetes", "sprite": "sp-anchoviella_juruasanga.png", "group": "other", "rarity": 1}, {"lat": -40.46, "lng": -139.9, "id": "1082", "name": "Cirripedia", "sprite": "sp-anchoviella_juruasanga.png", "group": "other", "rarity": 1}, {"lat": -39.3103, "lng": -139.8006, "id": "570044", "name": "Desulfobacula", "sprite": "sp-anchoviella_juruasanga.png", "group": "other", "rarity": 1}, {"lat": -39.3103, "lng": -139.8006, "id": "564210", "name": "Verrucomicrobiales", "sprite": "sp-anchoviella_juruasanga.png", "group": "other", "rarity": 1}, {"lat": -39.3103, "lng": -139.8006, "id": "568242", "name": "Erythrobacteraceae", "sprite": "sp-anchoviella_juruasanga.png", "group": "other", "rarity": 1}, {"lat": -40.47, "lng": -139.93, "id": "106683", "name": "Penaeoidea", "sprite": "sp-american_lobster.png", "group": "crab_lobster", "rarity": 1}, {"lat": -39.3103, "lng": -139.8006, "id": "564353", "name": "Deferribacteres", "sprite": "sp-anchoviella_juruasanga.png", "group": "other", "rarity": 1}, {"lat": -39.3103, "lng": -139.8006, "id": "559998", "name": "Flavobacteriales", "sprite": "sp-anchoviella_juruasanga.png", "group": "other", "rarity": 1}, {"lat": -39.3103, "lng": -139.8006, "id": "567691", "name": "Loktanella", "sprite": "sp-anchoviella_juruasanga.png", "group": "other", "rarity": 1}, {"lat": -40.465, "lng": -139.915, "id": "103357", "name": "Appendicularia", "sprite": "sp-anchoviella_juruasanga.png", "group": "other", "rarity": 1}, {"lat": -39.3103, "lng": -139.8006, "id": "393925", "name": "Sulfurovum", "sprite": "sp-anchoviella_juruasanga.png", "group": "other", "rarity": 1}, {"lat": -39.3103, "lng": -139.8006, "id": "178054", "name": "Proteobacteria", "sprite": "sp-anchoviella_juruasanga.png", "group": "other", "rarity": 1}, {"lat": -39.9894, "lng": -139.2338, "id": "137199", "name": "Pterodroma mollis", "sprite": "sp-anchoviella_juruasanga.png", "group": "other", "rarity": 1}, {"lat": -39.3103, "lng": -139.8006, "id": "393945", "name": "Burkholderiales", "sprite": "sp-anchoviella_juruasanga.png", "group": "other", "rarity": 1}, {"lat": -39.3103, "lng": -139.8006, "id": "571033", "name": "Buchnera", "sprite": "sp-anchoviella_juruasanga.png", "group": "other", "rarity": 1}, {"lat": -39.3103, "lng": -139.8006, "id": "562097", "name": "Sulfitobacter", "sprite": "sp-anchoviella_juruasanga.png", "group": "other", "rarity": 1}, {"lat": -39.3103, "lng": -139.8006, "id": "392754", "name": "Deltaproteobacteria", "sprite": "sp-anchoviella_juruasanga.png", "group": "other", "rarity": 1}, {"lat": -40.47, "lng": -139.93, "id": "1131", "name": "Isopoda", "sprite": "sp-american_lobster.png", "group": "crab_lobster", "rarity": 1}, {"lat": -39.3103, "lng": -139.8006, "id": "571455", "name": "Simkaniaceae", "sprite": "sp-anchoviella_juruasanga.png", "group": "other", "rarity": 1}, {"lat": -39.3103, "lng": -139.8006, "id": "570404", "name": "Ectothiorhodospiraceae", "sprite": "sp-anchoviella_juruasanga.png", "group": "other", "rarity": 1}, {"lat": -39.3103, "lng": -139.8006, "id": "415881", "name": "Pseudoalteromonas", "sprite": "sp-anchoviella_juruasanga.png", "group": "other", "rarity": 1}, {"lat": -39.3103, "lng": -139.8006, "id": "392751", "name": "Rhodospirillales", "sprite": "sp-anchoviella_juruasanga.png", "group": "other", "rarity": 1}, {"lat": -39.3103, "lng": -139.8006, "id": "559995", "name": "Flavobacteriaceae", "sprite": "sp-anchoviella_juruasanga.png", "group": "other", "rarity": 1}, {"lat": -40.47, "lng": -139.93, "id": "1128", "name": "Euphausiacea", "sprite": "sp-antarctic_krill.png", "group": "shrimp", "rarity": 1}, {"lat": -39.3103, "lng": -139.8006, "id": "564100", "name": "Sphingobacteriales", "sprite": "sp-anchoviella_juruasanga.png", "group": "other", "rarity": 1}, {"lat": -39.3103, "lng": -139.8006, "id": "393045", "name": "Oceanospirillaceae", "sprite": "sp-anchoviella_juruasanga.png", "group": "other", "rarity": 1}, {"lat": -40.47, "lng": -139.93, "id": "1337", "name": "Hydrozoa", "sprite": "sp-anchoviella_juruasanga.png", "group": "other", "rarity": 1}, {"lat": -39.3103, "lng": -139.8006, "id": "559440", "name": "Crenarchaeota", "sprite": "sp-anchoviella_juruasanga.png", "group": "other", "rarity": 1}, {"lat": -39.3103, "lng": -139.8006, "id": "559511", "name": "Acidimicrobiales", "sprite": "sp-anchoviella_juruasanga.png", "group": "other", "rarity": 1}, {"lat": -39.3103, "lng": -139.8006, "id": "570280", "name": "Marinobacterium", "sprite": "sp-anchoviella_juruasanga.png", "group": "other", "rarity": 1}, {"lat": -39.3103, "lng": -139.8006, "id": "393019", "name": "Alteromonadales", "sprite": "sp-anchoviella_juruasanga.png", "group": "other", "rarity": 1}, {"lat": -39.3103, "lng": -139.8006, "id": "564211", "name": "Verrucomicrobiaceae", "sprite": "sp-anchoviella_juruasanga.png", "group": "other", "rarity": 1}, {"lat": -39.3103, "lng": -139.8006, "id": "570431", "name": "Zooshikella", "sprite": "sp-anchoviella_juruasanga.png", "group": "other", "rarity": 1}, {"lat": -40.9635, "lng": -139.6443, "id": "225760", "name": "Thalassarche chrysostoma", "sprite": "sp-anchoviella_juruasanga.png", "group": "other", "rarity": 1}, {"lat": -39.3103, "lng": -139.8006, "id": "394204", "name": "Maricaulis", "sprite": "sp-anchoviella_juruasanga.png", "group": "other", "rarity": 1}, {"lat": -40.466, "lng": -139.918, "id": "1135", "name": "Amphipoda", "sprite": "sp-american_lobster.png", "group": "crab_lobster", "rarity": 1}, {"lat": -40.465, "lng": -139.915, "id": "13703", "name": "Thecosomata", "sprite": "sp-cowrie_shell.png", "group": "sea_snail", "rarity": 1}, {"lat": -39.3103, "lng": -139.8006, "id": "393148", "name": "Rhizobiales", "sprite": "sp-anchoviella_juruasanga.png", "group": "other", "rarity": 1}, {"lat": -39.3103, "lng": -139.8006, "id": "563928", "name": "Muricauda", "sprite": "sp-anchoviella_juruasanga.png", "group": "other", "rarity": 1}, {"lat": -39.3103, "lng": -139.8006, "id": "567521", "name": "Methylobacterium", "sprite": "sp-anchoviella_juruasanga.png", "group": "other", "rarity": 1}, {"lat": -39.3103, "lng": -139.8006, "id": "393158", "name": "Silicibacter", "sprite": "sp-anchoviella_juruasanga.png", "group": "other", "rarity": 1}, {"lat": -39.3103, "lng": -139.8006, "id": "393611", "name": "Alteromonas", "sprite": "sp-anchoviella_juruasanga.png", "group": "other", "rarity": 1}, {"lat": -39.3103, "lng": -139.8006, "id": "570029", "name": "Bacteriovorax", "sprite": "sp-anchoviella_juruasanga.png", "group": "other", "rarity": 1}, {"lat": -39.3103, "lng": -139.8006, "id": "393085", "name": "Paracoccus", "sprite": "sp-anchoviella_juruasanga.png", "group": "other", "rarity": 1}, {"lat": -39.3103, "lng": -139.8006, "id": "570612", "name": "Acinetobacter", "sprite": "sp-anchoviella_juruasanga.png", "group": "other", "rarity": 1}, {"lat": -40.47, "lng": -139.93, "id": "137215", "name": "Doliolidae", "sprite": "sp-anchoviella_juruasanga.png", "group": "other", "rarity": 1}, {"lat": -39.3103, "lng": -139.8006, "id": "393044", "name": "Halomonas", "sprite": "sp-anchoviella_juruasanga.png", "group": "other", "rarity": 1}, {"lat": -40.4633, "lng": -139.91, "id": "1248", "name": "Ctenophora", "sprite": "sp-anchoviella_juruasanga.png", "group": "other", "rarity": 1}, {"lat": -40.4092, "lng": -138.714, "id": "379386", "name": "Diomedea sanfordi", "sprite": "sp-anchoviella_juruasanga.png", "group": "other", "rarity": 1}, {"lat": -39.3103, "lng": -139.8006, "id": "570028", "name": "Bacteriovoracaceae", "sprite": "sp-anchoviella_juruasanga.png", "group": "other", "rarity": 1}, {"lat": -39.3103, "lng": -139.8006, "id": "393036", "name": "Idiomarina", "sprite": "sp-anchoviella_juruasanga.png", "group": "other", "rarity": 1}, {"lat": -40.4667, "lng": -139.92, "id": "1080", "name": "Copepoda", "sprite": "sp-anchoviella_juruasanga.png", "group": "other", "rarity": 1}, {"lat": -39.3103, "lng": -139.8006, "id": "559992", "name": "Owenweeksia", "sprite": "sp-anchoviella_juruasanga.png", "group": "other", "rarity": 1}, {"lat": -40.467, "lng": -139.933, "id": "137233", "name": "Salpa", "sprite": "sp-anchoviella_juruasanga.png", "group": "other", "rarity": 1}, {"lat": -40.47, "lng": -139.93, "id": "137217", "name": "Salpidae", "sprite": "sp-anchoviella_juruasanga.png", "group": "other", "rarity": 1}, {"lat": -40.4667, "lng": -139.92, "id": "1371", "name": "Siphonophorae", "sprite": "sp-anchoviella_juruasanga.png", "group": "other", "rarity": 1}, {"lat": -39.3103, "lng": -139.8006, "id": "571208", "name": "Limnobacter", "sprite": "sp-anchoviella_juruasanga.png", "group": "other", "rarity": 1}, {"lat": -40.4671, "lng": -139.9214, "id": "11676", "name": "Pisces", "sprite": "sp-anchoviella_juruasanga.png", "group": "other", "rarity": 1}, {"lat": -39.3103, "lng": -139.8006, "id": "393944", "name": "Betaproteobacteria", "sprite": "sp-anchoviella_juruasanga.png", "group": "other", "rarity": 1}, {"lat": -39.3103, "lng": -139.8006, "id": "393082", "name": "Alcanivorax", "sprite": "sp-anchoviella_juruasanga.png", "group": "other", "rarity": 1}, {"lat": -39.3103, "lng": -139.8006, "id": "393034", "name": "Marinobacter", "sprite": "sp-anchoviella_juruasanga.png", "group": "other", "rarity": 1}, {"lat": -38.9862, "lng": -140.367, "id": "212642", "name": "Pterodroma lessonii", "sprite": "sp-anchoviella_juruasanga.png", "group": "other", "rarity": 1}, {"lat": -39.3103, "lng": -139.8006, "id": "393021", "name": "Oceanospirillales", "sprite": "sp-anchoviella_juruasanga.png", "group": "other", "rarity": 1}, {"lat": -39.3103, "lng": -139.8006, "id": "559989", "name": "Fluviicola", "sprite": "sp-anchoviella_juruasanga.png", "group": "other", "rarity": 1}, {"lat": -39.3103, "lng": -139.8006, "id": "571462", "name": "Thermomicrobia", "sprite": "sp-anchoviella_juruasanga.png", "group": "other", "rarity": 1}, {"lat": -39.3103, "lng": -139.8006, "id": "392750", "name": "Alphaproteobacteria", "sprite": "sp-anchoviella_juruasanga.png", "group": "other", "rarity": 1}, {"lat": -39.3103, "lng": -139.8006, "id": "393035", "name": "Alteromonadaceae", "sprite": "sp-anchoviella_juruasanga.png", "group": "other", "rarity": 1}, {"lat": -39.3103, "lng": -139.8006, "id": "559844", "name": "Bacteroidetes", "sprite": "sp-anchoviella_juruasanga.png", "group": "other", "rarity": 1}, {"lat": -39.3103, "lng": -139.8006, "id": "6", "name": "Bacteria", "sprite": "sp-anchoviella_juruasanga.png", "group": "other", "rarity": 1}, {"lat": -39.3103, "lng": -139.8006, "id": "571336", "name": "Legionella", "sprite": "sp-anchoviella_juruasanga.png", "group": "other", "rarity": 1}, {"lat": -39.9897, "lng": -139.0644, "id": "225975", "name": "Pterodroma magentae", "sprite": "sp-anchoviella_juruasanga.png", "group": "other", "rarity": 1}, {"lat": -39.8957, "lng": -139.1779, "id": "212583", "name": "Diomedea exulans", "sprite": "sp-anchoviella_juruasanga.png", "group": "other", "rarity": 1}, {"lat": -39.3103, "lng": -139.8006, "id": "393018", "name": "Gammaproteobacteria", "sprite": "sp-anchoviella_juruasanga.png", "group": "other", "rarity": 1}, {"lat": -40.47, "lng": -139.93, "id": "582421", "name": "Radiozoa", "sprite": "sp-anchoviella_juruasanga.png", "group": "other", "rarity": 1}, {"lat": -39.3103, "lng": -139.8006, "id": "565463", "name": "Planctomycetaceae", "sprite": "sp-anchoviella_juruasanga.png", "group": "other", "rarity": 1}, {"lat": -40.466, "lng": -139.918, "id": "1410", "name": "Foraminifera", "sprite": "sp-anchoviella_juruasanga.png", "group": "other", "rarity": 1}, {"lat": -40.47, "lng": -139.93, "id": "19542", "name": "Dinophyceae", "sprite": "sp-anchoviella_juruasanga.png", "group": "other", "rarity": 1}, {"lat": -39.3103, "lng": -139.8006, "id": "570969", "name": "Rickettsiales", "sprite": "sp-anchoviella_juruasanga.png", "group": "other", "rarity": 1}, {"lat": -39.3103, "lng": -139.8006, "id": "393999", "name": "Sphingopyxis", "sprite": "sp-anchoviella_juruasanga.png", "group": "other", "rarity": 1}, {"lat": -39.3103, "lng": -139.8006, "id": "559981", "name": "Cryomorphaceae", "sprite": "sp-anchoviella_juruasanga.png", "group": "other", "rarity": 1}, {"lat": -39.3103, "lng": -139.8006, "id": "570642", "name": "Pseudomonas", "sprite": "sp-anchoviella_juruasanga.png", "group": "other", "rarity": 1}, {"lat": -40.4667, "lng": -139.92, "id": "2081", "name": "Chaetognatha", "sprite": "sp-anchoviella_juruasanga.png", "group": "other", "rarity": 1}, {"lat": -39.3103, "lng": -139.8006, "id": "571359", "name": "Methylophilus", "sprite": "sp-anchoviella_juruasanga.png", "group": "other", "rarity": 1}, {"lat": -39.3103, "lng": -139.8006, "id": "571211", "name": "Ralstonia", "sprite": "sp-anchoviella_juruasanga.png", "group": "other", "rarity": 1}, {"lat": -39.3103, "lng": -139.8006, "id": "394103", "name": "Shimia", "sprite": "sp-anchoviella_juruasanga.png", "group": "other", "rarity": 1}, {"lat": -39.3103, "lng": -139.8006, "id": "393075", "name": "Erythrobacter", "sprite": "sp-anchoviella_juruasanga.png", "group": "other", "rarity": 1}, {"lat": -39.3103, "lng": -139.8006, "id": "571456", "name": "Simkania", "sprite": "sp-anchoviella_juruasanga.png", "group": "other", "rarity": 1}, {"lat": -39.3103, "lng": -139.8006, "id": "393084", "name": "Rhodobacteraceae", "sprite": "sp-anchoviella_juruasanga.png", "group": "other", "rarity": 1}, {"lat": -39.3103, "lng": -139.8006, "id": "563589", "name": "Gramella", "sprite": "sp-anchoviella_juruasanga.png", "group": "other", "rarity": 1}]}