{"zoom": 7, "x": 14, "y": 70, "points": [{"lat": -17.5594, "lng": -139.2733, "id": "109506", "name": "Ceratium", "sprite": "sp-anchoviella_juruasanga.png", "group": "other", "rarity": 1}, {"lat": -18.733, "lng": -138.866, "id": "138050", "name": "Haliotis", "sprite": "sp-cowrie_shell.png", "group": "sea_snail", "rarity": 1}, {"lat": -18.0195, "lng": -139.7672, "id": "137053", "name": "Phaethon", "sprite": "sp-anchoviella_juruasanga.png", "group": "other", "rarity": 1}, {"lat": -17.3415, "lng": -138.3922, "id": "279224", "name": "Fantail filefish", "thumb": "tn_Pespi_u0.jpg", "sprite": "sp-anchoviella_juruasanga.png", "group": "other", "rarity": 1, "waterType": "Saltwater"}, {"lat": -18.53, "lng": -139.2, "id": "444123", "name": "Alainodaeus rimatara", "sprite": "sp-american_lobster.png", "group": "crab_lobster", "rarity": 1}, {"lat": -17.4047, "lng": -139.3005, "id": "109433", "name": "Peridiniaceae", "sprite": "sp-anchoviella_juruasanga.png", "group": "other", "rarity": 1}, {"lat": -18.733, "lng": -138.867, "id": "206672", "name": "Gloripallium", "sprite": "sp-blue_mussel.png", "group": "clam_mussel", "rarity": 1}, {"lat": -18.53, "lng": -139.2, "id": "209480", "name": "Homola orientalis", "sprite": "sp-american_lobster.png", "group": "crab_lobster", "rarity": 1}, {"lat": -17.5162, "lng": -139.3271, "id": "341285", "name": "Centrales", "sprite": "sp-anchoviella_juruasanga.png", "group": "other", "rarity": 1}, {"lat": -17.333, "lng": -138.5, "id": "216708", "name": "Cerithium columna", "sprite": "sp-cowrie_shell.png", "group": "sea_snail", "rarity": 1}, {"lat": -17.8307, "lng": -139.6203, "id": "212595", "name": "Phaethon rubricauda", "sprite": "sp-anchoviella_juruasanga.png", "group": "other", "rarity": 1}, {"lat": -17.5363, "lng": -139.2858, "id": "125487", "name": "Ceratiidae", "sprite": "sp-deep_sea_anglerfish.png", "group": "anglerfish", "rarity": 1}, {"lat": -17.333, "lng": -138.5, "id": "137813", "name": "Conus", "sprite": "sp-cowrie_shell.png", "group": "sea_snail", "rarity": 1}, {"lat": -17.4032, "lng": -139.3964, "id": "109410", "name": "Gymnodiniaceae", "sprite": "sp-anchoviella_juruasanga.png", "group": "other", "rarity": 1}, {"lat": -17.333, "lng": -138.5, "id": "215436", "name": "Conus ebraeus", "sprite": "sp-cowrie_shell.png", "group": "sea_snail", "rarity": 1}, {"lat": -17.333, "lng": -138.5, "id": "215541", "name": "Conus lividus", "sprite": "sp-cowrie_shell.png", "group": "sea_snail", "rarity": 1}, {"lat": -18.0161, "lng": -139.6348, "id": "567428", "name": "Gygis alba microrhyncha", "sprite": "sp-anchoviella_juruasanga.png", "group": "other", "rarity": 1}, {"lat": -18.5317, "lng": -139.2, "id": "444119", "name": "Alainodaeus akiaki", "sprite": "sp-american_lobster.png", "group": "crab_lobster", "rarity": 1}, {"lat": -17.333, "lng": -138.5, "id": "458729", "name": "Ipsa childreni", "sprite": "sp-cowrie_shell.png", "group": "sea_snail", "rarity": 1}, {"lat": -17.505, "lng": -139.292, "id": "149069", "name": "Rhizosolenia", "sprite": "sp-anchoviella_juruasanga.png", "group": "other", "rarity": 1}, {"lat": -19.266, "lng": -138.766, "id": "596434", "name": "Drupina grossularia", "sprite": "sp-cowrie_shell.png", "group": "sea_snail", "rarity": 1}, {"lat": -16.7183, "lng": -140.5074, "id": "212594", "name": "Phaethon lepturus", "sprite": "sp-anchoviella_juruasanga.png", "group": "other", "rarity": 1}, {"lat": -18.5333, "lng": -139.2, "id": "1609215", "name": "Trapezionida ocellata", "sprite": "sp-american_lobster.png", "group": "crab_lobster", "rarity": 1}, {"lat": -17.9641, "lng": -137.9771, "id": "212652", "name": "Procellaria cinerea", "sprite": "sp-anchoviella_juruasanga.png", "group": "other", "rarity": 1}, {"lat": -17.4791, "lng": -139.3555, "id": "163249", "name": "Hemiaulus hauckii", "sprite": "sp-anchoviella_juruasanga.png", "group": "other", "rarity": 1}, {"lat": -17.333, "lng": -138.333, "id": "573906", "name": "Naria irrorata", "sprite": "sp-cowrie_shell.png", "group": "sea_snail", "rarity": 1}, {"lat": -17.333, "lng": -138.5, "id": "216677", "name": "Cerithium punctatum", "sprite": "sp-cowrie_shell.png", "group": "sea_snail", "rarity": 1}, {"lat": -17.6962, "lng": -139.3146, "id": "148984", "name": "Chaetocerotaceae", "sprite": "sp-anchoviella_juruasanga.png", "group": "other", "rarity": 1}, {"lat": -17.5458, "lng": -139.9806, "id": "136999", "name": "Cheloniidae", "sprite": "sp-green_sea_turtle.png", "group": "sea_turtle", "rarity": 1}, {"lat": -17.4667, "lng": -139.3233, "id": "149318", "name": "Nitzschia delicatissima", "sprite": "sp-anchoviella_juruasanga.png", "group": "other", "rarity": 1}, {"lat": -17.6299, "lng": -139.982, "id": "204117", "name": "Fregata", "sprite": "sp-anchoviella_juruasanga.png", "group": "other", "rarity": 1}, {"lat": -18.5333, "lng": -139.2, "id": "382957", "name": "Galearctus aurora", "sprite": "sp-american_lobster.png", "group": "crab_lobster", "rarity": 1}, {"lat": -17.706, "lng": -139.8748, "id": "567789", "name": "Onychoprion", "sprite": "sp-anchoviella_juruasanga.png", "group": "other", "rarity": 1}, {"lat": -17.4667, "lng": -139.3233, "id": "157081", "name": "Thalassiothrix", "sprite": "sp-anchoviella_juruasanga.png", "group": "other", "rarity": 1}, {"lat": -17.3333, "lng": -138.3333, "id": "205469", "name": "Acropora", "sprite": "sp-actiniidae.png", "group": "coral", "rarity": 1}, {"lat": -17.3549, "lng": -138.4154, "id": "148746", "name": "Ciconiiformes", "sprite": "sp-anchoviella_juruasanga.png", "group": "other", "rarity": 1}, {"lat": -19.02, "lng": -140.035, "id": "158854", "name": "Barbate dragonfish", "thumb": "tn_Euenb_u0.jpg", "sprite": "sp-anchoviella_juruasanga.png", "group": "other", "rarity": 1, "waterType": "Saltwater"}, {"lat": -17.8133, "lng": -139.35, "id": "603344", "name": "Rhabdolithes", "sprite": "sp-anchoviella_juruasanga.png", "group": "other", "rarity": 1}, {"lat": -18.733, "lng": -138.867, "id": "393107", "name": "Laevichlamys cuneata", "sprite": "sp-blue_mussel.png", "group": "clam_mussel", "rarity": 1}, {"lat": -18.3599, "lng": -139.7387, "id": "212596", "name": "Sula sula", "sprite": "sp-anchoviella_juruasanga.png", "group": "other", "rarity": 1}, {"lat": -17.333, "lng": -138.5, "id": "216714", "name": "Clypeomorus brevis", "sprite": "sp-cowrie_shell.png", "group": "sea_snail", "rarity": 1}, {"lat": -17.333, "lng": -138.5, "id": "578038", "name": "Lyncina ventriculus", "sprite": "sp-cowrie_shell.png", "group": "sea_snail", "rarity": 1}, {"lat": -18.0, "lng": -138.5, "id": "137202", "name": "Puffinus griseus", "sprite": "sp-anchoviella_juruasanga.png", "group": "other", "rarity": 1}, {"lat": -16.7964, "lng": -139.1224, "id": "137111", "name": "Tursiops truncatus", "sprite": "sp-bottlenose_dolphin.png", "group": "dolphin", "rarity": 1}, {"lat": -17.5729, "lng": -139.2912, "id": "235951", "name": "Discosphaera", "sprite": "sp-anchoviella_juruasanga.png", "group": "other", "rarity": 1}, {"lat": -18.5333, "lng": -139.2, "id": "204846", "name": "Demania", "sprite": "sp-american_lobster.png", "group": "crab_lobster", "rarity": 1}, {"lat": -17.821, "lng": -139.3769, "id": "136998", "name": "Procellariidae", "sprite": "sp-anchoviella_juruasanga.png", "group": "other", "rarity": 1}, {"lat": -18.733, "lng": -138.866, "id": "207674", "name": "Tridacna squamosa", "sprite": "sp-blue_mussel.png", "group": "clam_mussel", "rarity": 1}, {"lat": -17.1871, "lng": -139.5195, "id": "136988", "name": "Laridae", "sprite": "sp-anchoviella_juruasanga.png", "group": "other", "rarity": 1}, {"lat": -18.733, "lng": -138.867, "id": "215389", "name": "Gloripallium pallium", "sprite": "sp-blue_mussel.png", "group": "clam_mussel", "rarity": 1}, {"lat": -17.3333, "lng": -138.5, "id": "207675", "name": "Tridacna maxima", "sprite": "sp-blue_mussel.png", "group": "clam_mussel", "rarity": 1}, {"lat": -18.55, "lng": -139.2, "id": "271841", "name": "Gymnothorax intesi", "thumb": "tn_Gyint_u0.jpg", "sprite": "sp-anarchias.png", "group": "moray", "rarity": 1, "waterType": "Saltwater"}, {"lat": -17.5846, "lng": -139.2269, "id": "1", "name": "Biota", "sprite": "sp-anchoviella_juruasanga.png", "group": "other", "rarity": 1}, {"lat": -18.55, "lng": -139.2, "id": "712419", "name": "Ophichthus congroides", "sprite": "sp-electric_eel.png", "group": "eel", "rarity": 1, "waterType": "Saltwater"}, {"lat": -17.6008, "lng": -139.6094, "id": "136994", "name": "Sulidae", "sprite": "sp-anchoviella_juruasanga.png", "group": "other", "rarity": 1}, {"lat": -17.405, "lng": -139.49, "id": "149342", "name": "Licmophora", "sprite": "sp-anchoviella_juruasanga.png", "group": "other", "rarity": 1}, {"lat": -17.7039, "lng": -138.3525, "id": "137098", "name": "Grampus griseus", "sprite": "sp-bottlenose_dolphin.png", "group": "dolphin", "rarity": 1}, {"lat": -17.3311, "lng": -138.3311, "id": "207039", "name": "Acropora latistella", "sprite": "sp-actiniidae.png", "group": "coral", "rarity": 1}, {"lat": -17.3415, "lng": -138.3922, "id": "159439", "name": "Red cornetfish", "thumb": "tn_Fipet_u2.jpg", "sprite": "sp-anchoviella_juruasanga.png", "group": "other", "rarity": 1, "waterType": "Brackish"}, {"lat": -18.733, "lng": -138.867, "id": "591971", "name": "Mirapecten spiceri", "sprite": "sp-blue_mussel.png", "group": "clam_mussel", "rarity": 1}, {"lat": -19.266, "lng": -138.766, "id": "434279", "name": "Lienardia rubida", "sprite": "sp-cowrie_shell.png", "group": "sea_snail", "rarity": 1}, {"lat": -17.795, "lng": -139.2015, "id": "206812", "name": "Anous", "sprite": "sp-anchoviella_juruasanga.png", "group": "other", "rarity": 1}, {"lat": -17.5764, "lng": -139.0486, "id": "137119", "name": "Physeter macrocephalus", "sprite": "sp-blue_whale.png", "group": "whale", "rarity": 1}, {"lat": -17.442, "lng": -139.39, "id": "231772", "name": "Dinophysaceae", "sprite": "sp-anchoviella_juruasanga.png", "group": "other", "rarity": 1}, {"lat": -17.12, "lng": -139.2967, "id": "235833", "name": "Calciosoleniaceae", "sprite": "sp-anchoviella_juruasanga.png", "group": "other", "rarity": 1}, {"lat": -17.4959, "lng": -139.4675, "id": "217434", "name": "Longhorned mobula", "thumb": "tn_Moere_u0.jpg", "sprite": "sp-himantura_australis.png", "group": "ray", "rarity": 1, "waterType": "Saltwater"}, {"lat": -18.733, "lng": -138.866, "id": "215717", "name": "Nassarius papillosus", "sprite": "sp-cowrie_shell.png", "group": "sea_snail", "rarity": 1}]}