{"zoom": 7, "x": 15, "y": 28, "points": [{"lat": 70.1278, "lng": -136.1614, "id": "6", "name": "Bacteria", "sprite": "sp-anchoviella_juruasanga.png", "group": "other", "rarity": 1}, {"lat": 69.8903, "lng": -137.2217, "id": "410749", "name": "Phascolion (Phascolion) strombus strombus", "sprite": "sp-anchoviella_juruasanga.png", "group": "other", "rarity": 1}, {"lat": 69.8483, "lng": -135.817, "id": "137145", "name": "Larus hyperboreus", "sprite": "sp-anchoviella_juruasanga.png", "group": "other", "rarity": 1}, {"lat": 69.8903, "lng": -137.2217, "id": "173810", "name": "Florometra", "sprite": "sp-sea_cucumber.png", "group": "starfish", "rarity": 1}, {"lat": 70.25, "lng": -135.04, "id": "913", "name": "Spionidae", "sprite": "sp-anchoviella_juruasanga.png", "group": "other", "rarity": 1}, {"lat": 69.9612, "lng": -136.3948, "id": "138858", "name": "Buccinum angulosum", "sprite": "sp-cowrie_shell.png", "group": "sea_snail", "rarity": 1}, {"lat": 69.8903, "lng": -137.2217, "id": "125154", "name": "Leptasterias (Hexasterias) polaris", "sprite": "sp-sea_cucumber.png", "group": "starfish", "rarity": 1}, {"lat": 69.8903, "lng": -137.2217, "id": "140187", "name": "Lepeta caeca", "sprite": "sp-cowrie_shell.png", "group": "sea_snail", "rarity": 1}, {"lat": 70.0317, "lng": -135.5683, "id": "129851", "name": "Apistobranchus tullbergi", "sprite": "sp-anchoviella_juruasanga.png", "group": "other", "rarity": 1}, {"lat": 69.8, "lng": -135.2817, "id": "155127", "name": "Sphaerodoridium minutum", "sprite": "sp-anchoviella_juruasanga.png", "group": "other", "rarity": 1}, {"lat": 69.8903, "lng": -137.2217, "id": "101881", "name": "Amathillopsis spinigera", "sprite": "sp-american_lobster.png", "group": "crab_lobster", "rarity": 1}, {"lat": 70.0516, "lng": -135.9652, "id": "141580", "name": "Macoma calcarea", "sprite": "sp-blue_mussel.png", "group": "clam_mussel", "rarity": 1}, {"lat": 69.8903, "lng": -137.2217, "id": "146142", "name": "Bryozoa", "sprite": "sp-anchoviella_juruasanga.png", "group": "other", "rarity": 1}, {"lat": 69.6893, "lng": -135.5487, "id": "101173", "name": "Arctic lamprey", "thumb": "tn_Lecam_u0.jpg", "sprite": "sp-pacific_lamprey.png", "group": "lamprey", "rarity": 1, "waterType": "Brackish"}, {"lat": 69.8903, "lng": -137.2217, "id": "125147", "name": "Ophioscolex glacialis", "sprite": "sp-sea_cucumber.png", "group": "starfish", "rarity": 1}, {"lat": 69.66, "lng": -136.62, "id": "1101", "name": "Cyclopoida", "sprite": "sp-anchoviella_juruasanga.png", "group": "other", "rarity": 1}, {"lat": 69.6993, "lng": -136.6035, "id": "137115", "name": "Delphinapterus leucas", "sprite": "sp-anchoviella_juruasanga.png", "group": "other", "rarity": 1}, {"lat": 69.8903, "lng": -137.2217, "id": "125100", "name": "Amphiura sundevalli", "sprite": "sp-sea_cucumber.png", "group": "starfish", "rarity": 1}, {"lat": 69.8903, "lng": -137.2217, "id": "123512", "name": "Elpidia", "sprite": "sp-sea_cucumber.png", "group": "starfish", "rarity": 1}, {"lat": 69.994, "lng": -136.4363, "id": "127991", "name": "Heterocyprideis sorbyana", "sprite": "sp-anchoviella_juruasanga.png", "group": "other", "rarity": 1}, {"lat": 69.7587, "lng": -136.8779, "id": "1337", "name": "Hydrozoa", "sprite": "sp-anchoviella_juruasanga.png", "group": "other", "rarity": 1}, {"lat": 69.8903, "lng": -137.2217, "id": "138592", "name": "Margarites", "sprite": "sp-cowrie_shell.png", "group": "sea_snail", "rarity": 1}, {"lat": 69.8903, "lng": -137.2217, "id": "607338", "name": "Zoantharia", "sprite": "sp-actiniidae.png", "group": "coral", "rarity": 1}, {"lat": 69.8903, "lng": -137.2217, "id": "124978", "name": "Ophiacantha bidentata", "sprite": "sp-sea_cucumber.png", "group": "starfish", "rarity": 1}, {"lat": 70.0613, "lng": -137.0363, "id": "127993", "name": "Sarsicytheridea bradii", "sprite": "sp-anchoviella_juruasanga.png", "group": "other", "rarity": 1}, {"lat": 69.9724, "lng": -136.8177, "id": "137086", "name": "Balaena mysticetus", "sprite": "sp-blue_whale.png", "group": "whale", "rarity": 1}, {"lat": 70.1289, "lng": -136.8344, "id": "798747", "name": "Parakanthophoreus longiremis", "sprite": "sp-american_lobster.png", "group": "crab_lobster", "rarity": 1}, {"lat": 70.0581, "lng": -136.4214, "id": "124860", "name": "Ophiocten sericeum", "sprite": "sp-sea_cucumber.png", "group": "starfish", "rarity": 1}, {"lat": 70.1203, "lng": -135.5957, "id": "130735", "name": "Bylgides sarsi", "sprite": "sp-anchoviella_juruasanga.png", "group": "other", "rarity": 1}, {"lat": 69.8903, "lng": -137.2217, "id": "137825", "name": "Obesotoma", "sprite": "sp-cowrie_shell.png", "group": "sea_snail", "rarity": 1}, {"lat": 70.0412, "lng": -136.3365, "id": "152391", "name": "Nemertea", "sprite": "sp-anchoviella_juruasanga.png", "group": "other", "rarity": 1}, {"lat": 69.8685, "lng": -135.5372, "id": "129425", "name": "Scoloplos", "sprite": "sp-anchoviella_juruasanga.png", "group": "other", "rarity": 1}, {"lat": 69.8903, "lng": -137.2217, "id": "160212", "name": "Colus pubescens", "sprite": "sp-cowrie_shell.png", "group": "sea_snail", "rarity": 1}, {"lat": 69.8903, "lng": -137.2217, "id": "100841", "name": "Anthosactis janmayeni", "sprite": "sp-actiniidae.png", "group": "coral", "rarity": 1}, {"lat": 69.8318, "lng": -136.6691, "id": "105440", "name": "Parasagitta elegans", "sprite": "sp-anchoviella_juruasanga.png", "group": "other", "rarity": 1}, {"lat": 69.985, "lng": -136.56, "id": "128252", "name": "Roundstonia globulifera", "sprite": "sp-anchoviella_juruasanga.png", "group": "other", "rarity": 1}, {"lat": 69.9648, "lng": -136.2122, "id": "140584", "name": "Ennucula tenuis", "sprite": "sp-blue_mussel.png", "group": "clam_mussel", "rarity": 1}, {"lat": 69.8685, "lng": -135.5372, "id": "433471", "name": "Curtitoma novajasemljensis", "sprite": "sp-cowrie_shell.png", "group": "sea_snail", "rarity": 1}, {"lat": 69.8903, "lng": -137.2217, "id": "181923", "name": "Diastylis alaskensis", "sprite": "sp-american_lobster.png", "group": "crab_lobster", "rarity": 1}, {"lat": 69.7247, "lng": -136.5082, "id": "137071", "name": "Clangula hyemalis", "sprite": "sp-anchoviella_juruasanga.png", "group": "other", "rarity": 1}, {"lat": 69.7014, "lng": -136.6746, "id": "127073", "name": "Slender eelblenny", "thumb": "tn_Lufab_u1.jpg", "sprite": "sp-anchoviella_juruasanga.png", "group": "other", "rarity": 1, "waterType": "Saltwater"}, {"lat": 69.8903, "lng": -137.2217, "id": "1302", "name": "Pycnogonida", "sprite": "sp-anchoviella_juruasanga.png", "group": "other", "rarity": 1}, {"lat": 70.3503, "lng": -136.6008, "id": "138797", "name": "Bathyarca glacialis", "sprite": "sp-blue_mussel.png", "group": "clam_mussel", "rarity": 1}, {"lat": 69.8, "lng": -135.2817, "id": "131131", "name": "Malacoceros fuliginosus", "sprite": "sp-anchoviella_juruasanga.png", "group": "other", "rarity": 1}, {"lat": 70.1116, "lng": -136.1949, "id": "110535", "name": "Eudorella truncatula", "sprite": "sp-american_lobster.png", "group": "crab_lobster", "rarity": 1}, {"lat": 69.8903, "lng": -137.2217, "id": "137704", "name": "Colus", "sprite": "sp-cowrie_shell.png", "group": "sea_snail", "rarity": 1}, {"lat": 69.8903, "lng": -137.2217, "id": "138864", "name": "Buccinum glaciale", "sprite": "sp-cowrie_shell.png", "group": "sea_snail", "rarity": 1}, {"lat": 69.8903, "lng": -137.2217, "id": "140525", "name": "Cryptonatica affinis", "sprite": "sp-cowrie_shell.png", "group": "sea_snail", "rarity": 1}, {"lat": 69.9025, "lng": -136.4425, "id": "128956", "name": "Triconia borealis", "sprite": "sp-anchoviella_juruasanga.png", "group": "other", "rarity": 1}, {"lat": 69.9513, "lng": -136.4069, "id": "106656", "name": "Oithona similis", "sprite": "sp-anchoviella_juruasanga.png", "group": "other", "rarity": 1}, {"lat": 70.0775, "lng": -135.5805, "id": "799", "name": "Nematoda", "sprite": "sp-anchoviella_juruasanga.png", "group": "other", "rarity": 1}, {"lat": 70.0542, "lng": -136.2621, "id": "130503", "name": "Ophelina cylindricaudata", "sprite": "sp-anchoviella_juruasanga.png", "group": "other", "rarity": 1}, {"lat": 69.8903, "lng": -137.2217, "id": "138628", "name": "Onchidiopsis", "sprite": "sp-cowrie_shell.png", "group": "sea_snail", "rarity": 1}, {"lat": 69.66, "lng": -136.62, "id": "1307", "name": "Insecta", "sprite": "sp-anchoviella_juruasanga.png", "group": "other", "rarity": 1}, {"lat": 69.8903, "lng": -137.2217, "id": "939", "name": "Polynoidae", "sprite": "sp-anchoviella_juruasanga.png", "group": "other", "rarity": 1}, {"lat": 69.8903, "lng": -137.2217, "id": "129289", "name": "Brada", "sprite": "sp-anchoviella_juruasanga.png", "group": "other", "rarity": 1}, {"lat": 69.8903, "lng": -137.2217, "id": "137709", "name": "Mohnia", "sprite": "sp-cowrie_shell.png", "group": "sea_snail", "rarity": 1}, {"lat": 69.8903, "lng": -137.2217, "id": "124147", "name": "Pteraster militaris", "sprite": "sp-sea_cucumber.png", "group": "starfish", "rarity": 1}, {"lat": 70.351, "lng": -136.6029, "id": "127524", "name": "Philomedes", "sprite": "sp-anchoviella_juruasanga.png", "group": "other", "rarity": 1}, {"lat": 69.8903, "lng": -137.2217, "id": "123915", "name": "Ctenodiscus crispatus", "sprite": "sp-sea_cucumber.png", "group": "starfish", "rarity": 1}, {"lat": 70.3503, "lng": -136.6008, "id": "606988", "name": "Baeonectes pygmaea", "sprite": "sp-american_lobster.png", "group": "crab_lobster", "rarity": 1}, {"lat": 69.827, "lng": -135.539, "id": "148736", "name": "Pinnipedia", "sprite": "sp-anchoviella_juruasanga.png", "group": "other", "rarity": 1}, {"lat": 69.8903, "lng": -137.2217, "id": "529651", "name": "Psolus peronii", "sprite": "sp-sea_cucumber.png", "group": "starfish", "rarity": 1}, {"lat": 69.9369, "lng": -137.0743, "id": "131242", "name": "Sternaspis scutata", "sprite": "sp-anchoviella_juruasanga.png", "group": "other", "rarity": 1}, {"lat": 69.8903, "lng": -137.2217, "id": "160127", "name": "Buccinum plectrum", "sprite": "sp-cowrie_shell.png", "group": "sea_snail", "rarity": 1}, {"lat": 69.8725, "lng": -136.2175, "id": "156452", "name": "Themisto libellula", "sprite": "sp-american_lobster.png", "group": "crab_lobster", "rarity": 1}, {"lat": 69.9089, "lng": -136.6501, "id": "334506", "name": "Phyllodoce groenlandica", "sprite": "sp-anchoviella_juruasanga.png", "group": "other", "rarity": 1}, {"lat": 69.8903, "lng": -137.2217, "id": "107044", "name": "Pandalus", "sprite": "sp-american_lobster.png", "group": "crab_lobster", "rarity": 1}, {"lat": 69.9164, "lng": -136.6602, "id": "126433", "name": "Polar cod", "thumb": "tn_Bosai_u0.jpg", "sprite": "sp-arctogadus.png", "group": "cod", "rarity": 1, "waterType": "Brackish"}, {"lat": 69.8903, "lng": -137.2217, "id": "103700", "name": "Ascidia callosa", "sprite": "sp-anchoviella_juruasanga.png", "group": "other", "rarity": 1}, {"lat": 70.1113, "lng": -136.8369, "id": "130344", "name": "Aglaophamus malmgreni", "sprite": "sp-anchoviella_juruasanga.png", "group": "other", "rarity": 1}, {"lat": 69.8903, "lng": -137.2217, "id": "102722", "name": "Socarnes bidenticulatus", "sprite": "sp-american_lobster.png", "group": "crab_lobster", "rarity": 1}, {"lat": 69.8903, "lng": -137.2217, "id": "107006", "name": "Argis", "sprite": "sp-american_lobster.png", "group": "crab_lobster", "rarity": 1}, {"lat": 70.3503, "lng": -136.6008, "id": "130537", "name": "Scoloplos armiger", "sprite": "sp-anchoviella_juruasanga.png", "group": "other", "rarity": 1}, {"lat": 69.7533, "lng": -137.67, "id": "254957", "name": "Caniformia", "sprite": "sp-anchoviella_juruasanga.png", "group": "other", "rarity": 1}, {"lat": 69.8903, "lng": -137.2217, "id": "123222", "name": "Leptasterias", "sprite": "sp-sea_cucumber.png", "group": "starfish", "rarity": 1}, {"lat": 70.16, "lng": -137.16, "id": "460963", "name": "Cytheropteron excavoalatum", "sprite": "sp-anchoviella_juruasanga.png", "group": "other", "rarity": 1}, {"lat": 69.995, "lng": -136.2912, "id": "140223", "name": "Limacina helicina", "sprite": "sp-cowrie_shell.png", "group": "sea_snail", "rarity": 1}, {"lat": 69.66, "lng": -136.62, "id": "14260", "name": "Rotifera", "sprite": "sp-anchoviella_juruasanga.png", "group": "other", "rarity": 1}, {"lat": 69.7751, "lng": -136.9209, "id": "102297", "name": "Gammarus wilkitzkii", "sprite": "sp-american_lobster.png", "group": "crab_lobster", "rarity": 1}, {"lat": 70.36, "lng": -137.55, "id": "127932", "name": "Bythocythere constricta", "sprite": "sp-anchoviella_juruasanga.png", "group": "other", "rarity": 1}, {"lat": 70.1386, "lng": -135.906, "id": "127590", "name": "Cythereis", "sprite": "sp-anchoviella_juruasanga.png", "group": "other", "rarity": 1}, {"lat": 69.8903, "lng": -137.2217, "id": "138866", "name": "Buccinum hydrophanum", "sprite": "sp-cowrie_shell.png", "group": "sea_snail", "rarity": 1}, {"lat": 69.8903, "lng": -137.2217, "id": "1803", "name": "Brachiopoda", "sprite": "sp-anchoviella_juruasanga.png", "group": "other", "rarity": 1}, {"lat": 69.8903, "lng": -137.2217, "id": "111361", "name": "Eucratea loricata", "sprite": "sp-anchoviella_juruasanga.png", "group": "other", "rarity": 1}, {"lat": 69.8903, "lng": -137.2217, "id": "118456", "name": "Synidotea", "sprite": "sp-american_lobster.png", "group": "crab_lobster", "rarity": 1}, {"lat": 69.8903, "lng": -137.2217, "id": "250677", "name": "Halocynthia igaboja", "sprite": "sp-anchoviella_juruasanga.png", "group": "other", "rarity": 1}, {"lat": 70.0379, "lng": -135.9164, "id": "141987", "name": "Portlandia arctica", "sprite": "sp-blue_mussel.png", "group": "clam_mussel", "rarity": 1}, {"lat": 69.8903, "lng": -137.2217, "id": "488965", "name": "Nototropis smitti", "sprite": "sp-american_lobster.png", "group": "crab_lobster", "rarity": 1}, {"lat": 69.75, "lng": -135.5833, "id": "127181", "name": "Sardine cisco", "thumb": "tn_Cosar_u1.jpg", "sprite": "sp-atlantic_salmon.png", "group": "salmon_trout", "rarity": 1, "waterType": "Brackish"}, {"lat": 69.8145, "lng": -136.328, "id": "127207", "name": "Ribbed sculpin", "thumb": "tn_Trpin_u2.jpg", "sprite": "sp-anchoviella_juruasanga.png", "group": "other", "rarity": 1, "waterType": "Saltwater"}, {"lat": 69.8903, "lng": -137.2217, "id": "141905", "name": "Velutina velutina", "sprite": "sp-cowrie_shell.png", "group": "sea_snail", "rarity": 1}, {"lat": 70.2448, "lng": -135.6151, "id": "110618", "name": "Leucon (Leucon) nasica", "sprite": "sp-american_lobster.png", "group": "crab_lobster", "rarity": 1}, {"lat": 70.1113, "lng": -136.8369, "id": "423717", "name": "Retusophiline lima", "sprite": "sp-cowrie_shell.png", "group": "sea_snail", "rarity": 1}, {"lat": 70.3, "lng": -135.1686, "id": "102064", "name": "Argissa hamatipes", "sprite": "sp-american_lobster.png", "group": "crab_lobster", "rarity": 1}, {"lat": 69.8903, "lng": -137.2217, "id": "101410", "name": "Synopiidae", "sprite": "sp-american_lobster.png", "group": "crab_lobster", "rarity": 1}, {"lat": 69.8903, "lng": -137.2217, "id": "124934", "name": "Ophiura sarsii", "sprite": "sp-sea_cucumber.png", "group": "starfish", "rarity": 1}, {"lat": 69.9938, "lng": -136.6394, "id": "124446", "name": "Myriotrochus rinkii", "sprite": "sp-sea_cucumber.png", "group": "starfish", "rarity": 1}, {"lat": 69.8903, "lng": -137.2217, "id": "106854", "name": "Pagurus", "sprite": "sp-american_lobster.png", "group": "crab_lobster", "rarity": 1}, {"lat": 70.1543, "lng": -136.4936, "id": "127218", "name": "Gelatinous snailfish", "thumb": "tn_Lifab_m0.jpg", "sprite": "sp-anchoviella_juruasanga.png", "group": "other", "rarity": 1, "waterType": "Saltwater"}, {"lat": 69.8903, "lng": -137.2217, "id": "1053399", "name": "Epimeria (Epimeria) loricata", "sprite": "sp-american_lobster.png", "group": "crab_lobster", "rarity": 1}, {"lat": 69.8903, "lng": -137.2217, "id": "140015", "name": "Siphonodentalium lobatum", "sprite": "sp-anchoviella_juruasanga.png", "group": "other", "rarity": 1}, {"lat": 69.8903, "lng": -137.2217, "id": "124798", "name": "Molpadia borealis", "sprite": "sp-sea_cucumber.png", "group": "starfish", "rarity": 1}, {"lat": 70.0712, "lng": -136.0725, "id": "142004", "name": "Yoldiella nana", "sprite": "sp-blue_mussel.png", "group": "clam_mussel", "rarity": 1}, {"lat": 69.8903, "lng": -137.2217, "id": "138288", "name": "Onchidoris", "sprite": "sp-cowrie_shell.png", "group": "sea_snail", "rarity": 1}, {"lat": 70.4, "lng": -136.6, "id": "128009", "name": "Cytheropteron arcticum", "sprite": "sp-anchoviella_juruasanga.png", "group": "other", "rarity": 1}, {"lat": 70.145, "lng": -136.265, "id": "1080", "name": "Copepoda", "sprite": "sp-anchoviella_juruasanga.png", "group": "other", "rarity": 1}, {"lat": 70.25, "lng": -135.04, "id": "116994", "name": "Aegina", "sprite": "sp-anchoviella_juruasanga.png", "group": "other", "rarity": 1}, {"lat": 69.8903, "lng": -137.2217, "id": "129604", "name": "Spinther", "sprite": "sp-anchoviella_juruasanga.png", "group": "other", "rarity": 1}, {"lat": 69.8903, "lng": -137.2217, "id": "101759", "name": "Stegocephalus", "sprite": "sp-american_lobster.png", "group": "crab_lobster", "rarity": 1}, {"lat": 69.8903, "lng": -137.2217, "id": "130977", "name": "Polyphysia crassa", "sprite": "sp-anchoviella_juruasanga.png", "group": "other", "rarity": 1}, {"lat": 69.9834, "lng": -135.7214, "id": "181984", "name": "Diastylis sulcata", "sprite": "sp-american_lobster.png", "group": "crab_lobster", "rarity": 1}, {"lat": 69.8903, "lng": -137.2217, "id": "101528", "name": "Rhachotropis", "sprite": "sp-american_lobster.png", "group": "crab_lobster", "rarity": 1}, {"lat": 69.97, "lng": -137.38, "id": "135418", "name": "Dimophyes arctica", "sprite": "sp-anchoviella_juruasanga.png", "group": "other", "rarity": 1}, {"lat": 69.8903, "lng": -137.2217, "id": "967", "name": "Lumbrineridae", "sprite": "sp-anchoviella_juruasanga.png", "group": "other", "rarity": 1}, {"lat": 69.9926, "lng": -135.35, "id": "118559", "name": "Eugerda tenuimana", "sprite": "sp-american_lobster.png", "group": "crab_lobster", "rarity": 1}, {"lat": 69.66, "lng": -136.62, "id": "117491", "name": "Sarsia tubulosa", "sprite": "sp-anchoviella_juruasanga.png", "group": "other", "rarity": 1}, {"lat": 69.8903, "lng": -137.2217, "id": "369176", "name": "Leptasterias groenlandica", "sprite": "sp-sea_cucumber.png", "group": "starfish", "rarity": 1}, {"lat": 69.66, "lng": -136.62, "id": "104164", "name": "Microcalanus", "sprite": "sp-anchoviella_juruasanga.png", "group": "other", "rarity": 1}, {"lat": 70.1246, "lng": -135.51, "id": "102579", "name": "Hippomedon propinqvus", "sprite": "sp-american_lobster.png", "group": "crab_lobster", "rarity": 1}]}