{"zoom": 7, "x": 16, "y": 54, "points": [{"lat": 26.0, "lng": -134.5, "id": "137090", "name": "Balaenoptera musculus", "sprite": "sp-blue_whale.png", "group": "whale", "rarity": 1}, {"lat": 26.8387, "lng": -134.4853, "id": "344106", "name": "Phoebastria nigripes", "sprite": "sp-anchoviella_juruasanga.png", "group": "other", "rarity": 1}, {"lat": 27.0417, "lng": -132.85, "id": "280366", "name": "Pacific saury", "thumb": "tn_Cosai_u0.jpg", "sprite": "sp-anchoviella_juruasanga.png", "group": "other", "rarity": 1, "waterType": "Saltwater"}, {"lat": 26.0, "lng": -133.5, "id": "137091", "name": "Balaenoptera physalus", "sprite": "sp-blue_whale.png", "group": "whale", "rarity": 1}, {"lat": 25.7113, "lng": -133.7297, "id": "137205", "name": "Caretta caretta", "sprite": "sp-green_sea_turtle.png", "group": "sea_turtle", "rarity": 1}, {"lat": 25.9, "lng": -133.3, "id": "137209", "name": "Dermochelys coriacea", "sprite": "sp-green_sea_turtle.png", "group": "sea_turtle", "rarity": 1}, {"lat": 27.0, "lng": -135.0, "id": "127406", "name": "Slender sunfish", "thumb": "tn_Ralae_u6.jpg", "sprite": "sp-ocean_sunfish_mola_mola.png", "group": "sunfish", "rarity": 1, "waterType": "Saltwater"}, {"lat": 26.0167, "lng": -134.25, "id": "159323", "name": "Gambusia", "sprite": "sp-anchoviella_juruasanga.png", "group": "other", "rarity": 1}, {"lat": 24.9435, "lng": -133.5525, "id": "2", "name": "Animalia", "sprite": "sp-anchoviella_juruasanga.png", "group": "other", "rarity": 1}, {"lat": 26.075, "lng": -132.5, "id": "217612", "name": "Bathophilus indicus", "sprite": "sp-anchoviella_juruasanga.png", "group": "other", "rarity": 1, "waterType": "Saltwater"}]}