{"zoom": 7, "x": 1, "y": 53, "points": [{"lat": 27.832, "lng": -175.8373, "id": "273585", "name": "Yellow-brown wrasse", "thumb": "tn_Thlut_u4.jpg", "sprite": "sp-cleaner_wrasse.png", "group": "wrasse", "rarity": 1, "waterType": "Saltwater"}, {"lat": 27.8662, "lng": -175.7396, "id": "129337", "name": "Lumbrineris", "sprite": "sp-anchoviella_juruasanga.png", "group": "other", "rarity": 1}, {"lat": 27.88, "lng": -175.8506, "id": "144481", "name": "Halimeda discoidea", "sprite": "sp-anchoviella_juruasanga.png", "group": "other", "rarity": 1}, {"lat": 27.674, "lng": -175.4358, "id": "125285", "name": "Anthomastus", "sprite": "sp-actiniidae.png", "group": "coral", "rarity": 1}, {"lat": 27.7934, "lng": -175.8563, "id": "494947", "name": "Antithamnion antillanum", "sprite": "sp-anchoviella_juruasanga.png", "group": "other", "rarity": 1}, {"lat": 27.9159, "lng": -175.7969, "id": "218733", "name": "Raccoon butterflyfish", "thumb": "tn_Chlun_u0.jpg", "sprite": "sp-chaetodon.png", "group": "butterflyfish", "rarity": 1, "waterType": "Saltwater"}, {"lat": 28.53, "lng": -176.61, "id": "1472318", "name": "Lampasopsis cruentata", "sprite": "sp-cowrie_shell.png", "group": "sea_snail", "rarity": 1}, {"lat": 27.8241, "lng": -175.785, "id": "214418", "name": "Rhipidosiphon javensis", "sprite": "sp-anchoviella_juruasanga.png", "group": "other", "rarity": 1}, {"lat": 27.79, "lng": -175.86, "id": "220520", "name": "Palythoa tuberculosa", "sprite": "sp-actiniidae.png", "group": "coral", "rarity": 1}, {"lat": 27.7858, "lng": -175.7803, "id": "106769", "name": "Xanthidae", "sprite": "sp-american_lobster.png", "group": "crab_lobster", "rarity": 1}, {"lat": 27.79, "lng": -175.86, "id": "758222", "name": "Porites hawaiiensis", "sprite": "sp-actiniidae.png", "group": "coral", "rarity": 1}, {"lat": 27.5841, "lng": -175.9602, "id": "137034", "name": "Mesoplodon", "sprite": "sp-blue_whale.png", "group": "whale", "rarity": 1}, {"lat": 28.6833, "lng": -174.9833, "id": "127293", "name": "Atlantic fangjaw", "thumb": "tn_Goatl_u0.gif", "sprite": "sp-anchoviella_juruasanga.png", "group": "other", "rarity": 1, "waterType": "Saltwater"}, {"lat": 27.8412, "lng": -175.8786, "id": "207142", "name": "Montipora turgescens", "sprite": "sp-actiniidae.png", "group": "coral", "rarity": 1}, {"lat": 27.877, "lng": -175.8535, "id": "159299", "name": "Scarus", "sprite": "sp-rainbow_parrotfish.png", "group": "parrotfish", "rarity": 1}, {"lat": 27.8337, "lng": -175.8578, "id": "495074", "name": "Laurencia galtsoffii", "sprite": "sp-anchoviella_juruasanga.png", "group": "other", "rarity": 1}, {"lat": 28.55, "lng": -176.67, "id": "313241", "name": "Slender armorhead", "sprite": "sp-anchoviella_juruasanga.png", "group": "other", "rarity": 1, "waterType": "Saltwater"}, {"lat": 27.8241, "lng": -175.8732, "id": "217496", "name": "Abbott's moray eel", "thumb": "tn_Gyeur_u1.jpg", "sprite": "sp-anarchias.png", "group": "moray", "rarity": 1, "waterType": "Saltwater"}, {"lat": 27.7938, "lng": -175.9252, "id": "204563", "name": "Scorpaenopsis", "sprite": "sp-parascorpaena_moultoni.png", "group": "scorpionfish", "rarity": 1}, {"lat": 27.8563, "lng": -175.7795, "id": "219641", "name": "Eyestripe surgeonfish", "thumb": "tn_Acdus_u4.jpg", "sprite": "sp-acanthurus_albimento.png", "group": "surgeonfish", "rarity": 1, "waterType": "Saltwater"}, {"lat": 27.7917, "lng": -175.967, "id": "144664", "name": "Polysiphonia scopulorum", "sprite": "sp-anchoviella_juruasanga.png", "group": "other", "rarity": 1}, {"lat": 27.1299, "lng": -175.5708, "id": "171658", "name": "Chonelasmatinae", "sprite": "sp-barrel_sponge.png", "group": "sponge", "rarity": 1}, {"lat": 27.7859, "lng": -175.872, "id": "143906", "name": "Chondria", "sprite": "sp-anchoviella_juruasanga.png", "group": "other", "rarity": 1}, {"lat": 27.7909, "lng": -175.8818, "id": "367440", "name": "Calcinus hazletti", "sprite": "sp-american_lobster.png", "group": "crab_lobster", "rarity": 1}, {"lat": 27.9249, "lng": -175.7375, "id": "1781", "name": "Semelidae", "sprite": "sp-blue_mussel.png", "group": "clam_mussel", "rarity": 1}, {"lat": 28.55, "lng": -176.67, "id": "274689", "name": "Large-headed scorpionfish", "thumb": "tn_Pomac_uc.jpg", "sprite": "sp-parascorpaena_moultoni.png", "group": "scorpionfish", "rarity": 1, "waterType": "Saltwater"}, {"lat": 28.0, "lng": -175.0, "id": "1130", "name": "Decapoda", "sprite": "sp-american_lobster.png", "group": "crab_lobster", "rarity": 1}, {"lat": 27.8281, "lng": -175.8177, "id": "320883", "name": "Pycnochromis vanderbilti", "sprite": "sp-chrysiptera_caesifrons.png", "group": "clownfish", "rarity": 1}, {"lat": 27.8381, "lng": -175.8885, "id": "272221", "name": "Hawaiian squirrelfish", "thumb": "tn_Saxan_u0.jpg", "sprite": "sp-anchoviella_juruasanga.png", "group": "other", "rarity": 1, "waterType": "Saltwater"}, {"lat": 27.865, "lng": -175.7928, "id": "129245", "name": "Cirriformia", "sprite": "sp-anchoviella_juruasanga.png", "group": "other", "rarity": 1}, {"lat": 27.7786, "lng": -175.8735, "id": "145017", "name": "Microdictyon umbilicatum", "sprite": "sp-anchoviella_juruasanga.png", "group": "other", "rarity": 1}, {"lat": 27.8662, "lng": -175.7396, "id": "129471", "name": "Poecilochaetus", "sprite": "sp-anchoviella_juruasanga.png", "group": "other", "rarity": 1}, {"lat": 27.1858, "lng": -175.7296, "id": "171834", "name": "Lyssacinosida", "sprite": "sp-barrel_sponge.png", "group": "sponge", "rarity": 1}, {"lat": 27.8719, "lng": -175.812, "id": "793", "name": "Platyhelminthes", "sprite": "sp-anchoviella_juruasanga.png", "group": "other", "rarity": 1}, {"lat": 27.9006, "lng": -175.7949, "id": "207227", "name": "Porites solida", "sprite": "sp-actiniidae.png", "group": "coral", "rarity": 1}, {"lat": 28.56, "lng": -176.69, "id": "205260", "name": "Lactoria", "sprite": "sp-anchoviella_juruasanga.png", "group": "other", "rarity": 1}, {"lat": 27.8563, "lng": -175.8473, "id": "218932", "name": "Tarry hogfish", "thumb": "tn_Bobil_u1.jpg", "sprite": "sp-cleaner_wrasse.png", "group": "wrasse", "rarity": 1, "waterType": "Saltwater"}, {"lat": 27.9038, "lng": -175.9204, "id": "203854", "name": "Cirripectes", "sprite": "sp-helcogramma_ascensionis.png", "group": "blenny", "rarity": 1}, {"lat": 27.8509, "lng": -175.841, "id": "276248", "name": "Whitespotted filefish", "thumb": "tn_Cadum_u1.jpg", "sprite": "sp-anchoviella_juruasanga.png", "group": "other", "rarity": 1, "waterType": "Saltwater"}, {"lat": 27.8269, "lng": -175.8468, "id": "277820", "name": "Manybar goatfish", "thumb": "tn_Pamul_u1.jpg", "sprite": "sp-anchoviella_juruasanga.png", "group": "other", "rarity": 1, "waterType": "Saltwater"}, {"lat": 27.8398, "lng": -175.8496, "id": "144265", "name": "Dictyosphaeria", "sprite": "sp-anchoviella_juruasanga.png", "group": "other", "rarity": 1}, {"lat": 27.7855, "lng": -175.8204, "id": "123456", "name": "Holothuria", "sprite": "sp-sea_cucumber.png", "group": "starfish", "rarity": 1}, {"lat": 27.8392, "lng": -175.753, "id": "107060", "name": "Panulirus", "sprite": "sp-american_lobster.png", "group": "crab_lobster", "rarity": 1}, {"lat": 27.865, "lng": -175.7928, "id": "154127", "name": "Schistomeringos rudolphi", "sprite": "sp-anchoviella_juruasanga.png", "group": "other", "rarity": 1}, {"lat": 27.8662, "lng": -175.7396, "id": "129605", "name": "Aonides", "sprite": "sp-anchoviella_juruasanga.png", "group": "other", "rarity": 1}, {"lat": 27.8, "lng": -175.85, "id": "214372", "name": "Microdictyon japonicum", "sprite": "sp-anchoviella_juruasanga.png", "group": "other", "rarity": 1}, {"lat": 27.8207, "lng": -175.8431, "id": "204552", "name": "Cycloseris", "sprite": "sp-actiniidae.png", "group": "coral", "rarity": 1}, {"lat": 27.5176, "lng": -175.4606, "id": "286119", "name": "Chrysogorgia flavescens", "sprite": "sp-actiniidae.png", "group": "coral", "rarity": 1}, {"lat": 27.7531, "lng": -175.9488, "id": "210177", "name": "Trapezia flavopunctata", "sprite": "sp-american_lobster.png", "group": "crab_lobster", "rarity": 1}, {"lat": 27.8281, "lng": -175.873, "id": "129455", "name": "Phyllodoce", "sprite": "sp-anchoviella_juruasanga.png", "group": "other", "rarity": 1}, {"lat": 27.857, "lng": -176.0959, "id": "143812", "name": "Bryopsis", "sprite": "sp-anchoviella_juruasanga.png", "group": "other", "rarity": 1}, {"lat": 27.8654, "lng": -175.8649, "id": "219094", "name": "Regal parrot", "thumb": "tn_Scdub_f0.jpg", "sprite": "sp-rainbow_parrotfish.png", "group": "parrotfish", "rarity": 1, "waterType": "Saltwater"}, {"lat": 28.0, "lng": -175.0, "id": "2", "name": "Animalia", "sprite": "sp-anchoviella_juruasanga.png", "group": "other", "rarity": 1}, {"lat": 27.8592, "lng": -175.7947, "id": "510278", "name": "Leucothoe hyhelia", "sprite": "sp-american_lobster.png", "group": "crab_lobster", "rarity": 1}, {"lat": 27.8068, "lng": -175.8336, "id": "330715", "name": "Pisione africana", "sprite": "sp-anchoviella_juruasanga.png", "group": "other", "rarity": 1}, {"lat": 27.826, "lng": -175.8577, "id": "1306674", "name": "Breviturma pica", "sprite": "sp-sea_cucumber.png", "group": "starfish", "rarity": 1}, {"lat": 27.8656, "lng": -175.7662, "id": "985", "name": "Sabellidae", "sprite": "sp-anchoviella_juruasanga.png", "group": "other", "rarity": 1}, {"lat": 27.7854, "lng": -175.8235, "id": "123207", "name": "Ophiactidae", "sprite": "sp-sea_cucumber.png", "group": "starfish", "rarity": 1}, {"lat": 27.143, "lng": -176.2263, "id": "125307", "name": "Lepidisis", "sprite": "sp-actiniidae.png", "group": "coral", "rarity": 1}, {"lat": 27.8411, "lng": -175.8812, "id": "206938", "name": "Pocillopora", "sprite": "sp-actiniidae.png", "group": "coral", "rarity": 1}, {"lat": 27.822, "lng": -175.8575, "id": "218866", "name": "Arc-eye hawkfish", "thumb": "tn_Paarc_u1.jpg", "sprite": "sp-anchoviella_juruasanga.png", "group": "other", "rarity": 1, "waterType": "Saltwater"}, {"lat": 27.8, "lng": -175.85, "id": "372346", "name": "Ceramium aduncum", "sprite": "sp-anchoviella_juruasanga.png", "group": "other", "rarity": 1}, {"lat": 27.5759, "lng": -175.8875, "id": "125280", "name": "Coralliidae", "sprite": "sp-actiniidae.png", "group": "coral", "rarity": 1}, {"lat": 27.7953, "lng": -175.8665, "id": "207867", "name": "Spondylus nicobaricus", "sprite": "sp-blue_mussel.png", "group": "clam_mussel", "rarity": 1}, {"lat": 27.1386, "lng": -176.0647, "id": "1609357", "name": "Malacalcyonacea", "sprite": "sp-actiniidae.png", "group": "coral", "rarity": 1}, {"lat": 27.9309, "lng": -175.8629, "id": "207309", "name": "Pavona maldivensis", "sprite": "sp-actiniidae.png", "group": "coral", "rarity": 1}, {"lat": 27.8198, "lng": -175.793, "id": "147183", "name": "Tolypothrix", "sprite": "sp-anchoviella_juruasanga.png", "group": "other", "rarity": 1}, {"lat": 27.8542, "lng": -175.1661, "id": "132123", "name": "Bathydorus", "sprite": "sp-barrel_sponge.png", "group": "sponge", "rarity": 1}, {"lat": 27.3443, "lng": -175.7117, "id": "125319", "name": "Narella", "sprite": "sp-actiniidae.png", "group": "coral", "rarity": 1}, {"lat": 27.863, "lng": -175.853, "id": "144439", "name": "Asparagopsis taxiformis", "sprite": "sp-anchoviella_juruasanga.png", "group": "other", "rarity": 1}, {"lat": 27.8662, "lng": -175.7396, "id": "106763", "name": "Portunidae", "sprite": "sp-american_lobster.png", "group": "crab_lobster", "rarity": 1}, {"lat": 27.764, "lng": -175.947, "id": "129472", "name": "Polygordius", "sprite": "sp-anchoviella_juruasanga.png", "group": "other", "rarity": 1}, {"lat": 27.8308, "lng": -175.8834, "id": "267056", "name": "Myripristinae", "sprite": "sp-anchoviella_juruasanga.png", "group": "other", "rarity": 1}, {"lat": 27.8943, "lng": -175.8784, "id": "218972", "name": "Sling-jaw wrasse", "thumb": "tn_Epins_u6.jpg", "sprite": "sp-cleaner_wrasse.png", "group": "wrasse", "rarity": 1, "waterType": "Saltwater"}, {"lat": 27.8763, "lng": -175.8266, "id": "138531", "name": "Macoma", "sprite": "sp-blue_mussel.png", "group": "clam_mussel", "rarity": 1}, {"lat": 28.55, "lng": -176.67, "id": "208696", "name": "Dardanus brachyops", "sprite": "sp-american_lobster.png", "group": "crab_lobster", "rarity": 1}, {"lat": 27.8427, "lng": -175.8467, "id": "218867", "name": "Blackside hawkfish", "thumb": "tn_Pafor_ug.jpg", "sprite": "sp-anchoviella_juruasanga.png", "group": "other", "rarity": 1, "waterType": "Saltwater"}, {"lat": 27.829, "lng": -175.8262, "id": "275783", "name": "Ornamented wrasse", "thumb": "tn_Haorn_m1.jpg", "sprite": "sp-cleaner_wrasse.png", "group": "wrasse", "rarity": 1, "waterType": "Saltwater"}, {"lat": 27.7983, "lng": -175.8958, "id": "277038", "name": "Hawaiian orbicular velvetfish", "thumb": "tn_Catyp_u1.jpg", "sprite": "sp-parascorpaena_moultoni.png", "group": "scorpionfish", "rarity": 1, "waterType": "Saltwater"}, {"lat": 27.7963, "lng": -175.9118, "id": "206964", "name": "Pocillopora meandrina", "sprite": "sp-actiniidae.png", "group": "coral", "rarity": 1}, {"lat": 27.8233, "lng": -175.8673, "id": "219076", "name": "Carolines parrotfish", "thumb": "tn_Cacar_u1.jpg", "sprite": "sp-rainbow_parrotfish.png", "group": "parrotfish", "rarity": 1, "waterType": "Saltwater"}, {"lat": 27.3941, "lng": -175.7135, "id": "286122", "name": "Chrysogorgia geniculata", "sprite": "sp-actiniidae.png", "group": "coral", "rarity": 1}, {"lat": 27.8577, "lng": -175.8785, "id": "126809", "name": "Rainbow runner", "thumb": "tn_Elbip_u7.jpg", "sprite": "sp-anchoviella_juruasanga.png", "group": "other", "rarity": 1, "waterType": "Saltwater"}, {"lat": 27.8436, "lng": -175.895, "id": "145381", "name": "Lobophora variegata", "sprite": "sp-anchoviella_juruasanga.png", "group": "other", "rarity": 1}, {"lat": 27.8504, "lng": -175.8254, "id": "218665", "name": "Gold-saddle goatfish", "thumb": "tn_Pacyc_u0.jpg", "sprite": "sp-anchoviella_juruasanga.png", "group": "other", "rarity": 1, "waterType": "Saltwater"}, {"lat": 27.7913, "lng": -175.8195, "id": "211778", "name": "Orange angelfish", "thumb": "tn_Cefis_u0.jpg", "sprite": "sp-holacanthus.png", "group": "angelfish", "rarity": 1, "waterType": "Saltwater"}, {"lat": 28.5115, "lng": -176.61, "id": "715097", "name": "Kulamanamana haumeaae", "sprite": "sp-actiniidae.png", "group": "coral", "rarity": 1}, {"lat": 27.9073, "lng": -175.9036, "id": "205342", "name": "Melithaea", "sprite": "sp-actiniidae.png", "group": "coral", "rarity": 1}, {"lat": 27.4387, "lng": -176.192, "id": "137102", "name": "Orcinus orca", "sprite": "sp-bottlenose_dolphin.png", "group": "dolphin", "rarity": 1}, {"lat": 27.9196, "lng": -175.8616, "id": "217954", "name": "Blue lined squirrelfish", "thumb": "tn_Satie_u1.jpg", "sprite": "sp-anchoviella_juruasanga.png", "group": "other", "rarity": 1, "waterType": "Saltwater"}, {"lat": 27.8, "lng": -175.85, "id": "376335", "name": "Parvocaulis clavatus", "sprite": "sp-anchoviella_juruasanga.png", "group": "other", "rarity": 1}, {"lat": 27.1421, "lng": -176.2275, "id": "267936", "name": "Umbellapathes", "sprite": "sp-actiniidae.png", "group": "coral", "rarity": 1}, {"lat": 27.9108, "lng": -175.7222, "id": "126049", "name": "Priacanthus", "sprite": "sp-anchoviella_juruasanga.png", "group": "other", "rarity": 1}, {"lat": 27.8692, "lng": -175.842, "id": "213889", "name": "Lithophyllum kotschyanum", "sprite": "sp-anchoviella_juruasanga.png", "group": "other", "rarity": 1}, {"lat": 27.958, "lng": -175.8022, "id": "143907", "name": "Chondrophycus", "sprite": "sp-anchoviella_juruasanga.png", "group": "other", "rarity": 1}, {"lat": 27.4232, "lng": -175.6533, "id": "177833", "name": "Calyptrophora", "sprite": "sp-actiniidae.png", "group": "coral", "rarity": 1}, {"lat": 27.8418, "lng": -176.0313, "id": "255019", "name": "Monachus schauinslandi", "sprite": "sp-elephant_seal.png", "group": "seal", "rarity": 1}, {"lat": 27.8804, "lng": -175.8191, "id": "126807", "name": "Mackerel scad", "thumb": "tn_Demac_u1.jpg", "sprite": "sp-anchoviella_juruasanga.png", "group": "other", "rarity": 1, "waterType": "Saltwater"}, {"lat": 27.7714, "lng": -175.9673, "id": "220816", "name": "Hypnea pannosa", "sprite": "sp-anchoviella_juruasanga.png", "group": "other", "rarity": 1}, {"lat": 27.8, "lng": -175.85, "id": "494864", "name": "Sargassum piluliferum", "sprite": "sp-anchoviella_juruasanga.png", "group": "other", "rarity": 1}, {"lat": 27.8675, "lng": -175.7881, "id": "212212", "name": "Christmas wrasse", "thumb": "tn_Thtri_u2.jpg", "sprite": "sp-cleaner_wrasse.png", "group": "wrasse", "rarity": 1, "waterType": "Saltwater"}, {"lat": 27.7802, "lng": -175.888, "id": "156078", "name": "Ulva clathrata", "sprite": "sp-anchoviella_juruasanga.png", "group": "other", "rarity": 1}, {"lat": 27.8794, "lng": -175.8622, "id": "712772", "name": "Pacific bullethead parrotfish", "thumb": "tn_Chspi_u7.jpg", "sprite": "sp-rainbow_parrotfish.png", "group": "parrotfish", "rarity": 1, "waterType": "Saltwater"}, {"lat": 27.9208, "lng": -176.2586, "id": "1363", "name": "Scleractinia", "sprite": "sp-actiniidae.png", "group": "coral", "rarity": 1}, {"lat": 28.5512, "lng": -176.6588, "id": "151756", "name": "Serraninae", "sprite": "sp-chelidoperca_santosi.png", "group": "grouper", "rarity": 1}, {"lat": 28.0828, "lng": -176.179, "id": "137127", "name": "Ziphius cavirostris", "sprite": "sp-blue_whale.png", "group": "whale", "rarity": 1}, {"lat": 27.483, "lng": -175.6212, "id": "125303", "name": "Acanella", "sprite": "sp-actiniidae.png", "group": "coral", "rarity": 1}, {"lat": 27.8312, "lng": -175.8803, "id": "206959", "name": "Pocillopora ligulata", "sprite": "sp-actiniidae.png", "group": "coral", "rarity": 1}, {"lat": 27.8576, "lng": -175.7759, "id": "129379", "name": "Nereis", "sprite": "sp-anchoviella_juruasanga.png", "group": "other", "rarity": 1}, {"lat": 27.9634, "lng": -175.7746, "id": "1391128", "name": "Periglypta exclathrata", "sprite": "sp-blue_mussel.png", "group": "clam_mussel", "rarity": 1}, {"lat": 27.7892, "lng": -175.861, "id": "218276", "name": "Bicolor anthias", "thumb": "tn_Psbic_u0.jpg", "sprite": "sp-chelidoperca_santosi.png", "group": "grouper", "rarity": 1, "waterType": "Saltwater"}, {"lat": 28.55, "lng": -176.67, "id": "208782", "name": "Lupocyclus quinquedentatus", "sprite": "sp-american_lobster.png", "group": "crab_lobster", "rarity": 1}, {"lat": 27.9492, "lng": -175.85, "id": "214062", "name": "Anotrichium secundum", "sprite": "sp-anchoviella_juruasanga.png", "group": "other", "rarity": 1}, {"lat": 29.0362, "lng": -175.9144, "id": "137104", "name": "Pseudorca crassidens", "sprite": "sp-bottlenose_dolphin.png", "group": "dolphin", "rarity": 1}, {"lat": 27.8103, "lng": -175.761, "id": "145103", "name": "Choreonema thuretii", "sprite": "sp-anchoviella_juruasanga.png", "group": "other", "rarity": 1}, {"lat": 27.8509, "lng": -175.8489, "id": "712758", "name": "Bodianus albotaeniatus", "thumb": "tn_Bobil_u0.jpg", "sprite": "sp-cleaner_wrasse.png", "group": "wrasse", "rarity": 1, "waterType": "Saltwater"}, {"lat": 27.8149, "lng": -175.8253, "id": "126424", "name": "Delicate round herring", "thumb": "tn_Spdel_u0.jpg", "sprite": "sp-anchoviella_juruasanga.png", "group": "other", "rarity": 1, "waterType": "Saltwater"}, {"lat": 27.8577, "lng": -175.8535, "id": "217964", "name": "Chinese trumpetfish", "thumb": "tn_Auchi_u5.jpg", "sprite": "sp-anchoviella_juruasanga.png", "group": "other", "rarity": 1, "waterType": "Saltwater"}, {"lat": 27.8553, "lng": -175.8299, "id": "214395", "name": "Dictyosphaeria cavernosa", "sprite": "sp-anchoviella_juruasanga.png", "group": "other", "rarity": 1}, {"lat": 27.7804, "lng": -175.8623, "id": "374392", "name": "Distromium flabellatum", "sprite": "sp-anchoviella_juruasanga.png", "group": "other", "rarity": 1}]}