{"zoom": 7, "x": 1, "y": 96, "points": [{"lat": -66.8299, "lng": -177.062, "id": "146142", "name": "Bryozoa", "sprite": "sp-anchoviella_juruasanga.png", "group": "other", "rarity": 1}, {"lat": -66.7448, "lng": -177.093, "id": "290632", "name": "Paraconotrochus antarcticus", "sprite": "sp-actiniidae.png", "group": "coral", "rarity": 1}, {"lat": -67.1901, "lng": -175.624, "id": "231413", "name": "Mirounga leonina", "sprite": "sp-elephant_seal.png", "group": "seal", "rarity": 1}, {"lat": -66.7448, "lng": -177.093, "id": "123080", "name": "Asteroidea", "sprite": "sp-sea_cucumber.png", "group": "starfish", "rarity": 1}, {"lat": -66.7448, "lng": -177.093, "id": "125276", "name": "Isididae", "sprite": "sp-actiniidae.png", "group": "coral", "rarity": 1}, {"lat": -66.7448, "lng": -177.093, "id": "1341", "name": "Octocorallia", "sprite": "sp-actiniidae.png", "group": "coral", "rarity": 1}, {"lat": -67.0, "lng": -177.0, "id": "173167", "name": "Astrotoma agassizii", "sprite": "sp-sea_cucumber.png", "group": "starfish", "rarity": 1}, {"lat": -66.7448, "lng": -177.093, "id": "149872", "name": "Pseudarchaster discus", "sprite": "sp-sea_cucumber.png", "group": "starfish", "rarity": 1}, {"lat": -66.7448, "lng": -177.093, "id": "1337", "name": "Hydrozoa", "sprite": "sp-anchoviella_juruasanga.png", "group": "other", "rarity": 1}, {"lat": -67.0, "lng": -177.0, "id": "100689", "name": "Parazoanthidae", "sprite": "sp-actiniidae.png", "group": "coral", "rarity": 1}, {"lat": -67.0, "lng": -177.0, "id": "123587", "name": "Ophiacantha", "sprite": "sp-sea_cucumber.png", "group": "starfish", "rarity": 1}, {"lat": -66.925, "lng": -176.775, "id": "125293", "name": "Acanthogorgia", "sprite": "sp-actiniidae.png", "group": "coral", "rarity": 1}, {"lat": -66.7448, "lng": -177.093, "id": "231829", "name": "Liothyrella", "sprite": "sp-anchoviella_juruasanga.png", "group": "other", "rarity": 1}, {"lat": -67.012, "lng": -175.8885, "id": "136979", "name": "Balaenopteridae", "sprite": "sp-blue_whale.png", "group": "whale", "rarity": 1}, {"lat": -66.9047, "lng": -176.8849, "id": "125323", "name": "Thouarella", "sprite": "sp-actiniidae.png", "group": "coral", "rarity": 1}, {"lat": -66.7448, "lng": -177.093, "id": "125284", "name": "Alcyonium", "sprite": "sp-actiniidae.png", "group": "coral", "rarity": 1}, {"lat": -66.7448, "lng": -177.093, "id": "135159", "name": "Desmophyllum dianthus", "sprite": "sp-actiniidae.png", "group": "coral", "rarity": 1}, {"lat": -67.3211, "lng": -175.8062, "id": "344008", "name": "Lobodon carcinophagus", "sprite": "sp-elephant_seal.png", "group": "seal", "rarity": 1}, {"lat": -66.7448, "lng": -177.093, "id": "369209", "name": "Nematocarcinus lanceopes", "sprite": "sp-american_lobster.png", "group": "crab_lobster", "rarity": 1}, {"lat": -66.8086, "lng": -177.0698, "id": "558", "name": "Porifera", "sprite": "sp-barrel_sponge.png", "group": "sponge", "rarity": 1}, {"lat": -66.7448, "lng": -177.093, "id": "106989", "name": "Lebbeus", "sprite": "sp-american_lobster.png", "group": "crab_lobster", "rarity": 1}, {"lat": -66.7448, "lng": -177.093, "id": "852318", "name": "Cidaroidea", "sprite": "sp-sea_cucumber.png", "group": "starfish", "rarity": 1}, {"lat": -66.93, "lng": -176.257, "id": "137090", "name": "Balaenoptera musculus", "sprite": "sp-blue_whale.png", "group": "whale", "rarity": 1}, {"lat": -66.7448, "lng": -177.093, "id": "1609360", "name": "Pennatuloidea", "sprite": "sp-actiniidae.png", "group": "coral", "rarity": 1}, {"lat": -66.7448, "lng": -177.093, "id": "123117", "name": "Ophiurida", "sprite": "sp-sea_cucumber.png", "group": "starfish", "rarity": 1}, {"lat": -67.0, "lng": -177.0, "id": "234710", "name": "Stocky rockcod", "thumb": "tn_Pabra_u5.gif", "sprite": "sp-anchoviella_juruasanga.png", "group": "other", "rarity": 1, "waterType": "Saltwater"}, {"lat": -66.7448, "lng": -177.093, "id": "1302", "name": "Pycnogonida", "sprite": "sp-anchoviella_juruasanga.png", "group": "other", "rarity": 1}, {"lat": -66.9667, "lng": -176.1478, "id": "234836", "name": "Antarctic toothfish", "thumb": "tn_Dimaw_u1.jpg", "sprite": "sp-anchoviella_juruasanga.png", "group": "other", "rarity": 1, "waterType": "Saltwater"}, {"lat": -66.9167, "lng": -176.8333, "id": "125278", "name": "Primnoidae", "sprite": "sp-actiniidae.png", "group": "coral", "rarity": 1}, {"lat": -66.7448, "lng": -177.093, "id": "1360", "name": "Actiniaria", "sprite": "sp-actiniidae.png", "group": "coral", "rarity": 1}, {"lat": -67.0, "lng": -177.0, "id": "173173", "name": "Gorgonocephalus chilensis", "sprite": "sp-sea_cucumber.png", "group": "starfish", "rarity": 1}, {"lat": -66.7448, "lng": -177.093, "id": "106986", "name": "Eualus", "sprite": "sp-american_lobster.png", "group": "crab_lobster", "rarity": 1}, {"lat": -66.9444, "lng": -176.8889, "id": "125305", "name": "Isidella", "sprite": "sp-actiniidae.png", "group": "coral", "rarity": 1}, {"lat": -67.0, "lng": -177.0, "id": "1544106", "name": "Keratoisididae", "sprite": "sp-actiniidae.png", "group": "coral", "rarity": 1}, {"lat": -66.7686, "lng": -176.4322, "id": "137092", "name": "Megaptera novaeangliae", "sprite": "sp-blue_whale.png", "group": "whale", "rarity": 1}, {"lat": -66.9593, "lng": -176.1427, "id": "234700", "name": "Patagonian toothfish", "thumb": "tn_Diele_u0.jpg", "sprite": "sp-anchoviella_juruasanga.png", "group": "other", "rarity": 1, "waterType": "Saltwater"}, {"lat": -66.7448, "lng": -177.093, "id": "883", "name": "Polychaeta", "sprite": "sp-anchoviella_juruasanga.png", "group": "other", "rarity": 1}, {"lat": -66.7448, "lng": -177.093, "id": "123204", "name": "Ophiacanthidae", "sprite": "sp-sea_cucumber.png", "group": "starfish", "rarity": 1}, {"lat": -66.7448, "lng": -177.093, "id": "101", "name": "Gastropoda", "sprite": "sp-cowrie_shell.png", "group": "sea_snail", "rarity": 1}, {"lat": -66.7448, "lng": -177.093, "id": "164811", "name": "Demospongiae", "sprite": "sp-barrel_sponge.png", "group": "sponge", "rarity": 1}, {"lat": -66.7448, "lng": -177.093, "id": "123083", "name": "Holothuroidea", "sprite": "sp-sea_cucumber.png", "group": "starfish", "rarity": 1}, {"lat": -66.8594, "lng": -176.9199, "id": "125285", "name": "Anthomastus", "sprite": "sp-actiniidae.png", "group": "coral", "rarity": 1}, {"lat": -66.7448, "lng": -177.093, "id": "178005", "name": "Glabraster antarctica", "sprite": "sp-sea_cucumber.png", "group": "starfish", "rarity": 1}, {"lat": -66.6961, "lng": -174.6103, "id": "225773", "name": "Aptenodytes forsteri", "sprite": "sp-anchoviella_juruasanga.png", "group": "other", "rarity": 1}, {"lat": -66.7448, "lng": -177.093, "id": "605841", "name": "Sceptrulophora", "sprite": "sp-barrel_sponge.png", "group": "sponge", "rarity": 1}, {"lat": -67.0, "lng": -177.0, "id": "123081", "name": "Crinoidea", "sprite": "sp-sea_cucumber.png", "group": "starfish", "rarity": 1}]}