{"zoom": 7, "x": 20, "y": 49, "points": [{"lat": 37.8739, "lng": -123.313, "id": "166886", "name": "Xestospongia diprosopia", "sprite": "sp-barrel_sponge.png", "group": "sponge", "rarity": 1}, {"lat": 37.4121, "lng": -122.1865, "id": "921", "name": "Capitellidae", "sprite": "sp-anchoviella_juruasanga.png", "group": "other", "rarity": 1}, {"lat": 36.8261, "lng": -121.9372, "id": "333001", "name": "Aphrodita refulgida", "sprite": "sp-anchoviella_juruasanga.png", "group": "other", "rarity": 1}, {"lat": 38.4299, "lng": -123.5588, "id": "889450", "name": "Swiftia farallonesica", "sprite": "sp-actiniidae.png", "group": "coral", "rarity": 1}, {"lat": 38.0, "lng": -123.0, "id": "2546", "name": "Pseudocella", "sprite": "sp-anchoviella_juruasanga.png", "group": "other", "rarity": 1}, {"lat": 37.047, "lng": -122.6459, "id": "274562", "name": "Swellhead snailfish", "thumb": "tn_Pacep_u0.gif", "sprite": "sp-anchoviella_juruasanga.png", "group": "other", "rarity": 1, "waterType": "Saltwater"}, {"lat": 36.7199, "lng": -122.0652, "id": "106350", "name": "Bolinopsis", "sprite": "sp-anchoviella_juruasanga.png", "group": "other", "rarity": 1}, {"lat": 36.8372, "lng": -122.2186, "id": "305684", "name": "Microstomus bathybius", "sprite": "sp-atlantic_halibut.png", "group": "flatfish", "rarity": 1}, {"lat": 36.7956, "lng": -121.846, "id": "573967", "name": "Rhodomonas abbreviata", "sprite": "sp-anchoviella_juruasanga.png", "group": "other", "rarity": 1}, {"lat": 38.001, "lng": -122.903, "id": "581402", "name": "Cylichna diegensis", "sprite": "sp-cowrie_shell.png", "group": "sea_snail", "rarity": 1}, {"lat": 37.7309, "lng": -122.2939, "id": "231750", "name": "Ruditapes philippinarum", "sprite": "sp-blue_mussel.png", "group": "clam_mussel", "rarity": 1}, {"lat": 37.9891, "lng": -123.3897, "id": "117246", "name": "Stylaster", "sprite": "sp-anchoviella_juruasanga.png", "group": "other", "rarity": 1}, {"lat": 37.6431, "lng": -123.5131, "id": "136224", "name": "Paragathotanais", "sprite": "sp-american_lobster.png", "group": "crab_lobster", "rarity": 1}, {"lat": 37.793, "lng": -122.2598, "id": "109852", "name": "Gyrodinium estuariale", "sprite": "sp-anchoviella_juruasanga.png", "group": "other", "rarity": 1}, {"lat": 37.2876, "lng": -122.5621, "id": "334789", "name": "Sigalion spinosus", "sprite": "sp-anchoviella_juruasanga.png", "group": "other", "rarity": 1}, {"lat": 36.7959, "lng": -121.8466, "id": "562870", "name": "Choanozoa", "sprite": "sp-anchoviella_juruasanga.png", "group": "other", "rarity": 1}, {"lat": 37.727, "lng": -123.1566, "id": "182833", "name": "Nellobia eusoma", "sprite": "sp-anchoviella_juruasanga.png", "group": "other", "rarity": 1}, {"lat": 37.2463, "lng": -122.5793, "id": "274848", "name": "Stripetail rockfish", "thumb": "tn_Sesax_u0.jpg", "sprite": "sp-anchoviella_juruasanga.png", "group": "other", "rarity": 1, "waterType": "Saltwater"}, {"lat": 36.7201, "lng": -122.0689, "id": "106360", "name": "Beroe forskalii", "sprite": "sp-anchoviella_juruasanga.png", "group": "other", "rarity": 1}, {"lat": 36.7834, "lng": -122.1685, "id": "135282", "name": "Atolla wyvillei", "sprite": "sp-box_jellyfish.png", "group": "jellyfish", "rarity": 1}, {"lat": 37.3337, "lng": -122.4087, "id": "535329", "name": "Pollicipes polymerus", "sprite": "sp-anchoviella_juruasanga.png", "group": "other", "rarity": 1}, {"lat": 36.7959, "lng": -121.8456, "id": "414910", "name": "Trimyemidae", "sprite": "sp-anchoviella_juruasanga.png", "group": "other", "rarity": 1}, {"lat": 36.6055, "lng": -121.897, "id": "434771", "name": "Pseudomelatoma torosa", "sprite": "sp-cowrie_shell.png", "group": "sea_snail", "rarity": 1}, {"lat": 36.796, "lng": -121.8469, "id": "232731", "name": "Lepidodinium viride", "sprite": "sp-anchoviella_juruasanga.png", "group": "other", "rarity": 1}, {"lat": 38.2739, "lng": -121.8118, "id": "1148649", "name": "Branchinecta conservatio", "sprite": "sp-anchoviella_juruasanga.png", "group": "other", "rarity": 1}, {"lat": 37.8907, "lng": -122.0898, "id": "141579", "name": "Macoma balthica", "sprite": "sp-blue_mussel.png", "group": "clam_mussel", "rarity": 1}, {"lat": 37.5057, "lng": -122.8554, "id": "534197", "name": "Calliostoma annulatum", "sprite": "sp-cowrie_shell.png", "group": "sea_snail", "rarity": 1}, {"lat": 37.2013, "lng": -122.444, "id": "510651", "name": "Aruga oculata", "sprite": "sp-american_lobster.png", "group": "crab_lobster", "rarity": 1}, {"lat": 36.6437, "lng": -121.8951, "id": "743645", "name": "Pteropurpura macroptera", "sprite": "sp-cowrie_shell.png", "group": "sea_snail", "rarity": 1}, {"lat": 37.4242, "lng": -122.4977, "id": "123132", "name": "Echinasteridae", "sprite": "sp-sea_cucumber.png", "group": "starfish", "rarity": 1}, {"lat": 36.6406, "lng": -121.9398, "id": "138351", "name": "Atrina", "sprite": "sp-blue_mussel.png", "group": "clam_mussel", "rarity": 1}, {"lat": 36.8185, "lng": -121.7662, "id": "283085", "name": "Haller's round ray", "thumb": "tn_Urhal_u0.jpg", "sprite": "sp-himantura_australis.png", "group": "ray", "rarity": 1, "waterType": "Saltwater"}, {"lat": 36.7959, "lng": -121.8468, "id": "582427", "name": "Telonemida", "sprite": "sp-anchoviella_juruasanga.png", "group": "other", "rarity": 1}, {"lat": 36.8748, "lng": -122.2048, "id": "123458", "name": "Parastichopus", "sprite": "sp-sea_cucumber.png", "group": "starfish", "rarity": 1}, {"lat": 37.543, "lng": -122.7232, "id": "332974", "name": "Ancistrosyllis hamata", "sprite": "sp-anchoviella_juruasanga.png", "group": "other", "rarity": 1}, {"lat": 37.7224, "lng": -122.3566, "id": "122400", "name": "Zygonemertes", "sprite": "sp-anchoviella_juruasanga.png", "group": "other", "rarity": 1}, {"lat": 37.8194, "lng": -122.06, "id": "109538", "name": "Glenodinium", "sprite": "sp-anchoviella_juruasanga.png", "group": "other", "rarity": 1}, {"lat": 37.8364, "lng": -122.3744, "id": "439514", "name": "Lophopanopeus", "sprite": "sp-american_lobster.png", "group": "crab_lobster", "rarity": 1}, {"lat": 37.375, "lng": -122.6983, "id": "131599", "name": "Poecilosclerida", "sprite": "sp-barrel_sponge.png", "group": "sponge", "rarity": 1}, {"lat": 37.7094, "lng": -122.3009, "id": "233024", "name": "Karenia mikimotoi", "sprite": "sp-anchoviella_juruasanga.png", "group": "other", "rarity": 1}, {"lat": 36.7957, "lng": -121.8463, "id": "872068", "name": "Abollifer globosa", "sprite": "sp-anchoviella_juruasanga.png", "group": "other", "rarity": 1}, {"lat": 36.7957, "lng": -121.8463, "id": "235769", "name": "Amphorides quadrilineata", "sprite": "sp-anchoviella_juruasanga.png", "group": "other", "rarity": 1}, {"lat": 37.7335, "lng": -122.3341, "id": "515552", "name": "Crangon nigromaculata", "sprite": "sp-american_lobster.png", "group": "crab_lobster", "rarity": 1}, {"lat": 36.8382, "lng": -121.8463, "id": "325585", "name": "Aricidea (Aedicira)", "sprite": "sp-anchoviella_juruasanga.png", "group": "other", "rarity": 1}, {"lat": 37.8436, "lng": -122.6328, "id": "129445", "name": "Eulalia", "sprite": "sp-anchoviella_juruasanga.png", "group": "other", "rarity": 1}, {"lat": 37.5832, "lng": -123.367, "id": "122305", "name": "Heteronemertea", "sprite": "sp-anchoviella_juruasanga.png", "group": "other", "rarity": 1}, {"lat": 37.7514, "lng": -122.3741, "id": "106215", "name": "Balanus crenatus", "sprite": "sp-anchoviella_juruasanga.png", "group": "other", "rarity": 1}, {"lat": 36.797, "lng": -121.8467, "id": "128690", "name": "Oncaea", "sprite": "sp-anchoviella_juruasanga.png", "group": "other", "rarity": 1}, {"lat": 37.42, "lng": -123.73, "id": "106677", "name": "Thalassinidea", "sprite": "sp-american_lobster.png", "group": "crab_lobster", "rarity": 1}, {"lat": 36.71, "lng": -122.0558, "id": "138623", "name": "Vampyroteuthis", "sprite": "sp-giant_pacific_octopus.png", "group": "octopus_squid", "rarity": 1}, {"lat": 37.1865, "lng": -122.3813, "id": "368459", "name": "Astropecten verrilli", "sprite": "sp-sea_cucumber.png", "group": "starfish", "rarity": 1}, {"lat": 37.8237, "lng": -122.5103, "id": "2041", "name": "Hirudinea", "sprite": "sp-anchoviella_juruasanga.png", "group": "other", "rarity": 1}, {"lat": 36.7, "lng": -122.1, "id": "738388", "name": "Apolemia rubriversa", "sprite": "sp-anchoviella_juruasanga.png", "group": "other", "rarity": 1}, {"lat": 37.0319, "lng": -122.1793, "id": "274527", "name": "Slimy snailfish", "thumb": "tn_Limuc_u0.jpg", "sprite": "sp-anchoviella_juruasanga.png", "group": "other", "rarity": 1, "waterType": "Saltwater"}, {"lat": 36.617, "lng": -121.9, "id": "352757", "name": "Lepeophtheirus nordmannii", "sprite": "sp-anchoviella_juruasanga.png", "group": "other", "rarity": 1}, {"lat": 37.8871, "lng": -123.3916, "id": "332682", "name": "Chone magna", "sprite": "sp-anchoviella_juruasanga.png", "group": "other", "rarity": 1}, {"lat": 36.7079, "lng": -122.0971, "id": "118342", "name": "Munneurycope", "sprite": "sp-american_lobster.png", "group": "crab_lobster", "rarity": 1}, {"lat": 38.3167, "lng": -123.4667, "id": "135417", "name": "Chelophyes appendiculata", "sprite": "sp-anchoviella_juruasanga.png", "group": "other", "rarity": 1}, {"lat": 36.7347, "lng": -122.0232, "id": "126599", "name": "Longfin lanternfish", "thumb": "tn_Diatl_u1.gif", "sprite": "sp-anchoviella_juruasanga.png", "group": "other", "rarity": 1, "waterType": "Saltwater"}, {"lat": 36.9232, "lng": -121.9098, "id": "109475", "name": "Gymnodinium", "sprite": "sp-anchoviella_juruasanga.png", "group": "other", "rarity": 1}, {"lat": 37.8125, "lng": -122.3514, "id": "129299", "name": "Glycinde", "sprite": "sp-anchoviella_juruasanga.png", "group": "other", "rarity": 1}, {"lat": 37.7615, "lng": -122.7166, "id": "143723", "name": "Fucaceae", "sprite": "sp-anchoviella_juruasanga.png", "group": "other", "rarity": 1}, {"lat": 37.8085, "lng": -122.342, "id": "291370", "name": "Dynamenella conica", "sprite": "sp-american_lobster.png", "group": "crab_lobster", "rarity": 1}, {"lat": 37.7367, "lng": -122.1484, "id": "964596", "name": "Cyclotella striata", "sprite": "sp-anchoviella_juruasanga.png", "group": "other", "rarity": 1}, {"lat": 36.7983, "lng": -121.8477, "id": "437251", "name": "Leotiomycetes", "sprite": "sp-anchoviella_juruasanga.png", "group": "other", "rarity": 1}, {"lat": 37.4424, "lng": -122.8116, "id": "182302", "name": "Eudorellopsis longirostris", "sprite": "sp-american_lobster.png", "group": "crab_lobster", "rarity": 1}, {"lat": 36.9717, "lng": -122.6507, "id": "11732", "name": "Cirrata", "sprite": "sp-giant_pacific_octopus.png", "group": "octopus_squid", "rarity": 1}, {"lat": 36.7958, "lng": -121.8472, "id": "136744", "name": "Euglyphidae", "sprite": "sp-anchoviella_juruasanga.png", "group": "other", "rarity": 1}, {"lat": 36.9914, "lng": -123.3537, "id": "123293", "name": "Evoplosoma", "sprite": "sp-sea_cucumber.png", "group": "starfish", "rarity": 1}, {"lat": 37.644, "lng": -123.5187, "id": "122307", "name": "Palaeonemertea", "sprite": "sp-anchoviella_juruasanga.png", "group": "other", "rarity": 1}, {"lat": 37.766, "lng": -122.2818, "id": "118399", "name": "Cirolana", "sprite": "sp-american_lobster.png", "group": "crab_lobster", "rarity": 1}, {"lat": 36.7962, "lng": -121.8487, "id": "437453", "name": "Cystobasidiomycetes", "sprite": "sp-anchoviella_juruasanga.png", "group": "other", "rarity": 1}, {"lat": 37.7079, "lng": -122.5168, "id": "333826", "name": "Lepidonotus spiculus", "sprite": "sp-anchoviella_juruasanga.png", "group": "other", "rarity": 1}, {"lat": 36.7959, "lng": -121.8466, "id": "118028", "name": "Telonema", "sprite": "sp-anchoviella_juruasanga.png", "group": "other", "rarity": 1}, {"lat": 37.2025, "lng": -122.1697, "id": "446895", "name": "Lacuna unifasciata", "sprite": "sp-cowrie_shell.png", "group": "sea_snail", "rarity": 1}, {"lat": 37.3162, "lng": -122.3967, "id": "374709", "name": "Phyllospadix torreyi", "sprite": "sp-anchoviella_juruasanga.png", "group": "other", "rarity": 1}, {"lat": 36.7962, "lng": -121.8472, "id": "628278", "name": "Gyrodinium rubrum", "sprite": "sp-anchoviella_juruasanga.png", "group": "other", "rarity": 1}, {"lat": 36.7715, "lng": -122.083, "id": "1508602", "name": "Balticinidae", "sprite": "sp-actiniidae.png", "group": "coral", "rarity": 1}, {"lat": 37.767, "lng": -122.417, "id": "440398", "name": "Romaleon branneri", "sprite": "sp-american_lobster.png", "group": "crab_lobster", "rarity": 1}, {"lat": 37.767, "lng": -122.383, "id": "261827", "name": "Paracerceis sculpta", "sprite": "sp-american_lobster.png", "group": "crab_lobster", "rarity": 1}, {"lat": 36.7455, "lng": -122.2761, "id": "140652", "name": "Opisthoteuthis agassizii", "sprite": "sp-giant_pacific_octopus.png", "group": "octopus_squid", "rarity": 1}, {"lat": 37.7571, "lng": -122.3661, "id": "117378", "name": "Hartlaubella gelatinosa", "sprite": "sp-anchoviella_juruasanga.png", "group": "other", "rarity": 1}, {"lat": 38.2706, "lng": -123.405, "id": "432520", "name": "Ophiodermella", "sprite": "sp-cowrie_shell.png", "group": "sea_snail", "rarity": 1}, {"lat": 37.9023, "lng": -122.4113, "id": "467577", "name": "Einhornia crustulenta", "sprite": "sp-anchoviella_juruasanga.png", "group": "other", "rarity": 1}, {"lat": 36.75, "lng": -121.917, "id": "380803", "name": "Myonotus intermedius", "sprite": "sp-sea_cucumber.png", "group": "starfish", "rarity": 1}, {"lat": 38.2728, "lng": -121.8244, "id": "148370", "name": "Daphnia", "sprite": "sp-anchoviella_juruasanga.png", "group": "other", "rarity": 1}, {"lat": 37.9225, "lng": -122.5124, "id": "131807", "name": "Halichondria", "sprite": "sp-barrel_sponge.png", "group": "sponge", "rarity": 1}, {"lat": 37.6779, "lng": -122.6188, "id": "240735", "name": "Rock greenling", "thumb": "tn_Helag_u1.jpg", "sprite": "sp-anchoviella_juruasanga.png", "group": "other", "rarity": 1, "waterType": "Saltwater"}, {"lat": 37.6392, "lng": -122.3062, "id": "1505232", "name": "Tadarida brasiliensis", "sprite": "sp-anchoviella_juruasanga.png", "group": "other", "rarity": 1}, {"lat": 37.8092, "lng": -122.3927, "id": "138186", "name": "Mysella", "sprite": "sp-blue_mussel.png", "group": "clam_mussel", "rarity": 1}, {"lat": 37.6339, "lng": -122.745, "id": "329125", "name": "Magelona berkeleyi", "sprite": "sp-anchoviella_juruasanga.png", "group": "other", "rarity": 1}, {"lat": 36.9114, "lng": -122.2715, "id": "106674", "name": "Caridea", "sprite": "sp-american_lobster.png", "group": "crab_lobster", "rarity": 1}, {"lat": 37.4948, "lng": -122.4637, "id": "138259", "name": "Nuculana", "sprite": "sp-blue_mussel.png", "group": "clam_mussel", "rarity": 1}, {"lat": 38.1185, "lng": -121.8296, "id": "155554", "name": "Cryptomonas ovata", "sprite": "sp-anchoviella_juruasanga.png", "group": "other", "rarity": 1}, {"lat": 37.9708, "lng": -122.3482, "id": "101397", "name": "Melitidae", "sprite": "sp-american_lobster.png", "group": "crab_lobster", "rarity": 1}, {"lat": 36.7862, "lng": -122.1162, "id": "254843", "name": "Rathbunaster", "sprite": "sp-sea_cucumber.png", "group": "starfish", "rarity": 1}, {"lat": 37.6104, "lng": -122.5889, "id": "465341", "name": "Neotrypaea", "sprite": "sp-american_lobster.png", "group": "crab_lobster", "rarity": 1}, {"lat": 36.75, "lng": -121.917, "id": "1301213", "name": "Xingyurella pedrensis", "sprite": "sp-anchoviella_juruasanga.png", "group": "other", "rarity": 1}, {"lat": 37.545, "lng": -122.1792, "id": "148949", "name": "Actinoptychus splendens", "sprite": "sp-anchoviella_juruasanga.png", "group": "other", "rarity": 1}, {"lat": 37.6279, "lng": -123.0369, "id": "140584", "name": "Ennucula tenuis", "sprite": "sp-blue_mussel.png", "group": "clam_mussel", "rarity": 1}, {"lat": 36.75, "lng": -121.9185, "id": "289322", "name": "Acanthoptilum album", "sprite": "sp-actiniidae.png", "group": "coral", "rarity": 1}, {"lat": 38.1122, "lng": -122.8615, "id": "125550", "name": "Pholidae", "sprite": "sp-anchoviella_juruasanga.png", "group": "other", "rarity": 1}, {"lat": 37.1189, "lng": -122.0073, "id": "149122", "name": "Chaetoceros didymus", "sprite": "sp-anchoviella_juruasanga.png", "group": "other", "rarity": 1}, {"lat": 37.8099, "lng": -122.355, "id": "129251", "name": "Cossura", "sprite": "sp-anchoviella_juruasanga.png", "group": "other", "rarity": 1}, {"lat": 38.1635, "lng": -122.9067, "id": "1019728", "name": "Zebra-perch sea chub", "thumb": "tn_Heazu_u1.jpg", "sprite": "sp-anchoviella_juruasanga.png", "group": "other", "rarity": 1, "waterType": "Saltwater"}, {"lat": 36.7957, "lng": -121.8463, "id": "117367", "name": "Clytia gracilis", "sprite": "sp-anchoviella_juruasanga.png", "group": "other", "rarity": 1}, {"lat": 37.8594, "lng": -122.3982, "id": "414295", "name": "Barentsia discreta", "sprite": "sp-anchoviella_juruasanga.png", "group": "other", "rarity": 1}, {"lat": 37.7826, "lng": -122.2943, "id": "131167", "name": "Pseudopolydora kempi", "sprite": "sp-anchoviella_juruasanga.png", "group": "other", "rarity": 1}, {"lat": 37.3595, "lng": -122.3356, "id": "329161", "name": "Magelona sacculata", "sprite": "sp-anchoviella_juruasanga.png", "group": "other", "rarity": 1}, {"lat": 38.0143, "lng": -122.813, "id": "331458", "name": "Pygospio californica", "sprite": "sp-anchoviella_juruasanga.png", "group": "other", "rarity": 1}, {"lat": 36.9769, "lng": -122.3599, "id": "274774", "name": "Aurora rockfish", "thumb": "tn_Seaur_j1.gif", "sprite": "sp-anchoviella_juruasanga.png", "group": "other", "rarity": 1, "waterType": "Saltwater"}, {"lat": 36.7959, "lng": -121.8467, "id": "577497", "name": "Syndiniaceae", "sprite": "sp-anchoviella_juruasanga.png", "group": "other", "rarity": 1}, {"lat": 36.7962, "lng": -121.8468, "id": "149233", "name": "Lauderia borealis", "sprite": "sp-anchoviella_juruasanga.png", "group": "other", "rarity": 1}, {"lat": 36.9972, "lng": -123.3035, "id": "100684", "name": "Cerianthidae", "sprite": "sp-cerianthidae.png", "group": "coral", "rarity": 1}, {"lat": 36.7958, "lng": -121.8462, "id": "106422", "name": "Oithonidae", "sprite": "sp-anchoviella_juruasanga.png", "group": "other", "rarity": 1}, {"lat": 36.6209, "lng": -121.943, "id": "126240", "name": "Lagocephalus", "sprite": "sp-fahaka_pufferfish.png", "group": "pufferfish", "rarity": 1}, {"lat": 37.6625, "lng": -122.6369, "id": "143674", "name": "Rhodomelaceae", "sprite": "sp-anchoviella_juruasanga.png", "group": "other", "rarity": 1}, {"lat": 37.9043, "lng": -123.3393, "id": "130801", "name": "Lepidonotus squamatus", "sprite": "sp-anchoviella_juruasanga.png", "group": "other", "rarity": 1}, {"lat": 36.7029, "lng": -122.05, "id": "157409", "name": "Pione", "sprite": "sp-barrel_sponge.png", "group": "sponge", "rarity": 1}, {"lat": 36.9033, "lng": -122.0965, "id": "322270", "name": "Kelp gunnel", "sprite": "sp-anchoviella_juruasanga.png", "group": "other", "rarity": 1, "waterType": "Saltwater"}]}