{"zoom": 7, "x": 20, "y": 60, "points": [{"lat": 9.922, "lng": -122.752, "id": "137013", "name": "Balaenoptera", "sprite": "sp-blue_whale.png", "group": "whale", "rarity": 1}, {"lat": 10.0, "lng": -122.3167, "id": "159424", "name": "Bigeye cigarfish", "thumb": "tn_Cupau_u0.jpg", "sprite": "sp-anchoviella_juruasanga.png", "group": "other", "rarity": 1, "waterType": "Saltwater"}, {"lat": 10.5767, "lng": -122.6967, "id": "137094", "name": "Delphinus delphis", "sprite": "sp-bottlenose_dolphin.png", "group": "dolphin", "rarity": 1}, {"lat": 9.7, "lng": -121.5, "id": "275008", "name": "Aristostomias xenostoma", "sprite": "sp-anchoviella_juruasanga.png", "group": "other", "rarity": 1, "waterType": "Saltwater"}, {"lat": 9.9227, "lng": -122.6487, "id": "137105", "name": "Stenella attenuata", "sprite": "sp-bottlenose_dolphin.png", "group": "dolphin", "rarity": 1}, {"lat": 10.517, "lng": -122.3, "id": "137851", "name": "Liocranchia", "sprite": "sp-giant_pacific_octopus.png", "group": "octopus_squid", "rarity": 1}, {"lat": 10.82, "lng": -121.02, "id": "325464", "name": "Cellana testudinaria", "sprite": "sp-cowrie_shell.png", "group": "sea_snail", "rarity": 1}, {"lat": 9.5, "lng": -122.5, "id": "137090", "name": "Balaenoptera musculus", "sprite": "sp-blue_whale.png", "group": "whale", "rarity": 1}, {"lat": 10.7333, "lng": -121.1833, "id": "126387", "name": "Mirrorwing flyingfish", "thumb": "tn_Hispe_u1.jpg", "sprite": "sp-flying_fish.png", "group": "flying_fish", "rarity": 1, "waterType": "Saltwater"}, {"lat": 10.7333, "lng": -121.1833, "id": "217869", "name": "Barbel flyingfish", "thumb": "tn_Exmon_u0.gif", "sprite": "sp-flying_fish.png", "group": "flying_fish", "rarity": 1, "waterType": "Saltwater"}, {"lat": 9.3, "lng": -123.2, "id": "476551", "name": "Ranularia gutturnia", "sprite": "sp-cowrie_shell.png", "group": "sea_snail", "rarity": 1}, {"lat": 9.42, "lng": -121.6, "id": "137104", "name": "Pseudorca crassidens", "sprite": "sp-bottlenose_dolphin.png", "group": "dolphin", "rarity": 1}, {"lat": 8.8, "lng": -123.533, "id": "342396", "name": "Sepiolina nipponensis", "sprite": "sp-giant_pacific_octopus.png", "group": "octopus_squid", "rarity": 1}, {"lat": 9.7375, "lng": -122.715, "id": "137096", "name": "Globicephala macrorhynchus", "sprite": "sp-bottlenose_dolphin.png", "group": "dolphin", "rarity": 1}, {"lat": 9.3, "lng": -123.125, "id": "137098", "name": "Grampus griseus", "sprite": "sp-bottlenose_dolphin.png", "group": "dolphin", "rarity": 1}, {"lat": 10.0, "lng": -121.0, "id": "1609240", "name": "Purpuraturris undosa", "sprite": "sp-cowrie_shell.png", "group": "sea_snail", "rarity": 1}, {"lat": 9.4667, "lng": -121.2667, "id": "273148", "name": "Pacific pomfret", "thumb": "tn_Brjap_u4.jpg", "sprite": "sp-anchoviella_juruasanga.png", "group": "other", "rarity": 1, "waterType": "Saltwater"}, {"lat": 9.5389, "lng": -122.8767, "id": "137107", "name": "Stenella coeruleoalba", "sprite": "sp-bottlenose_dolphin.png", "group": "dolphin", "rarity": 1}, {"lat": 9.9, "lng": -121.033, "id": "266249", "name": "Ferosagitta robusta", "sprite": "sp-anchoviella_juruasanga.png", "group": "other", "rarity": 1}, {"lat": 9.7, "lng": -121.5, "id": "105794", "name": "Oceanic whitetip shark", "thumb": "tn_Calon_u8.jpg", "sprite": "sp-great_white_shark.png", "group": "shark", "rarity": 1, "waterType": "Saltwater"}, {"lat": 9.95, "lng": -123.1167, "id": "225933", "name": "Pterodroma externa", "sprite": "sp-anchoviella_juruasanga.png", "group": "other", "rarity": 1}, {"lat": 8.7375, "lng": -123.335, "id": "220293", "name": "Lepidochelys olivacea", "sprite": "sp-green_sea_turtle.png", "group": "sea_turtle", "rarity": 1}, {"lat": 10.17, "lng": -122.56, "id": "217159", "name": "Homalocantha scorpio", "sprite": "sp-cowrie_shell.png", "group": "sea_snail", "rarity": 1}, {"lat": 8.605, "lng": -123.3525, "id": "159025", "name": "Kogia sima", "sprite": "sp-blue_whale.png", "group": "whale", "rarity": 1}, {"lat": 9.9317, "lng": -122.4525, "id": "2688", "name": "Cetacea", "sprite": "sp-anchoviella_juruasanga.png", "group": "other", "rarity": 1}, {"lat": 9.9667, "lng": -123.1333, "id": "212595", "name": "Phaethon rubricauda", "sprite": "sp-anchoviella_juruasanga.png", "group": "other", "rarity": 1}, {"lat": 9.9167, "lng": -122.75, "id": "126807", "name": "Mackerel scad", "thumb": "tn_Demac_u1.jpg", "sprite": "sp-anchoviella_juruasanga.png", "group": "other", "rarity": 1, "waterType": "Saltwater"}, {"lat": 10.4486, "lng": -122.8429, "id": "368867", "name": "Stenella longirostris orientalis", "sprite": "sp-bottlenose_dolphin.png", "group": "dolphin", "rarity": 1}, {"lat": 8.802, "lng": -123.3427, "id": "136999", "name": "Cheloniidae", "sprite": "sp-green_sea_turtle.png", "group": "sea_turtle", "rarity": 1}, {"lat": 10.0049, "lng": -122.5187, "id": "2", "name": "Animalia", "sprite": "sp-anchoviella_juruasanga.png", "group": "other", "rarity": 1}, {"lat": 9.6125, "lng": -123.0475, "id": "137109", "name": "Stenella longirostris", "sprite": "sp-bottlenose_dolphin.png", "group": "dolphin", "rarity": 1}, {"lat": 8.8833, "lng": -123.4, "id": "159074", "name": "Larus atricilla", "sprite": "sp-anchoviella_juruasanga.png", "group": "other", "rarity": 1}, {"lat": 9.4667, "lng": -121.2667, "id": "272531", "name": "King-of-the-salmon", "sprite": "sp-anchoviella_juruasanga.png", "group": "other", "rarity": 1, "waterType": "Saltwater"}, {"lat": 9.5183, "lng": -123.6883, "id": "558646", "name": "Hypselodoris tryoni", "sprite": "sp-cowrie_shell.png", "group": "sea_snail", "rarity": 1}, {"lat": 9.48, "lng": -121.765, "id": "137102", "name": "Orcinus orca", "sprite": "sp-bottlenose_dolphin.png", "group": "dolphin", "rarity": 1}, {"lat": 10.2533, "lng": -123.085, "id": "137111", "name": "Tursiops truncatus", "sprite": "sp-bottlenose_dolphin.png", "group": "dolphin", "rarity": 1}, {"lat": 10.34, "lng": -123.175, "id": "137110", "name": "Steno bredanensis", "sprite": "sp-bottlenose_dolphin.png", "group": "dolphin", "rarity": 1}, {"lat": 10.17, "lng": -123.56, "id": "570002", "name": "Natica fasciata", "sprite": "sp-cowrie_shell.png", "group": "sea_snail", "rarity": 1}, {"lat": 10.7333, "lng": -121.1833, "id": "126385", "name": "Tropical two-wing flyingfish", "thumb": "tn_Exvol_u2.gif", "sprite": "sp-flying_fish.png", "group": "flying_fish", "rarity": 1, "waterType": "Saltwater"}, {"lat": 8.65, "lng": -123.36, "id": "137127", "name": "Ziphius cavirostris", "sprite": "sp-blue_whale.png", "group": "whale", "rarity": 1}]}