{"zoom": 7, "x": 20, "y": 63, "points": [{"lat": 2.5503, "lng": -121.567, "id": "1026286", "name": "Trilobatus sacculifer", "sprite": "sp-anchoviella_juruasanga.png", "group": "other", "rarity": 1}, {"lat": 2.5503, "lng": -121.567, "id": "1026393", "name": "Globorotalia multicamerata", "sprite": "sp-anchoviella_juruasanga.png", "group": "other", "rarity": 1}, {"lat": 2.5503, "lng": -121.567, "id": "735192", "name": "Globorotalia minutissima", "sprite": "sp-anchoviella_juruasanga.png", "group": "other", "rarity": 1}, {"lat": 2.5503, "lng": -121.567, "id": "1289836", "name": "Globorotaloides stainforthi", "sprite": "sp-anchoviella_juruasanga.png", "group": "other", "rarity": 1}, {"lat": 1.24, "lng": -122.66, "id": "137107", "name": "Stenella coeruleoalba", "sprite": "sp-bottlenose_dolphin.png", "group": "dolphin", "rarity": 1}, {"lat": 2.5503, "lng": -121.567, "id": "735209", "name": "Globorotalia tosaensis", "sprite": "sp-anchoviella_juruasanga.png", "group": "other", "rarity": 1}, {"lat": 2.05, "lng": -121.65, "id": "219745", "name": "Black fathead", "thumb": "tn_Cubax_u0.jpg", "sprite": "sp-anchoviella_juruasanga.png", "group": "other", "rarity": 1, "waterType": "Saltwater"}, {"lat": 2.5503, "lng": -121.567, "id": "1026407", "name": "Globorotalia plesiotumida", "sprite": "sp-anchoviella_juruasanga.png", "group": "other", "rarity": 1}, {"lat": 2.5503, "lng": -121.567, "id": "735177", "name": "Fohsella peripheroronda", "sprite": "sp-anchoviella_juruasanga.png", "group": "other", "rarity": 1}, {"lat": 1.07, "lng": -122.23, "id": "493610", "name": "Stylodictya multispina", "sprite": "sp-anchoviella_juruasanga.png", "group": "other", "rarity": 1}, {"lat": 2.5503, "lng": -121.567, "id": "1026411", "name": "Globoconella miozea", "sprite": "sp-anchoviella_juruasanga.png", "group": "other", "rarity": 1}, {"lat": 2.5503, "lng": -121.567, "id": "1455327", "name": "Globorotalia (Truncorotalia) crassaformis", "sprite": "sp-anchoviella_juruasanga.png", "group": "other", "rarity": 1}, {"lat": 0.49, "lng": -123.43, "id": "137098", "name": "Grampus griseus", "sprite": "sp-bottlenose_dolphin.png", "group": "dolphin", "rarity": 1}, {"lat": 0.08, "lng": -122.86, "id": "137096", "name": "Globicephala macrorhynchus", "sprite": "sp-bottlenose_dolphin.png", "group": "dolphin", "rarity": 1}, {"lat": 1.07, "lng": -122.23, "id": "493606", "name": "Spongodiscus", "sprite": "sp-anchoviella_juruasanga.png", "group": "other", "rarity": 1}, {"lat": 1.07, "lng": -122.23, "id": "413008", "name": "Eucyrtidium hexagonatum", "sprite": "sp-anchoviella_juruasanga.png", "group": "other", "rarity": 1}, {"lat": 2.5503, "lng": -121.567, "id": "912960", "name": "Globigerinoides obliquus", "sprite": "sp-anchoviella_juruasanga.png", "group": "other", "rarity": 1}, {"lat": 1.07, "lng": -122.23, "id": "345838", "name": "Theoperidae", "sprite": "sp-anchoviella_juruasanga.png", "group": "other", "rarity": 1}, {"lat": 2.5503, "lng": -121.567, "id": "1046434", "name": "Globorotalia (Globorotalia) merotumida", "sprite": "sp-anchoviella_juruasanga.png", "group": "other", "rarity": 1}, {"lat": 2.5503, "lng": -121.567, "id": "113444", "name": "Globigerinoides ruber", "sprite": "sp-anchoviella_juruasanga.png", "group": "other", "rarity": 1}, {"lat": 2.5503, "lng": -121.567, "id": "1026283", "name": "Sphaeroidinellopsis seminulina", "sprite": "sp-anchoviella_juruasanga.png", "group": "other", "rarity": 1}, {"lat": 2.5503, "lng": -121.567, "id": "735191", "name": "Globorotalia margaritae", "sprite": "sp-anchoviella_juruasanga.png", "group": "other", "rarity": 1}, {"lat": 1.24, "lng": -123.33, "id": "137034", "name": "Mesoplodon", "sprite": "sp-blue_whale.png", "group": "whale", "rarity": 1}, {"lat": 2.5503, "lng": -121.567, "id": "735138", "name": "Globigerinatella insueta", "sprite": "sp-anchoviella_juruasanga.png", "group": "other", "rarity": 1}, {"lat": 2.5503, "lng": -121.567, "id": "1026823", "name": "Dentoglobigerina tripartita", "sprite": "sp-anchoviella_juruasanga.png", "group": "other", "rarity": 1}, {"lat": 2.5503, "lng": -121.567, "id": "735147", "name": "Orbulina suturalis", "sprite": "sp-anchoviella_juruasanga.png", "group": "other", "rarity": 1}, {"lat": 1.07, "lng": -122.23, "id": "367305", "name": "Pterocorythidae", "sprite": "sp-anchoviella_juruasanga.png", "group": "other", "rarity": 1}, {"lat": 2.1667, "lng": -121.6167, "id": "127292", "name": "Pacific portholefish", "thumb": "tn_Ditae_u0.jpg", "sprite": "sp-anchoviella_juruasanga.png", "group": "other", "rarity": 1, "waterType": "Saltwater"}, {"lat": 1.555, "lng": -123.195, "id": "137105", "name": "Stenella attenuata", "sprite": "sp-bottlenose_dolphin.png", "group": "dolphin", "rarity": 1}, {"lat": 2.765, "lng": -122.945, "id": "137013", "name": "Balaenoptera", "sprite": "sp-blue_whale.png", "group": "whale", "rarity": 1}, {"lat": 2.1667, "lng": -121.6167, "id": "159424", "name": "Bigeye cigarfish", "thumb": "tn_Cupau_u0.jpg", "sprite": "sp-anchoviella_juruasanga.png", "group": "other", "rarity": 1, "waterType": "Saltwater"}, {"lat": 2.5503, "lng": -121.567, "id": "1455325", "name": "Globoconella praescitula", "sprite": "sp-anchoviella_juruasanga.png", "group": "other", "rarity": 1}, {"lat": 2.5503, "lng": -121.567, "id": "735229", "name": "Pulleniatina primalis", "sprite": "sp-anchoviella_juruasanga.png", "group": "other", "rarity": 1}, {"lat": 2.5503, "lng": -121.567, "id": "735211", "name": "Neogloboquadrina acostaensis", "sprite": "sp-anchoviella_juruasanga.png", "group": "other", "rarity": 1}, {"lat": 2.5503, "lng": -121.567, "id": "113448", "name": "Globorotalia hirsuta", "sprite": "sp-anchoviella_juruasanga.png", "group": "other", "rarity": 1}, {"lat": 2.5503, "lng": -121.567, "id": "113440", "name": "Globigerinella siphonifera", "sprite": "sp-anchoviella_juruasanga.png", "group": "other", "rarity": 1}, {"lat": 2.5503, "lng": -121.567, "id": "221249", "name": "Globigerina falconensis", "sprite": "sp-anchoviella_juruasanga.png", "group": "other", "rarity": 1}, {"lat": 2.5503, "lng": -121.567, "id": "113433", "name": "Beella digitata", "sprite": "sp-anchoviella_juruasanga.png", "group": "other", "rarity": 1}, {"lat": 2.5503, "lng": -121.567, "id": "735159", "name": "Catapsydrax dissimilis", "sprite": "sp-anchoviella_juruasanga.png", "group": "other", "rarity": 1}, {"lat": 2.5503, "lng": -121.567, "id": "895702", "name": "Globorotalia archeomenardii", "sprite": "sp-anchoviella_juruasanga.png", "group": "other", "rarity": 1}, {"lat": 2.5503, "lng": -121.567, "id": "113450", "name": "Globorotalia menardii", "sprite": "sp-anchoviella_juruasanga.png", "group": "other", "rarity": 1}, {"lat": 2.5503, "lng": -121.567, "id": "113465", "name": "Globigerinita uvula", "sprite": "sp-anchoviella_juruasanga.png", "group": "other", "rarity": 1}, {"lat": 2.5503, "lng": -121.567, "id": "113460", "name": "Orbulina universa", "sprite": "sp-anchoviella_juruasanga.png", "group": "other", "rarity": 1}, {"lat": 1.07, "lng": -122.23, "id": "385311", "name": "Lithelius", "sprite": "sp-anchoviella_juruasanga.png", "group": "other", "rarity": 1}, {"lat": 2.1667, "lng": -121.6167, "id": "126864", "name": "Black snake mackerel", "thumb": "tn_Netri_u0.jpg", "sprite": "sp-anchoviella_juruasanga.png", "group": "other", "rarity": 1, "waterType": "Saltwater"}, {"lat": 1.08, "lng": -121.0, "id": "413023", "name": "Pterocorys hertwigii", "sprite": "sp-anchoviella_juruasanga.png", "group": "other", "rarity": 1}, {"lat": 2.5503, "lng": -121.567, "id": "920404", "name": "Pulleniatina spectabilis", "sprite": "sp-anchoviella_juruasanga.png", "group": "other", "rarity": 1}, {"lat": 2.5503, "lng": -121.567, "id": "418108", "name": "Sphaeroidinella dehiscens", "sprite": "sp-anchoviella_juruasanga.png", "group": "other", "rarity": 1}, {"lat": 2.5503, "lng": -121.567, "id": "735176", "name": "Fohsella peripheroacuta", "sprite": "sp-anchoviella_juruasanga.png", "group": "other", "rarity": 1}, {"lat": 2.5503, "lng": -121.567, "id": "1027272", "name": "Globoturborotalita euapertura", "sprite": "sp-anchoviella_juruasanga.png", "group": "other", "rarity": 1}, {"lat": 1.8611, "lng": -121.7111, "id": "127303", "name": "Oceanic lightfish", "thumb": "tn_Vinim_u1.gif", "sprite": "sp-anchoviella_juruasanga.png", "group": "other", "rarity": 1, "waterType": "Saltwater"}, {"lat": 2.5503, "lng": -121.567, "id": "113464", "name": "Globigerinita glutinata", "sprite": "sp-anchoviella_juruasanga.png", "group": "other", "rarity": 1}, {"lat": 0.2516, "lng": -122.0069, "id": "123258", "name": "Ctenodiscus", "sprite": "sp-sea_cucumber.png", "group": "starfish", "rarity": 1}, {"lat": 2.5503, "lng": -121.567, "id": "1052463", "name": "Paragloborotalia siakensis", "sprite": "sp-anchoviella_juruasanga.png", "group": "other", "rarity": 1}, {"lat": 2.5503, "lng": -121.567, "id": "735270", "name": "Cassigerinella chipolensis", "sprite": "sp-anchoviella_juruasanga.png", "group": "other", "rarity": 1}, {"lat": 1.07, "lng": -122.23, "id": "412998", "name": "Pterocanium praetextum", "sprite": "sp-anchoviella_juruasanga.png", "group": "other", "rarity": 1}, {"lat": 2.5503, "lng": -121.567, "id": "735154", "name": "Sphaeroidinellopsis kochi", "sprite": "sp-anchoviella_juruasanga.png", "group": "other", "rarity": 1}, {"lat": 2.5503, "lng": -121.567, "id": "735212", "name": "Neogloboquadrina humerosa", "sprite": "sp-anchoviella_juruasanga.png", "group": "other", "rarity": 1}, {"lat": 2.5503, "lng": -121.567, "id": "735202", "name": "Globorotalia praemenardii", "sprite": "sp-anchoviella_juruasanga.png", "group": "other", "rarity": 1}, {"lat": 2.5503, "lng": -121.567, "id": "615435", "name": "Helicosphaera carteri", "sprite": "sp-anchoviella_juruasanga.png", "group": "other", "rarity": 1}, {"lat": 2.5503, "lng": -121.567, "id": "112197", "name": "Globigerina", "sprite": "sp-anchoviella_juruasanga.png", "group": "other", "rarity": 1}, {"lat": 2.5503, "lng": -121.567, "id": "1026386", "name": "Globorotalia exilis", "sprite": "sp-anchoviella_juruasanga.png", "group": "other", "rarity": 1}, {"lat": 2.5503, "lng": -121.567, "id": "1289872", "name": "Paragloborotalia kugleri", "sprite": "sp-anchoviella_juruasanga.png", "group": "other", "rarity": 1}, {"lat": 1.07, "lng": -122.23, "id": "493389", "name": "Spongoplegma", "sprite": "sp-anchoviella_juruasanga.png", "group": "other", "rarity": 1}, {"lat": 1.35, "lng": -120.98, "id": "137035", "name": "Ziphius", "sprite": "sp-blue_whale.png", "group": "whale", "rarity": 1}, {"lat": 1.9333, "lng": -121.6833, "id": "272701", "name": "Diogenes lanternfish", "sprite": "sp-anchoviella_juruasanga.png", "group": "other", "rarity": 1, "waterType": "Saltwater"}, {"lat": 2.5503, "lng": -121.567, "id": "1026364", "name": "Dentoglobigerina altispira", "sprite": "sp-anchoviella_juruasanga.png", "group": "other", "rarity": 1}, {"lat": 2.5503, "lng": -121.567, "id": "735166", "name": "Globoquadrina dehiscens", "sprite": "sp-anchoviella_juruasanga.png", "group": "other", "rarity": 1}, {"lat": 1.24, "lng": -122.72, "id": "2688", "name": "Cetacea", "sprite": "sp-anchoviella_juruasanga.png", "group": "other", "rarity": 1}, {"lat": 1.08, "lng": -121.0, "id": "367318", "name": "Collosphaera tuberosa", "sprite": "sp-anchoviella_juruasanga.png", "group": "other", "rarity": 1}, {"lat": 1.555, "lng": -123.195, "id": "137109", "name": "Stenella longirostris", "sprite": "sp-bottlenose_dolphin.png", "group": "dolphin", "rarity": 1}, {"lat": 1.2006, "lng": -122.426, "id": "137119", "name": "Physeter macrocephalus", "sprite": "sp-blue_whale.png", "group": "whale", "rarity": 1}, {"lat": 1.83, "lng": -121.67, "id": "137099", "name": "Lagenodelphis hosei", "sprite": "sp-bottlenose_dolphin.png", "group": "dolphin", "rarity": 1}, {"lat": 2.5503, "lng": -121.567, "id": "113441", "name": "Globigerinoides conglobatus", "sprite": "sp-anchoviella_juruasanga.png", "group": "other", "rarity": 1}, {"lat": 2.5503, "lng": -121.567, "id": "345553", "name": "Umbilicosphaera foliosa", "sprite": "sp-anchoviella_juruasanga.png", "group": "other", "rarity": 1}, {"lat": 2.5503, "lng": -121.567, "id": "1292688", "name": "Tenuitella angustiumbilicata", "sprite": "sp-anchoviella_juruasanga.png", "group": "other", "rarity": 1}, {"lat": 1.9333, "lng": -121.6833, "id": "126993", "name": "Bluefin driftfish", "thumb": "tn_Pspel_u1.jpg", "sprite": "sp-anchoviella_juruasanga.png", "group": "other", "rarity": 1, "waterType": "Saltwater"}, {"lat": 2.5503, "lng": -121.567, "id": "735167", "name": "Globoquadrina langhiana", "sprite": "sp-anchoviella_juruasanga.png", "group": "other", "rarity": 1}, {"lat": 1.07, "lng": -122.23, "id": "412955", "name": "Tetrapyle octacantha", "sprite": "sp-anchoviella_juruasanga.png", "group": "other", "rarity": 1}, {"lat": 2.5503, "lng": -121.567, "id": "1026605", "name": "Globorotaloides hexagonus", "sprite": "sp-anchoviella_juruasanga.png", "group": "other", "rarity": 1}, {"lat": 2.5503, "lng": -121.567, "id": "735217", "name": "Paragloborotalia nana", "sprite": "sp-anchoviella_juruasanga.png", "group": "other", "rarity": 1}, {"lat": 2.5503, "lng": -121.567, "id": "113434", "name": "Globigerina bulloides", "sprite": "sp-anchoviella_juruasanga.png", "group": "other", "rarity": 1}, {"lat": 2.5503, "lng": -121.567, "id": "735120", "name": "Globigerina foliata", "sprite": "sp-anchoviella_juruasanga.png", "group": "other", "rarity": 1}, {"lat": 2.178, "lng": -121.8947, "id": "2", "name": "Animalia", "sprite": "sp-anchoviella_juruasanga.png", "group": "other", "rarity": 1}, {"lat": 2.5503, "lng": -121.567, "id": "113454", "name": "Globoturborotalita rubescens", "sprite": "sp-anchoviella_juruasanga.png", "group": "other", "rarity": 1}, {"lat": 2.5503, "lng": -121.567, "id": "1290592", "name": "Globigerinoides altiaperturus", "sprite": "sp-anchoviella_juruasanga.png", "group": "other", "rarity": 1}, {"lat": 2.5503, "lng": -121.567, "id": "1027267", "name": "Trilobatus trilobus", "sprite": "sp-anchoviella_juruasanga.png", "group": "other", "rarity": 1}, {"lat": 2.5503, "lng": -121.567, "id": "1026357", "name": "Dentigloborotalia anfracta", "sprite": "sp-anchoviella_juruasanga.png", "group": "other", "rarity": 1}, {"lat": 2.5503, "lng": -121.567, "id": "113452", "name": "Globorotalia scitula", "sprite": "sp-anchoviella_juruasanga.png", "group": "other", "rarity": 1}, {"lat": 2.5503, "lng": -121.567, "id": "221331", "name": "Pulleniatina obliquiloculata", "sprite": "sp-anchoviella_juruasanga.png", "group": "other", "rarity": 1}, {"lat": 1.34, "lng": -121.55, "id": "137102", "name": "Orcinus orca", "sprite": "sp-bottlenose_dolphin.png", "group": "dolphin", "rarity": 1}, {"lat": 2.5503, "lng": -121.567, "id": "735164", "name": "Catapsydrax unicavus", "sprite": "sp-anchoviella_juruasanga.png", "group": "other", "rarity": 1}, {"lat": 2.5503, "lng": -121.567, "id": "1035151", "name": "Subbotina patagonica", "sprite": "sp-anchoviella_juruasanga.png", "group": "other", "rarity": 1}]}