{"zoom": 7, "x": 22, "y": 57, "points": [{"lat": 17.7433, "lng": -115.7067, "id": "368867", "name": "Stenella longirostris orientalis", "sprite": "sp-bottlenose_dolphin.png", "group": "dolphin", "rarity": 1}, {"lat": 16.91, "lng": -117.28, "id": "137110", "name": "Steno bredanensis", "sprite": "sp-bottlenose_dolphin.png", "group": "dolphin", "rarity": 1}, {"lat": 17.47, "lng": -117.0, "id": "1128", "name": "Euphausiacea", "sprite": "sp-antarctic_krill.png", "group": "shrimp", "rarity": 1}, {"lat": 17.0167, "lng": -116.4167, "id": "126387", "name": "Mirrorwing flyingfish", "thumb": "tn_Hispe_u1.jpg", "sprite": "sp-flying_fish.png", "group": "flying_fish", "rarity": 1, "waterType": "Saltwater"}, {"lat": 17.47, "lng": -117.0, "id": "292728", "name": "Lioloma delicatulum", "sprite": "sp-anchoviella_juruasanga.png", "group": "other", "rarity": 1}, {"lat": 18.064, "lng": -116.1495, "id": "126385", "name": "Tropical two-wing flyingfish", "thumb": "tn_Exvol_u2.gif", "sprite": "sp-flying_fish.png", "group": "flying_fish", "rarity": 1, "waterType": "Saltwater"}, {"lat": 18.98, "lng": -116.44, "id": "137089", "name": "Balaenoptera edeni", "sprite": "sp-blue_whale.png", "group": "whale", "rarity": 1}, {"lat": 17.79, "lng": -116.35, "id": "137111", "name": "Tursiops truncatus", "sprite": "sp-bottlenose_dolphin.png", "group": "dolphin", "rarity": 1}, {"lat": 18.3457, "lng": -117.7063, "id": "137092", "name": "Megaptera novaeangliae", "sprite": "sp-blue_whale.png", "group": "whale", "rarity": 1}, {"lat": 18.3188, "lng": -115.325, "id": "419521", "name": "Cerithium eburneum", "sprite": "sp-cowrie_shell.png", "group": "sea_snail", "rarity": 1}, {"lat": 18.0, "lng": -118.0, "id": "125432", "name": "Nemichthyidae", "sprite": "sp-electric_eel.png", "group": "eel", "rarity": 1}, {"lat": 16.85, "lng": -117.5, "id": "272702", "name": "Slendertail lanternfish", "thumb": "tn_Goten_u0.jpg", "sprite": "sp-anchoviella_juruasanga.png", "group": "other", "rarity": 1, "waterType": "Saltwater"}, {"lat": 17.18, "lng": -116.045, "id": "137098", "name": "Grampus griseus", "sprite": "sp-bottlenose_dolphin.png", "group": "dolphin", "rarity": 1}, {"lat": 17.47, "lng": -117.0, "id": "883", "name": "Polychaeta", "sprite": "sp-anchoviella_juruasanga.png", "group": "other", "rarity": 1}, {"lat": 17.867, "lng": -116.4085, "id": "2688", "name": "Cetacea", "sprite": "sp-anchoviella_juruasanga.png", "group": "other", "rarity": 1}, {"lat": 16.8333, "lng": -117.2333, "id": "272153", "name": "Backspot flyingfish", "thumb": "tn_Chdor_u2.gif", "sprite": "sp-flying_fish.png", "group": "flying_fish", "rarity": 1, "waterType": "Saltwater"}, {"lat": 17.42, "lng": -117.87, "id": "137102", "name": "Orcinus orca", "sprite": "sp-bottlenose_dolphin.png", "group": "dolphin", "rarity": 1}, {"lat": 18.0, "lng": -118.0, "id": "127292", "name": "Pacific portholefish", "thumb": "tn_Ditae_u0.jpg", "sprite": "sp-anchoviella_juruasanga.png", "group": "other", "rarity": 1, "waterType": "Saltwater"}, {"lat": 18.3167, "lng": -116.7375, "id": "513372", "name": "Lovenia cordiformis", "sprite": "sp-sea_cucumber.png", "group": "starfish", "rarity": 1}, {"lat": 17.47, "lng": -117.0, "id": "149121", "name": "Chaetoceros densus", "sprite": "sp-anchoviella_juruasanga.png", "group": "other", "rarity": 1}, {"lat": 16.94, "lng": -116.54, "id": "137035", "name": "Ziphius", "sprite": "sp-blue_whale.png", "group": "whale", "rarity": 1}, {"lat": 18.3167, "lng": -116.7375, "id": "267795", "name": "Ptilosarcus", "sprite": "sp-actiniidae.png", "group": "coral", "rarity": 1}, {"lat": 17.47, "lng": -117.0, "id": "837455", "name": "Tripos inflatus", "sprite": "sp-anchoviella_juruasanga.png", "group": "other", "rarity": 1}, {"lat": 16.8333, "lng": -117.5167, "id": "126845", "name": "Pompano dolphinfish", "thumb": "tn_Coequ_m0.jpg", "sprite": "sp-anchoviella_juruasanga.png", "group": "other", "rarity": 1, "waterType": "Saltwater"}, {"lat": 17.47, "lng": -117.0, "id": "109589", "name": "Amphisolenia bidentata", "sprite": "sp-anchoviella_juruasanga.png", "group": "other", "rarity": 1}, {"lat": 17.22, "lng": -115.53, "id": "137087", "name": "Balaenoptera acutorostrata", "sprite": "sp-blue_whale.png", "group": "whale", "rarity": 1}, {"lat": 18.3167, "lng": -116.7375, "id": "513191", "name": "Clypeaster ochrus", "sprite": "sp-sea_cucumber.png", "group": "starfish", "rarity": 1}, {"lat": 16.8667, "lng": -117.5167, "id": "219903", "name": "Roundbelly cowfish", "thumb": "tn_Ladia_u2.jpg", "sprite": "sp-anchoviella_juruasanga.png", "group": "other", "rarity": 1, "waterType": "Brackish"}, {"lat": 19.09, "lng": -116.155, "id": "136999", "name": "Cheloniidae", "sprite": "sp-green_sea_turtle.png", "group": "sea_turtle", "rarity": 1}, {"lat": 16.875, "lng": -117.505, "id": "127014", "name": "Wahoo", "thumb": "tn_Acsol_ua.jpg", "sprite": "sp-bluefin_tuna.png", "group": "tuna_mackerel", "rarity": 1, "waterType": "Saltwater"}, {"lat": 17.47, "lng": -117.0, "id": "1371", "name": "Siphonophorae", "sprite": "sp-anchoviella_juruasanga.png", "group": "other", "rarity": 1}, {"lat": 17.47, "lng": -117.0, "id": "109695", "name": "Ornithocercus splendidus", "sprite": "sp-anchoviella_juruasanga.png", "group": "other", "rarity": 1}, {"lat": 17.08, "lng": -116.8, "id": "220293", "name": "Lepidochelys olivacea", "sprite": "sp-green_sea_turtle.png", "group": "sea_turtle", "rarity": 1}, {"lat": 18.3167, "lng": -116.7375, "id": "546882", "name": "Meoma ventricosa grandis", "sprite": "sp-sea_cucumber.png", "group": "starfish", "rarity": 1}, {"lat": 17.47, "lng": -117.0, "id": "573437", "name": "Coscinodiscus sol", "sprite": "sp-anchoviella_juruasanga.png", "group": "other", "rarity": 1}, {"lat": 17.47, "lng": -117.0, "id": "837460", "name": "Tripos extensus", "sprite": "sp-anchoviella_juruasanga.png", "group": "other", "rarity": 1}, {"lat": 17.47, "lng": -117.0, "id": "110328", "name": "Pyrocystis fusiformis", "sprite": "sp-anchoviella_juruasanga.png", "group": "other", "rarity": 1}, {"lat": 18.0, "lng": -118.0, "id": "270108", "name": "Opostomias", "sprite": "sp-anchoviella_juruasanga.png", "group": "other", "rarity": 1}, {"lat": 18.1789, "lng": -116.1644, "id": "137105", "name": "Stenella attenuata", "sprite": "sp-bottlenose_dolphin.png", "group": "dolphin", "rarity": 1}, {"lat": 17.47, "lng": -117.0, "id": "146203", "name": "Dinoflagellata", "sprite": "sp-anchoviella_juruasanga.png", "group": "other", "rarity": 1}, {"lat": 18.3167, "lng": -116.7375, "id": "513183", "name": "Clypeaster europacificus", "sprite": "sp-sea_cucumber.png", "group": "starfish", "rarity": 1}, {"lat": 18.0, "lng": -118.0, "id": "272290", "name": "Codlet", "thumb": "tn_Brbat_u1.jpg", "sprite": "sp-anchoviella_juruasanga.png", "group": "other", "rarity": 1, "waterType": "Saltwater"}, {"lat": 17.2892, "lng": -116.8646, "id": "2", "name": "Animalia", "sprite": "sp-anchoviella_juruasanga.png", "group": "other", "rarity": 1}, {"lat": 18.0, "lng": -118.0, "id": "275151", "name": "Pacific blackdragon", "thumb": "tn_Idant_u0.jpg", "sprite": "sp-anchoviella_juruasanga.png", "group": "other", "rarity": 1, "waterType": "Saltwater"}, {"lat": 17.7447, "lng": -116.1707, "id": "137107", "name": "Stenella coeruleoalba", "sprite": "sp-bottlenose_dolphin.png", "group": "dolphin", "rarity": 1}, {"lat": 18.0417, "lng": -116.55, "id": "272704", "name": "Thickhead lanternfish", "sprite": "sp-anchoviella_juruasanga.png", "group": "other", "rarity": 1, "waterType": "Saltwater"}, {"lat": 16.8333, "lng": -117.5167, "id": "278729", "name": "Narrowhead flyingfish", "thumb": "tn_Cyang_u0.gif", "sprite": "sp-flying_fish.png", "group": "flying_fish", "rarity": 1, "waterType": "Saltwater"}, {"lat": 18.314, "lng": -117.362, "id": "137013", "name": "Balaenoptera", "sprite": "sp-blue_whale.png", "group": "whale", "rarity": 1}, {"lat": 18.0, "lng": -118.0, "id": "275617", "name": "Scopelarchoides nicholsi", "sprite": "sp-anchoviella_juruasanga.png", "group": "other", "rarity": 1, "waterType": "Saltwater"}, {"lat": 18.61, "lng": -117.86, "id": "137104", "name": "Pseudorca crassidens", "sprite": "sp-bottlenose_dolphin.png", "group": "dolphin", "rarity": 1}, {"lat": 18.3167, "lng": -116.7375, "id": "545126", "name": "Rhyncholampas pacificus", "sprite": "sp-sea_cucumber.png", "group": "starfish", "rarity": 1}, {"lat": 16.88, "lng": -117.51, "id": "273527", "name": "Mexican hogfish", "thumb": "tn_Bodip_m1.jpg", "sprite": "sp-cleaner_wrasse.png", "group": "wrasse", "rarity": 1, "waterType": "Saltwater"}, {"lat": 17.47, "lng": -117.0, "id": "19542", "name": "Dinophyceae", "sprite": "sp-anchoviella_juruasanga.png", "group": "other", "rarity": 1}, {"lat": 17.47, "lng": -117.0, "id": "1080", "name": "Copepoda", "sprite": "sp-anchoviella_juruasanga.png", "group": "other", "rarity": 1}, {"lat": 17.4, "lng": -116.23, "id": "137095", "name": "Feresa attenuata", "sprite": "sp-bottlenose_dolphin.png", "group": "dolphin", "rarity": 1}, {"lat": 17.47, "lng": -117.0, "id": "2081", "name": "Chaetognatha", "sprite": "sp-anchoviella_juruasanga.png", "group": "other", "rarity": 1}]}