{"zoom": 7, "x": 22, "y": 94, "points": [{"lat": -65.325, "lng": -117.492, "id": "197021", "name": "Adamussium colbecki", "sprite": "sp-blue_mussel.png", "group": "clam_mussel", "rarity": 1}, {"lat": -65.233, "lng": -117.5, "id": "213632", "name": "Elpidia gracilis", "sprite": "sp-sea_cucumber.png", "group": "starfish", "rarity": 1}, {"lat": -64.827, "lng": -116.157, "id": "657391", "name": "Impagidinium pallidum", "sprite": "sp-anchoviella_juruasanga.png", "group": "other", "rarity": 1}, {"lat": -65.3291, "lng": -117.496, "id": "175039", "name": "Phascolion (Montuga) lutense", "sprite": "sp-anchoviella_juruasanga.png", "group": "other", "rarity": 1}, {"lat": -65.265, "lng": -117.555, "id": "19494", "name": "Hydroidolina", "sprite": "sp-anchoviella_juruasanga.png", "group": "other", "rarity": 1}, {"lat": -65.264, "lng": -117.554, "id": "883", "name": "Polychaeta", "sprite": "sp-anchoviella_juruasanga.png", "group": "other", "rarity": 1}, {"lat": -65.279, "lng": -117.496, "id": "123897", "name": "Lonchotaster tartareus", "sprite": "sp-sea_cucumber.png", "group": "starfish", "rarity": 1}, {"lat": -65.2725, "lng": -117.5675, "id": "1128", "name": "Euphausiacea", "sprite": "sp-antarctic_krill.png", "group": "shrimp", "rarity": 1}, {"lat": -64.827, "lng": -116.157, "id": "601728", "name": "Impagidinium", "sprite": "sp-anchoviella_juruasanga.png", "group": "other", "rarity": 1}, {"lat": -65.233, "lng": -117.5, "id": "124778", "name": "Psychropotes longicauda", "sprite": "sp-sea_cucumber.png", "group": "starfish", "rarity": 1}, {"lat": -64.827, "lng": -116.157, "id": "835694", "name": "Operculodinium centrocarpum", "sprite": "sp-anchoviella_juruasanga.png", "group": "other", "rarity": 1}, {"lat": -65.26, "lng": -117.5475, "id": "582421", "name": "Radiozoa", "sprite": "sp-anchoviella_juruasanga.png", "group": "other", "rarity": 1}, {"lat": -65.2533, "lng": -117.5367, "id": "1135", "name": "Amphipoda", "sprite": "sp-american_lobster.png", "group": "crab_lobster", "rarity": 1}, {"lat": -65.233, "lng": -117.5, "id": "123515", "name": "Peniagone", "sprite": "sp-sea_cucumber.png", "group": "starfish", "rarity": 1}, {"lat": -65.2633, "lng": -117.5533, "id": "11676", "name": "Pisces", "sprite": "sp-anchoviella_juruasanga.png", "group": "other", "rarity": 1}, {"lat": -65.264, "lng": -117.554, "id": "1080", "name": "Copepoda", "sprite": "sp-anchoviella_juruasanga.png", "group": "other", "rarity": 1}, {"lat": -64.3179, "lng": -116.4581, "id": "231404", "name": "Arctocephalus gazella", "sprite": "sp-elephant_seal.png", "group": "seal", "rarity": 1}, {"lat": -64.827, "lng": -116.157, "id": "845955", "name": "Pyxidinopsis reticulata", "sprite": "sp-anchoviella_juruasanga.png", "group": "other", "rarity": 1}, {"lat": -65.264, "lng": -117.554, "id": "13703", "name": "Thecosomata", "sprite": "sp-cowrie_shell.png", "group": "sea_snail", "rarity": 1}, {"lat": -64.827, "lng": -116.157, "id": "603684", "name": "Brigantedinium", "sprite": "sp-anchoviella_juruasanga.png", "group": "other", "rarity": 1}, {"lat": -65.27, "lng": -117.5633, "id": "1371", "name": "Siphonophorae", "sprite": "sp-anchoviella_juruasanga.png", "group": "other", "rarity": 1}, {"lat": -64.827, "lng": -116.157, "id": "623771", "name": "Impagidinium sphaericum", "sprite": "sp-anchoviella_juruasanga.png", "group": "other", "rarity": 1}, {"lat": -64.827, "lng": -116.157, "id": "838885", "sprite": "sp-anchoviella_juruasanga.png", "group": "other", "rarity": 1}, {"lat": -65.233, "lng": -117.5, "id": "148773", "name": "Scotoplanes globosa", "sprite": "sp-sea_cucumber.png", "group": "starfish", "rarity": 1}, {"lat": -65.2675, "lng": -117.56, "id": "103357", "name": "Appendicularia", "sprite": "sp-anchoviella_juruasanga.png", "group": "other", "rarity": 1}, {"lat": -65.233, "lng": -117.5, "id": "174039", "name": "Amperima velacula", "sprite": "sp-sea_cucumber.png", "group": "starfish", "rarity": 1}, {"lat": -65.233, "lng": -117.5, "id": "138848", "name": "Bathyteuthis abyssicola", "sprite": "sp-giant_pacific_octopus.png", "group": "octopus_squid", "rarity": 1}, {"lat": -64.827, "lng": -116.157, "id": "623770", "name": "Impagidinium aculeatum", "sprite": "sp-anchoviella_juruasanga.png", "group": "other", "rarity": 1}, {"lat": -65.2553, "lng": -117.498, "id": "135205", "name": "Fungiacyathus (Bathyactis) marenzelleri", "sprite": "sp-actiniidae.png", "group": "coral", "rarity": 1}, {"lat": -65.2617, "lng": -117.55, "id": "1078", "name": "Ostracoda", "sprite": "sp-anchoviella_juruasanga.png", "group": "other", "rarity": 1}, {"lat": -65.264, "lng": -117.554, "id": "2081", "name": "Chaetognatha", "sprite": "sp-anchoviella_juruasanga.png", "group": "other", "rarity": 1}, {"lat": -65.23, "lng": -117.5, "id": "1410", "name": "Foraminifera", "sprite": "sp-anchoviella_juruasanga.png", "group": "other", "rarity": 1}, {"lat": -65.28, "lng": -117.58, "id": "1131", "name": "Isopoda", "sprite": "sp-american_lobster.png", "group": "crab_lobster", "rarity": 1}, {"lat": -65.25, "lng": -117.53, "id": "22626", "name": "Thaliacea", "sprite": "sp-anchoviella_juruasanga.png", "group": "other", "rarity": 1}, {"lat": -64.827, "lng": -116.157, "id": "623772", "name": "Impagidinium patulum", "sprite": "sp-anchoviella_juruasanga.png", "group": "other", "rarity": 1}, {"lat": -65.265, "lng": -117.555, "id": "1130", "name": "Decapoda", "sprite": "sp-american_lobster.png", "group": "crab_lobster", "rarity": 1}, {"lat": -65.279, "lng": -117.496, "id": "123408", "name": "Pourtalesia", "sprite": "sp-sea_cucumber.png", "group": "starfish", "rarity": 1}]}