{"zoom": 7, "x": 25, "y": 84, "points": [{"lat": -50.1833, "lng": -109.4833, "id": "212652", "name": "Procellaria cinerea", "sprite": "sp-anchoviella_juruasanga.png", "group": "other", "rarity": 1}, {"lat": -49.3337, "lng": -107.2234, "id": "343995", "name": "Thalassarche melanophris", "sprite": "sp-anchoviella_juruasanga.png", "group": "other", "rarity": 1}, {"lat": -49.4, "lng": -109.3333, "id": "110707", "name": "Thysanoessa gregaria", "sprite": "sp-antarctic_krill.png", "group": "shrimp", "rarity": 1}, {"lat": -49.4, "lng": -109.3333, "id": "221048", "name": "Euphausia similis", "sprite": "sp-antarctic_krill.png", "group": "shrimp", "rarity": 1}, {"lat": -49.4, "lng": -109.3333, "id": "236220", "name": "Euphausia triacantha", "sprite": "sp-antarctic_krill.png", "group": "shrimp", "rarity": 1}, {"lat": -49.4, "lng": -109.3333, "id": "344701", "name": "Neocalanus tonsus", "sprite": "sp-anchoviella_juruasanga.png", "group": "other", "rarity": 1}, {"lat": -49.95, "lng": -108.33, "id": "137200", "name": "Puffinus assimilis", "sprite": "sp-anchoviella_juruasanga.png", "group": "other", "rarity": 1}, {"lat": -50.1406, "lng": -108.1566, "id": "231404", "name": "Arctocephalus gazella", "sprite": "sp-elephant_seal.png", "group": "seal", "rarity": 1}, {"lat": -50.35, "lng": -108.6833, "id": "212642", "name": "Pterodroma lessonii", "sprite": "sp-anchoviella_juruasanga.png", "group": "other", "rarity": 1}, {"lat": -49.4, "lng": -109.3333, "id": "342436", "name": "Calanus simillimus", "sprite": "sp-anchoviella_juruasanga.png", "group": "other", "rarity": 1}, {"lat": -50.1833, "lng": -109.4833, "id": "212651", "name": "Procellaria aequinoctialis", "sprite": "sp-anchoviella_juruasanga.png", "group": "other", "rarity": 1}, {"lat": -50.24, "lng": -109.39, "id": "225975", "name": "Pterodroma magentae", "sprite": "sp-anchoviella_juruasanga.png", "group": "other", "rarity": 1}, {"lat": -49.8566, "lng": -108.2646, "id": "212583", "name": "Diomedea exulans", "sprite": "sp-anchoviella_juruasanga.png", "group": "other", "rarity": 1}, {"lat": -49.4, "lng": -109.3333, "id": "342435", "name": "Calanus propinquus", "sprite": "sp-anchoviella_juruasanga.png", "group": "other", "rarity": 1}, {"lat": -49.4, "lng": -109.3333, "id": "110704", "name": "Stylocheiron maximum", "sprite": "sp-antarctic_krill.png", "group": "shrimp", "rarity": 1}, {"lat": -49.4, "lng": -109.3333, "id": "110691", "name": "Nematobrachion boopis", "sprite": "sp-antarctic_krill.png", "group": "shrimp", "rarity": 1}]}