{"zoom": 7, "x": 26, "y": 83, "points": [{"lat": -48.059, "lng": -105.833, "id": "212583", "name": "Diomedea exulans", "sprite": "sp-anchoviella_juruasanga.png", "group": "other", "rarity": 1}, {"lat": -47.5708, "lng": -104.6649, "id": "212631", "name": "Phoebetria palpebrata", "sprite": "sp-anchoviella_juruasanga.png", "group": "other", "rarity": 1}, {"lat": -47.24, "lng": -105.49, "id": "137202", "name": "Puffinus griseus", "sprite": "sp-anchoviella_juruasanga.png", "group": "other", "rarity": 1}, {"lat": -47.1563, "lng": -106.5234, "id": "231404", "name": "Arctocephalus gazella", "sprite": "sp-elephant_seal.png", "group": "seal", "rarity": 1}, {"lat": -47.1091, "lng": -105.6132, "id": "379386", "name": "Diomedea sanfordi", "sprite": "sp-anchoviella_juruasanga.png", "group": "other", "rarity": 1}, {"lat": -47.5842, "lng": -104.1696, "id": "137119", "name": "Physeter macrocephalus", "sprite": "sp-blue_whale.png", "group": "whale", "rarity": 1}, {"lat": -47.7783, "lng": -105.4625, "id": "137200", "name": "Puffinus assimilis", "sprite": "sp-anchoviella_juruasanga.png", "group": "other", "rarity": 1}]}