{"zoom": 7, "x": 27, "y": 61, "points": [{"lat": 6.3356, "lng": -103.0399, "id": "109553", "name": "Protoperidinium", "sprite": "sp-anchoviella_juruasanga.png", "group": "other", "rarity": 1}, {"lat": 6.3199, "lng": -102.96, "id": "149118", "name": "Bacteriastrum", "sprite": "sp-anchoviella_juruasanga.png", "group": "other", "rarity": 1}, {"lat": 7.79, "lng": -102.6183, "id": "129749", "name": "Alciopa reynaudii", "sprite": "sp-anchoviella_juruasanga.png", "group": "other", "rarity": 1}, {"lat": 6.3331, "lng": -102.9932, "id": "109391", "name": "Gonyaulacales", "sprite": "sp-anchoviella_juruasanga.png", "group": "other", "rarity": 1}, {"lat": 6.3356, "lng": -103.0399, "id": "149313", "name": "Fragilariopsis", "sprite": "sp-anchoviella_juruasanga.png", "group": "other", "rarity": 1}, {"lat": 6.3374, "lng": -102.9401, "id": "104080", "name": "Candaciidae", "sprite": "sp-anchoviella_juruasanga.png", "group": "other", "rarity": 1}, {"lat": 6.3234, "lng": -102.9089, "id": "137214", "name": "Salpida", "sprite": "sp-anchoviella_juruasanga.png", "group": "other", "rarity": 1}, {"lat": 6.3008, "lng": -102.8306, "id": "137687", "name": "Atlanta", "sprite": "sp-cowrie_shell.png", "group": "sea_snail", "rarity": 1}, {"lat": 6.5, "lng": -101.5, "id": "137209", "name": "Dermochelys coriacea", "sprite": "sp-green_sea_turtle.png", "group": "sea_turtle", "rarity": 1}, {"lat": 6.3933, "lng": -103.065, "id": "137754", "name": "Diacavolinia", "sprite": "sp-cowrie_shell.png", "group": "sea_snail", "rarity": 1}, {"lat": 6.3283, "lng": -102.9467, "id": "104616", "name": "Mecynocera clausi", "sprite": "sp-anchoviella_juruasanga.png", "group": "other", "rarity": 1}, {"lat": 6.315, "lng": -102.96, "id": "494056", "name": "Neoceratium", "sprite": "sp-anchoviella_juruasanga.png", "group": "other", "rarity": 1}, {"lat": 6.3933, "lng": -103.065, "id": "149668", "name": "Mysida", "sprite": "sp-american_lobster.png", "group": "crab_lobster", "rarity": 1}, {"lat": 6.3331, "lng": -102.9932, "id": "109487", "name": "Pronoctiluca", "sprite": "sp-anchoviella_juruasanga.png", "group": "other", "rarity": 1}, {"lat": 6.3403, "lng": -102.947, "id": "135335", "name": "Physonectae", "sprite": "sp-anchoviella_juruasanga.png", "group": "other", "rarity": 1}, {"lat": 6.3356, "lng": -103.0399, "id": "149015", "name": "Naviculales", "sprite": "sp-anchoviella_juruasanga.png", "group": "other", "rarity": 1}, {"lat": 6.3083, "lng": -102.5392, "id": "126853", "name": "Shark sucker", "thumb": "tn_Rerem_u2.jpg", "sprite": "sp-anchoviella_juruasanga.png", "group": "other", "rarity": 1, "waterType": "Saltwater"}, {"lat": 6.3331, "lng": -102.9932, "id": "450030", "name": "Myzozoa", "sprite": "sp-anchoviella_juruasanga.png", "group": "other", "rarity": 1}, {"lat": 6.375, "lng": -103.0933, "id": "139029", "name": "Cavolinia inflexa", "sprite": "sp-cowrie_shell.png", "group": "sea_snail", "rarity": 1}, {"lat": 6.3746, "lng": -103.0363, "id": "128586", "name": "Oncaeidae", "sprite": "sp-anchoviella_juruasanga.png", "group": "other", "rarity": 1}, {"lat": 6.3356, "lng": -103.0399, "id": "577970", "name": "Phaeocystales", "sprite": "sp-anchoviella_juruasanga.png", "group": "other", "rarity": 1}, {"lat": 7.6667, "lng": -103.2317, "id": "272170", "name": "Banded flyingfish", "thumb": "tn_Himar_u0.gif", "sprite": "sp-flying_fish.png", "group": "flying_fish", "rarity": 1, "waterType": "Saltwater"}, {"lat": 7.1083, "lng": -102.2667, "id": "272166", "name": "Whitetip flyingfish", "thumb": "tn_Chxen_u0.gif", "sprite": "sp-flying_fish.png", "group": "flying_fish", "rarity": 1, "waterType": "Saltwater"}, {"lat": 6.3356, "lng": -103.0399, "id": "109462", "name": "Dinophysis", "sprite": "sp-anchoviella_juruasanga.png", "group": "other", "rarity": 1}, {"lat": 6.3419, "lng": -102.9589, "id": "1080", "name": "Copepoda", "sprite": "sp-anchoviella_juruasanga.png", "group": "other", "rarity": 1}, {"lat": 6.3933, "lng": -103.065, "id": "931", "name": "Phyllodocidae", "sprite": "sp-anchoviella_juruasanga.png", "group": "other", "rarity": 1}, {"lat": 6.3356, "lng": -103.0399, "id": "149038", "name": "Leptocylindrus", "sprite": "sp-anchoviella_juruasanga.png", "group": "other", "rarity": 1}, {"lat": 7.3129, "lng": -102.28, "id": "2688", "name": "Cetacea", "sprite": "sp-anchoviella_juruasanga.png", "group": "other", "rarity": 1}, {"lat": 6.3379, "lng": -102.9469, "id": "1371", "name": "Siphonophorae", "sprite": "sp-anchoviella_juruasanga.png", "group": "other", "rarity": 1}, {"lat": 6.3517, "lng": -103.02, "id": "101420", "name": "Phronimidae", "sprite": "sp-american_lobster.png", "group": "crab_lobster", "rarity": 1}, {"lat": 6.3331, "lng": -102.9932, "id": "109392", "name": "Gymnodiniales", "sprite": "sp-anchoviella_juruasanga.png", "group": "other", "rarity": 1}, {"lat": 6.3872, "lng": -103.0744, "id": "1267", "name": "Cnidaria", "sprite": "sp-anchoviella_juruasanga.png", "group": "other", "rarity": 1}, {"lat": 6.3331, "lng": -102.9932, "id": "146537", "name": "Cyanobacteria", "sprite": "sp-anchoviella_juruasanga.png", "group": "other", "rarity": 1}, {"lat": 6.3933, "lng": -103.065, "id": "149013", "name": "Diatoma", "sprite": "sp-anchoviella_juruasanga.png", "group": "other", "rarity": 1}, {"lat": 6.301, "lng": -102.8682, "id": "136093", "name": "Squillidae", "sprite": "sp-american_lobster.png", "group": "crab_lobster", "rarity": 1}, {"lat": 6.3558, "lng": -102.9933, "id": "104669", "name": "Calocalanus pavo", "sprite": "sp-anchoviella_juruasanga.png", "group": "other", "rarity": 1}, {"lat": 6.3374, "lng": -102.9401, "id": "1086", "name": "Eumalacostraca", "sprite": "sp-american_lobster.png", "group": "crab_lobster", "rarity": 1}, {"lat": 6.2248, "lng": -102.4796, "id": "137119", "name": "Physeter macrocephalus", "sprite": "sp-blue_whale.png", "group": "whale", "rarity": 1}, {"lat": 6.196, "lng": -102.5751, "id": "117865", "name": "Rhopalonema velatum", "sprite": "sp-anchoviella_juruasanga.png", "group": "other", "rarity": 1}, {"lat": 6.3723, "lng": -103.0327, "id": "1410", "name": "Foraminifera", "sprite": "sp-anchoviella_juruasanga.png", "group": "other", "rarity": 1}, {"lat": 6.605, "lng": -102.45, "id": "137109", "name": "Stenella longirostris", "sprite": "sp-bottlenose_dolphin.png", "group": "dolphin", "rarity": 1}, {"lat": 7.93, "lng": -103.13, "id": "137111", "name": "Tursiops truncatus", "sprite": "sp-bottlenose_dolphin.png", "group": "dolphin", "rarity": 1}, {"lat": 6.3656, "lng": -103.035, "id": "139045", "name": "Diacria trispinosa", "sprite": "sp-cowrie_shell.png", "group": "sea_snail", "rarity": 1}, {"lat": 6.315, "lng": -102.96, "id": "863399", "name": "Collodaria", "sprite": "sp-anchoviella_juruasanga.png", "group": "other", "rarity": 1}, {"lat": 6.2953, "lng": -102.8761, "id": "112203", "name": "Orbulina", "sprite": "sp-anchoviella_juruasanga.png", "group": "other", "rarity": 1}, {"lat": 6.3356, "lng": -103.0399, "id": "247914", "name": "Tintinnidiidae", "sprite": "sp-anchoviella_juruasanga.png", "group": "other", "rarity": 1}, {"lat": 6.3331, "lng": -102.9932, "id": "148971", "name": "Coscinodiscophycidae", "sprite": "sp-anchoviella_juruasanga.png", "group": "other", "rarity": 1}, {"lat": 6.3517, "lng": -103.02, "id": "148917", "name": "Coscinodiscus", "sprite": "sp-anchoviella_juruasanga.png", "group": "other", "rarity": 1}, {"lat": 6.854, "lng": -102.54, "id": "137105", "name": "Stenella attenuata", "sprite": "sp-bottlenose_dolphin.png", "group": "dolphin", "rarity": 1}, {"lat": 6.3933, "lng": -103.065, "id": "104165", "name": "Pseudocalanus", "sprite": "sp-anchoviella_juruasanga.png", "group": "other", "rarity": 1}, {"lat": 6.3933, "lng": -103.065, "id": "1135", "name": "Amphipoda", "sprite": "sp-american_lobster.png", "group": "crab_lobster", "rarity": 1}, {"lat": 6.3217, "lng": -102.9533, "id": "139034", "name": "Creseis acicula", "sprite": "sp-cowrie_shell.png", "group": "sea_snail", "rarity": 1}, {"lat": 6.3241, "lng": -102.9174, "id": "51", "name": "Mollusca", "sprite": "sp-anchoviella_juruasanga.png", "group": "other", "rarity": 1}, {"lat": 7.0339, "lng": -102.0106, "id": "126387", "name": "Mirrorwing flyingfish", "thumb": "tn_Hispe_u1.jpg", "sprite": "sp-flying_fish.png", "group": "flying_fish", "rarity": 1, "waterType": "Saltwater"}, {"lat": 7.0333, "lng": -103.4833, "id": "217871", "name": "Bigwing halfbeak", "thumb": "tn_Oxmic_u0.jpg", "sprite": "sp-anchoviella_juruasanga.png", "group": "other", "rarity": 1, "waterType": "Saltwater"}, {"lat": 8.12, "lng": -103.835, "id": "137013", "name": "Balaenoptera", "sprite": "sp-blue_whale.png", "group": "whale", "rarity": 1}, {"lat": 6.3332, "lng": -102.9221, "id": "128595", "name": "Sapphirinidae", "sprite": "sp-anchoviella_juruasanga.png", "group": "other", "rarity": 1}, {"lat": 6.3312, "lng": -102.9263, "id": "1205", "name": "Hyperiidea", "sprite": "sp-american_lobster.png", "group": "crab_lobster", "rarity": 1}, {"lat": 6.8833, "lng": -102.4412, "id": "217869", "name": "Barbel flyingfish", "thumb": "tn_Exmon_u0.gif", "sprite": "sp-flying_fish.png", "group": "flying_fish", "rarity": 1, "waterType": "Saltwater"}, {"lat": 6.1978, "lng": -102.5699, "id": "411905", "name": "Creseidae", "sprite": "sp-cowrie_shell.png", "group": "sea_snail", "rarity": 1}, {"lat": 6.3217, "lng": -102.9533, "id": "932", "name": "Alciopini", "sprite": "sp-anchoviella_juruasanga.png", "group": "other", "rarity": 1}, {"lat": 6.3331, "lng": -102.9932, "id": "149003", "name": "Cylindrotheca", "sprite": "sp-anchoviella_juruasanga.png", "group": "other", "rarity": 1}, {"lat": 6.315, "lng": -102.96, "id": "1082", "name": "Cirripedia", "sprite": "sp-anchoviella_juruasanga.png", "group": "other", "rarity": 1}, {"lat": 7.0317, "lng": -103.4817, "id": "126845", "name": "Pompano dolphinfish", "thumb": "tn_Coequ_m0.jpg", "sprite": "sp-anchoviella_juruasanga.png", "group": "other", "rarity": 1, "waterType": "Saltwater"}, {"lat": 6.3476, "lng": -102.9715, "id": "128569", "name": "Corycaeidae", "sprite": "sp-anchoviella_juruasanga.png", "group": "other", "rarity": 1}, {"lat": 6.3277, "lng": -103.0, "id": "148985", "name": "Chaetoceros", "sprite": "sp-anchoviella_juruasanga.png", "group": "other", "rarity": 1}, {"lat": 6.3933, "lng": -103.065, "id": "104075", "name": "Aetideidae", "sprite": "sp-anchoviella_juruasanga.png", "group": "other", "rarity": 1}, {"lat": 7.7833, "lng": -102.6167, "id": "353678", "name": "Nemesis aggregatus", "sprite": "sp-anchoviella_juruasanga.png", "group": "other", "rarity": 1}, {"lat": 6.3331, "lng": -102.9932, "id": "149151", "name": "Pseudo-nitzschia", "sprite": "sp-anchoviella_juruasanga.png", "group": "other", "rarity": 1}, {"lat": 6.315, "lng": -102.96, "id": "137750", "name": "Cavolinia", "sprite": "sp-cowrie_shell.png", "group": "sea_snail", "rarity": 1}, {"lat": 6.335, "lng": -103.0069, "id": "109528", "name": "Oxytoxum", "sprite": "sp-anchoviella_juruasanga.png", "group": "other", "rarity": 1}, {"lat": 6.3331, "lng": -102.9932, "id": "109396", "name": "Prorocentrales", "sprite": "sp-anchoviella_juruasanga.png", "group": "other", "rarity": 1}, {"lat": 6.3021, "lng": -102.8433, "id": "104743", "name": "Pontellina plumata", "sprite": "sp-anchoviella_juruasanga.png", "group": "other", "rarity": 1}, {"lat": 6.3374, "lng": -102.9401, "id": "13704", "name": "Limacinidae", "sprite": "sp-cowrie_shell.png", "group": "sea_snail", "rarity": 1}, {"lat": 6.3356, "lng": -103.0399, "id": "110115", "name": "Oxytoxum scolopax", "sprite": "sp-anchoviella_juruasanga.png", "group": "other", "rarity": 1}, {"lat": 6.3425, "lng": -102.9515, "id": "2081", "name": "Chaetognatha", "sprite": "sp-anchoviella_juruasanga.png", "group": "other", "rarity": 1}, {"lat": 6.3356, "lng": -103.0399, "id": "157081", "name": "Thalassiothrix", "sprite": "sp-anchoviella_juruasanga.png", "group": "other", "rarity": 1}, {"lat": 6.155, "lng": -102.11, "id": "368867", "name": "Stenella longirostris orientalis", "sprite": "sp-bottlenose_dolphin.png", "group": "dolphin", "rarity": 1}, {"lat": 6.3356, "lng": -103.0399, "id": "160595", "name": "Pterosperma", "sprite": "sp-anchoviella_juruasanga.png", "group": "other", "rarity": 1}, {"lat": 6.3356, "lng": -103.0399, "id": "232546", "name": "Akashiwo sanguinea", "sprite": "sp-anchoviella_juruasanga.png", "group": "other", "rarity": 1}, {"lat": 7.0333, "lng": -103.4833, "id": "126626", "name": "Pearly lanternfish", "thumb": "tn_Mynit_u0.jpg", "sprite": "sp-anchoviella_juruasanga.png", "group": "other", "rarity": 1, "waterType": "Saltwater"}, {"lat": 6.3356, "lng": -103.0399, "id": "109464", "name": "Ornithocercus", "sprite": "sp-anchoviella_juruasanga.png", "group": "other", "rarity": 1}, {"lat": 6.3425, "lng": -102.9515, "id": "1100", "name": "Calanoida", "sprite": "sp-anchoviella_juruasanga.png", "group": "other", "rarity": 1}, {"lat": 6.3151, "lng": -102.867, "id": "104308", "name": "Gaetanus curvicornis", "sprite": "sp-anchoviella_juruasanga.png", "group": "other", "rarity": 1}, {"lat": 6.3331, "lng": -102.9932, "id": "732976", "name": "Tintinnina", "sprite": "sp-anchoviella_juruasanga.png", "group": "other", "rarity": 1}, {"lat": 6.3356, "lng": -103.0399, "id": "109545", "name": "Scrippsiella", "sprite": "sp-anchoviella_juruasanga.png", "group": "other", "rarity": 1}, {"lat": 6.3702, "lng": -103.0371, "id": "109444", "name": "Pyrocystaceae", "sprite": "sp-anchoviella_juruasanga.png", "group": "other", "rarity": 1}, {"lat": 6.3356, "lng": -103.0399, "id": "149236", "name": "Cerataulina", "sprite": "sp-anchoviella_juruasanga.png", "group": "other", "rarity": 1}, {"lat": 6.9933, "lng": -103.4633, "id": "2", "name": "Animalia", "sprite": "sp-anchoviella_juruasanga.png", "group": "other", "rarity": 1}, {"lat": 6.3717, "lng": -103.0256, "id": "101383", "name": "Gammaridae", "sprite": "sp-american_lobster.png", "group": "crab_lobster", "rarity": 1}, {"lat": 6.3356, "lng": -103.0399, "id": "149154", "name": "Triceratium", "sprite": "sp-anchoviella_juruasanga.png", "group": "other", "rarity": 1}, {"lat": 6.3805, "lng": -103.0431, "id": "1128", "name": "Euphausiacea", "sprite": "sp-antarctic_krill.png", "group": "shrimp", "rarity": 1}, {"lat": 6.3356, "lng": -103.0399, "id": "163248", "name": "Hemiaulus", "sprite": "sp-anchoviella_juruasanga.png", "group": "other", "rarity": 1}, {"lat": 6.3933, "lng": -103.065, "id": "146142", "name": "Bryozoa", "sprite": "sp-anchoviella_juruasanga.png", "group": "other", "rarity": 1}, {"lat": 6.3242, "lng": -102.9169, "id": "104087", "name": "Heterorhabdidae", "sprite": "sp-anchoviella_juruasanga.png", "group": "other", "rarity": 1}, {"lat": 6.3512, "lng": -103.0004, "id": "103354", "name": "Fritillariidae", "sprite": "sp-anchoviella_juruasanga.png", "group": "other", "rarity": 1}, {"lat": 6.3425, "lng": -102.9515, "id": "104086", "name": "Euchaetidae", "sprite": "sp-anchoviella_juruasanga.png", "group": "other", "rarity": 1}, {"lat": 6.3374, "lng": -102.9401, "id": "104079", "name": "Calanidae", "sprite": "sp-anchoviella_juruasanga.png", "group": "other", "rarity": 1}, {"lat": 6.3356, "lng": -103.0399, "id": "149309", "name": "Dactyliosolen", "sprite": "sp-anchoviella_juruasanga.png", "group": "other", "rarity": 1}, {"lat": 6.3608, "lng": -103.0058, "id": "196118", "name": "Oxycephalidae", "sprite": "sp-american_lobster.png", "group": "crab_lobster", "rarity": 1}, {"lat": 6.3331, "lng": -102.9932, "id": "233868", "name": "Oxytoxum variabile", "sprite": "sp-anchoviella_juruasanga.png", "group": "other", "rarity": 1}, {"lat": 7.79, "lng": -102.6183, "id": "106147", "name": "Conchoderma virgatum", "sprite": "sp-anchoviella_juruasanga.png", "group": "other", "rarity": 1}, {"lat": 6.3246, "lng": -102.9016, "id": "128721", "name": "Copilia", "sprite": "sp-anchoviella_juruasanga.png", "group": "other", "rarity": 1}, {"lat": 6.39, "lng": -103.0333, "id": "164", "name": "Gymnosomata", "sprite": "sp-cowrie_shell.png", "group": "sea_snail", "rarity": 1}, {"lat": 6.3283, "lng": -102.9467, "id": "128672", "name": "Lubbockia", "sprite": "sp-anchoviella_juruasanga.png", "group": "other", "rarity": 1}, {"lat": 6.3333, "lng": -101.7333, "id": "272153", "name": "Backspot flyingfish", "thumb": "tn_Chdor_u2.gif", "sprite": "sp-flying_fish.png", "group": "flying_fish", "rarity": 1, "waterType": "Saltwater"}, {"lat": 6.3287, "lng": -102.8982, "id": "104097", "name": "Pontellidae", "sprite": "sp-anchoviella_juruasanga.png", "group": "other", "rarity": 1}, {"lat": 6.3374, "lng": -102.9401, "id": "104140", "name": "Haloptilus", "sprite": "sp-anchoviella_juruasanga.png", "group": "other", "rarity": 1}, {"lat": 6.3867, "lng": -103.0017, "id": "137755", "name": "Diacria", "sprite": "sp-cowrie_shell.png", "group": "sea_snail", "rarity": 1}, {"lat": 6.3933, "lng": -103.065, "id": "104081", "name": "Centropagidae", "sprite": "sp-anchoviella_juruasanga.png", "group": "other", "rarity": 1}, {"lat": 6.3356, "lng": -103.0399, "id": "149111", "name": "Guinardia", "sprite": "sp-anchoviella_juruasanga.png", "group": "other", "rarity": 1}, {"lat": 6.08, "lng": -101.28, "id": "137034", "name": "Mesoplodon", "sprite": "sp-blue_whale.png", "group": "whale", "rarity": 1}, {"lat": 7.0, "lng": -102.3, "id": "105801", "name": "Blue shark", "thumb": "tn_Prgla_j1.jpg", "sprite": "sp-great_white_shark.png", "group": "shark", "rarity": 1, "waterType": "Brackish"}, {"lat": 6.3933, "lng": -103.065, "id": "104191", "name": "Pleuromamma", "sprite": "sp-anchoviella_juruasanga.png", "group": "other", "rarity": 1}, {"lat": 6.3331, "lng": -102.9932, "id": "391508", "name": "Azadinium", "sprite": "sp-anchoviella_juruasanga.png", "group": "other", "rarity": 1}, {"lat": 6.3134, "lng": -102.8866, "id": "106731", "name": "Sergestidae", "sprite": "sp-american_lobster.png", "group": "crab_lobster", "rarity": 1}, {"lat": 6.3374, "lng": -102.9401, "id": "104085", "name": "Eucalanidae", "sprite": "sp-anchoviella_juruasanga.png", "group": "other", "rarity": 1}, {"lat": 6.3517, "lng": -103.02, "id": "104112", "name": "Aetideus", "sprite": "sp-anchoviella_juruasanga.png", "group": "other", "rarity": 1}, {"lat": 6.3331, "lng": -102.9932, "id": "1", "name": "Biota", "sprite": "sp-anchoviella_juruasanga.png", "group": "other", "rarity": 1}, {"lat": 7.23, "lng": -103.75, "id": "137110", "name": "Steno bredanensis", "sprite": "sp-bottlenose_dolphin.png", "group": "dolphin", "rarity": 1}]}