{"zoom": 7, "x": 28, "y": 87, "points": [{"lat": -55.0168, "lng": -99.25, "id": "175039", "name": "Phascolion (Montuga) lutense", "sprite": "sp-anchoviella_juruasanga.png", "group": "other", "rarity": 1}, {"lat": -54.9876, "lng": -99.9706, "id": "225760", "name": "Thalassarche chrysostoma", "sprite": "sp-anchoviella_juruasanga.png", "group": "other", "rarity": 1}, {"lat": -54.7183, "lng": -99.1233, "id": "1078", "name": "Ostracoda", "sprite": "sp-anchoviella_juruasanga.png", "group": "other", "rarity": 1}, {"lat": -55.017, "lng": -99.25, "id": "124778", "name": "Psychropotes longicauda", "sprite": "sp-sea_cucumber.png", "group": "starfish", "rarity": 1}, {"lat": -54.417, "lng": -99.083, "id": "1602728", "name": "Holophryxus truncatus", "sprite": "sp-american_lobster.png", "group": "crab_lobster", "rarity": 1}, {"lat": -54.7, "lng": -99.1, "id": "149668", "name": "Mysida", "sprite": "sp-american_lobster.png", "group": "crab_lobster", "rarity": 1}, {"lat": -54.517, "lng": -99.083, "id": "1207", "name": "Gammaridea", "sprite": "sp-american_lobster.png", "group": "crab_lobster", "rarity": 1}, {"lat": -54.73, "lng": -99.1367, "id": "1082", "name": "Cirripedia", "sprite": "sp-anchoviella_juruasanga.png", "group": "other", "rarity": 1}, {"lat": -54.517, "lng": -99.083, "id": "103272", "name": "Phronima sedentaria", "sprite": "sp-american_lobster.png", "group": "crab_lobster", "rarity": 1}, {"lat": -54.5435, "lng": -99.7985, "id": "212583", "name": "Diomedea exulans", "sprite": "sp-anchoviella_juruasanga.png", "group": "other", "rarity": 1}, {"lat": -54.517, "lng": -99.083, "id": "177051", "name": "Cyphocarididae", "sprite": "sp-american_lobster.png", "group": "crab_lobster", "rarity": 1}, {"lat": -54.7183, "lng": -99.1233, "id": "1135", "name": "Amphipoda", "sprite": "sp-american_lobster.png", "group": "crab_lobster", "rarity": 1}, {"lat": -54.722, "lng": -99.128, "id": "22626", "name": "Thaliacea", "sprite": "sp-anchoviella_juruasanga.png", "group": "other", "rarity": 1}, {"lat": -54.7183, "lng": -99.1233, "id": "1080", "name": "Copepoda", "sprite": "sp-anchoviella_juruasanga.png", "group": "other", "rarity": 1}, {"lat": -54.73, "lng": -99.1367, "id": "11676", "name": "Pisces", "sprite": "sp-anchoviella_juruasanga.png", "group": "other", "rarity": 1}, {"lat": -54.7183, "lng": -99.1233, "id": "582421", "name": "Radiozoa", "sprite": "sp-anchoviella_juruasanga.png", "group": "other", "rarity": 1}, {"lat": -54.7217, "lng": -99.1283, "id": "1410", "name": "Foraminifera", "sprite": "sp-anchoviella_juruasanga.png", "group": "other", "rarity": 1}, {"lat": -54.7225, "lng": -99.1275, "id": "1371", "name": "Siphonophorae", "sprite": "sp-anchoviella_juruasanga.png", "group": "other", "rarity": 1}, {"lat": -54.4167, "lng": -99.0833, "id": "234714", "name": "Bolin’s lanternfish", "thumb": "tn_Prbol_u1.gif", "sprite": "sp-anchoviella_juruasanga.png", "group": "other", "rarity": 1, "waterType": "Saltwater"}, {"lat": -54.7183, "lng": -99.1233, "id": "2081", "name": "Chaetognatha", "sprite": "sp-anchoviella_juruasanga.png", "group": "other", "rarity": 1}, {"lat": -54.7, "lng": -99.1, "id": "183533", "name": "Tintinnidae", "sprite": "sp-anchoviella_juruasanga.png", "group": "other", "rarity": 1}, {"lat": -54.722, "lng": -99.128, "id": "13703", "name": "Thecosomata", "sprite": "sp-cowrie_shell.png", "group": "sea_snail", "rarity": 1}, {"lat": -54.417, "lng": -99.083, "id": "261487", "name": "Neritoniscus euphoticus", "sprite": "sp-american_lobster.png", "group": "crab_lobster", "rarity": 1}, {"lat": -54.4167, "lng": -99.0833, "id": "234767", "name": "Tenison’s lanternfish", "thumb": "tn_Prten_u0.jpg", "sprite": "sp-anchoviella_juruasanga.png", "group": "other", "rarity": 1, "waterType": "Saltwater"}, {"lat": -54.4167, "lng": -99.0833, "id": "234657", "name": "Fraser’s lanternfish", "thumb": "tn_Gyfra_u1.gif", "sprite": "sp-anchoviella_juruasanga.png", "group": "other", "rarity": 1, "waterType": "Saltwater"}, {"lat": -54.7183, "lng": -99.1233, "id": "19494", "name": "Hydroidolina", "sprite": "sp-anchoviella_juruasanga.png", "group": "other", "rarity": 1}, {"lat": -54.73, "lng": -99.1367, "id": "103357", "name": "Appendicularia", "sprite": "sp-anchoviella_juruasanga.png", "group": "other", "rarity": 1}, {"lat": -54.817, "lng": -99.1955, "id": "137222", "name": "Doliolum", "sprite": "sp-anchoviella_juruasanga.png", "group": "other", "rarity": 1}, {"lat": -54.722, "lng": -99.128, "id": "1128", "name": "Euphausiacea", "sprite": "sp-antarctic_krill.png", "group": "shrimp", "rarity": 1}, {"lat": -54.88, "lng": -100.28, "id": "225975", "name": "Pterodroma magentae", "sprite": "sp-anchoviella_juruasanga.png", "group": "other", "rarity": 1}, {"lat": -54.7, "lng": -99.1, "id": "1131", "name": "Isopoda", "sprite": "sp-american_lobster.png", "group": "crab_lobster", "rarity": 1}, {"lat": -54.9061, "lng": -99.6487, "id": "231404", "name": "Arctocephalus gazella", "sprite": "sp-elephant_seal.png", "group": "seal", "rarity": 1}, {"lat": -54.4167, "lng": -99.0833, "id": "234642", "name": "Brauer’s lanternfish", "thumb": "tn_Gybra_u0.gif", "sprite": "sp-anchoviella_juruasanga.png", "group": "other", "rarity": 1, "waterType": "Saltwater"}, {"lat": -55.05, "lng": -100.6167, "id": "212642", "name": "Pterodroma lessonii", "sprite": "sp-anchoviella_juruasanga.png", "group": "other", "rarity": 1}, {"lat": -54.71, "lng": -99.115, "id": "883", "name": "Polychaeta", "sprite": "sp-anchoviella_juruasanga.png", "group": "other", "rarity": 1}]}