{"zoom": 7, "x": 28, "y": 92, "points": [{"lat": -61.62, "lng": -99.73, "id": "883", "name": "Polychaeta", "sprite": "sp-anchoviella_juruasanga.png", "group": "other", "rarity": 1}, {"lat": -62.417, "lng": -101.025, "id": "104191", "name": "Pleuromamma", "sprite": "sp-anchoviella_juruasanga.png", "group": "other", "rarity": 1}, {"lat": -62.417, "lng": -101.025, "id": "104172", "name": "Rhincalanus", "sprite": "sp-anchoviella_juruasanga.png", "group": "other", "rarity": 1}, {"lat": -61.62, "lng": -99.73, "id": "13703", "name": "Thecosomata", "sprite": "sp-cowrie_shell.png", "group": "sea_snail", "rarity": 1}, {"lat": -62.417, "lng": -101.025, "id": "104161", "name": "Clausocalanus", "sprite": "sp-anchoviella_juruasanga.png", "group": "other", "rarity": 1}, {"lat": -62.417, "lng": -101.025, "id": "104157", "name": "Candacia", "sprite": "sp-anchoviella_juruasanga.png", "group": "other", "rarity": 1}, {"lat": -62.417, "lng": -101.025, "id": "104140", "name": "Haloptilus", "sprite": "sp-anchoviella_juruasanga.png", "group": "other", "rarity": 1}, {"lat": -62.1564, "lng": -99.4091, "id": "231404", "name": "Arctocephalus gazella", "sprite": "sp-elephant_seal.png", "group": "seal", "rarity": 1}, {"lat": -62.283, "lng": -101.017, "id": "325297", "name": "Galiteuthis glacialis", "sprite": "sp-giant_pacific_octopus.png", "group": "octopus_squid", "rarity": 1}, {"lat": -62.417, "lng": -101.025, "id": "104162", "name": "Ctenocalanus", "sprite": "sp-anchoviella_juruasanga.png", "group": "other", "rarity": 1}, {"lat": -62.3167, "lng": -101.0167, "id": "234641", "name": "Rhombic lanternfish", "thumb": "tn_Krand_u1.gif", "sprite": "sp-anchoviella_juruasanga.png", "group": "other", "rarity": 1, "waterType": "Saltwater"}, {"lat": -62.417, "lng": -101.025, "id": "345828", "name": "Lucicutia bradyana", "sprite": "sp-anchoviella_juruasanga.png", "group": "other", "rarity": 1}, {"lat": -62.417, "lng": -101.025, "id": "603038", "name": "Heterorhabdus", "sprite": "sp-anchoviella_juruasanga.png", "group": "other", "rarity": 1}, {"lat": -62.417, "lng": -101.025, "id": "104151", "name": "Calanoides", "sprite": "sp-anchoviella_juruasanga.png", "group": "other", "rarity": 1}, {"lat": -62.417, "lng": -101.025, "id": "104174", "name": "Euchaeta", "sprite": "sp-anchoviella_juruasanga.png", "group": "other", "rarity": 1}, {"lat": -62.333, "lng": -101.017, "id": "11718", "name": "Octopoda", "sprite": "sp-giant_pacific_octopus.png", "group": "octopus_squid", "rarity": 1}, {"lat": -62.3333, "lng": -101.0167, "id": "234823", "name": "Dogtooth grenadier", "thumb": "tn_Cypir_u0.gif", "sprite": "sp-anchoviella_juruasanga.png", "group": "other", "rarity": 1, "waterType": "Saltwater"}, {"lat": -62.2833, "lng": -101.0167, "id": "127374", "name": "Boa dragonfish", "thumb": "tn_Stboa_u1.jpg", "sprite": "sp-anchoviella_juruasanga.png", "group": "other", "rarity": 1, "waterType": "Saltwater"}, {"lat": -62.3083, "lng": -101.0167, "id": "234642", "name": "Brauer’s lanternfish", "thumb": "tn_Gybra_u0.gif", "sprite": "sp-anchoviella_juruasanga.png", "group": "other", "rarity": 1, "waterType": "Saltwater"}, {"lat": -62.333, "lng": -101.017, "id": "153031", "name": "Neoteuthidae", "sprite": "sp-giant_pacific_octopus.png", "group": "octopus_squid", "rarity": 1}, {"lat": -62.417, "lng": -101.025, "id": "104190", "name": "Metridia", "sprite": "sp-anchoviella_juruasanga.png", "group": "other", "rarity": 1}, {"lat": -61.62, "lng": -99.73, "id": "1128", "name": "Euphausiacea", "sprite": "sp-antarctic_krill.png", "group": "shrimp", "rarity": 1}, {"lat": -62.417, "lng": -101.025, "id": "104234", "name": "Mimocalanus", "sprite": "sp-anchoviella_juruasanga.png", "group": "other", "rarity": 1}, {"lat": -61.62, "lng": -99.73, "id": "1080", "name": "Copepoda", "sprite": "sp-anchoviella_juruasanga.png", "group": "other", "rarity": 1}, {"lat": -62.417, "lng": -101.025, "id": "137222", "name": "Doliolum", "sprite": "sp-anchoviella_juruasanga.png", "group": "other", "rarity": 1}, {"lat": -61.62, "lng": -99.73, "id": "103357", "name": "Appendicularia", "sprite": "sp-anchoviella_juruasanga.png", "group": "other", "rarity": 1}, {"lat": -62.333, "lng": -101.017, "id": "138848", "name": "Bathyteuthis abyssicola", "sprite": "sp-giant_pacific_octopus.png", "group": "octopus_squid", "rarity": 1}, {"lat": -62.417, "lng": -101.025, "id": "104609", "name": "Lucicutia ovalis", "sprite": "sp-anchoviella_juruasanga.png", "group": "other", "rarity": 1}, {"lat": -62.417, "lng": -101.025, "id": "104152", "name": "Calanus", "sprite": "sp-anchoviella_juruasanga.png", "group": "other", "rarity": 1}, {"lat": -61.62, "lng": -99.73, "id": "582421", "name": "Radiozoa", "sprite": "sp-anchoviella_juruasanga.png", "group": "other", "rarity": 1}, {"lat": -62.5, "lng": -99.833, "id": "101", "name": "Gastropoda", "sprite": "sp-cowrie_shell.png", "group": "sea_snail", "rarity": 1}, {"lat": -62.417, "lng": -101.025, "id": "138007", "name": "Fiona", "sprite": "sp-cowrie_shell.png", "group": "sea_snail", "rarity": 1}, {"lat": -62.417, "lng": -101.025, "id": "104121", "name": "Gaetanus", "sprite": "sp-anchoviella_juruasanga.png", "group": "other", "rarity": 1}, {"lat": -61.872, "lng": -98.727, "id": "225760", "name": "Thalassarche chrysostoma", "sprite": "sp-anchoviella_juruasanga.png", "group": "other", "rarity": 1}, {"lat": -61.62, "lng": -99.73, "id": "1078", "name": "Ostracoda", "sprite": "sp-anchoviella_juruasanga.png", "group": "other", "rarity": 1}, {"lat": -62.417, "lng": -101.025, "id": "104606", "name": "Lucicutia macrocera", "sprite": "sp-anchoviella_juruasanga.png", "group": "other", "rarity": 1}, {"lat": -61.62, "lng": -99.73, "id": "2081", "name": "Chaetognatha", "sprite": "sp-anchoviella_juruasanga.png", "group": "other", "rarity": 1}, {"lat": -62.1069, "lng": -99.4516, "id": "231413", "name": "Mirounga leonina", "sprite": "sp-elephant_seal.png", "group": "seal", "rarity": 1}, {"lat": -62.3083, "lng": -101.0167, "id": "217697", "name": "Electrona antarctica", "thumb": "tn_Elant_u0.gif", "sprite": "sp-anchoviella_juruasanga.png", "group": "other", "rarity": 1, "waterType": "Saltwater"}, {"lat": -62.2833, "lng": -101.0167, "id": "234714", "name": "Bolin’s lanternfish", "thumb": "tn_Prbol_u1.gif", "sprite": "sp-anchoviella_juruasanga.png", "group": "other", "rarity": 1, "waterType": "Saltwater"}, {"lat": -62.2833, "lng": -101.0167, "id": "125498", "name": "Myctophidae", "sprite": "sp-anchoviella_juruasanga.png", "group": "other", "rarity": 1}, {"lat": -61.62, "lng": -99.73, "id": "1410", "name": "Foraminifera", "sprite": "sp-anchoviella_juruasanga.png", "group": "other", "rarity": 1}, {"lat": -62.3083, "lng": -101.0167, "id": "234638", "name": "Electron subantarctic", "thumb": "tn_Elcar_u0.jpg", "sprite": "sp-anchoviella_juruasanga.png", "group": "other", "rarity": 1, "waterType": "Saltwater"}, {"lat": -62.333, "lng": -101.017, "id": "287146", "name": "Atolla chuni", "sprite": "sp-box_jellyfish.png", "group": "jellyfish", "rarity": 1}, {"lat": -62.417, "lng": -101.025, "id": "104228", "name": "Scaphocalanus", "sprite": "sp-anchoviella_juruasanga.png", "group": "other", "rarity": 1}, {"lat": -61.62, "lng": -99.73, "id": "1135", "name": "Amphipoda", "sprite": "sp-american_lobster.png", "group": "crab_lobster", "rarity": 1}, {"lat": -62.417, "lng": -101.025, "id": "348162", "name": "Urocopia", "sprite": "sp-anchoviella_juruasanga.png", "group": "other", "rarity": 1}, {"lat": -61.62, "lng": -99.73, "id": "11676", "name": "Pisces", "sprite": "sp-anchoviella_juruasanga.png", "group": "other", "rarity": 1}, {"lat": -62.3083, "lng": -101.0167, "id": "125447", "name": "Paralepididae", "sprite": "sp-anchoviella_juruasanga.png", "group": "other", "rarity": 1}, {"lat": -62.417, "lng": -101.025, "id": "128672", "name": "Lubbockia", "sprite": "sp-anchoviella_juruasanga.png", "group": "other", "rarity": 1}, {"lat": -62.3333, "lng": -101.0167, "id": "217707", "name": "Lantern fish", "thumb": "tn_Naach_u0.jpg", "sprite": "sp-anchoviella_juruasanga.png", "group": "other", "rarity": 1, "waterType": "Saltwater"}, {"lat": -61.7165, "lng": -99.9045, "id": "123935", "name": "Porcellanaster ceruleus", "sprite": "sp-sea_cucumber.png", "group": "starfish", "rarity": 1}, {"lat": -62.417, "lng": -101.025, "id": "104137", "name": "Augaptilus", "sprite": "sp-anchoviella_juruasanga.png", "group": "other", "rarity": 1}, {"lat": -62.417, "lng": -101.025, "id": "104247", "name": "Undinella", "sprite": "sp-anchoviella_juruasanga.png", "group": "other", "rarity": 1}, {"lat": -62.417, "lng": -101.025, "id": "104236", "name": "Spinocalanus", "sprite": "sp-anchoviella_juruasanga.png", "group": "other", "rarity": 1}, {"lat": -62.333, "lng": -101.017, "id": "135282", "name": "Atolla wyvillei", "sprite": "sp-box_jellyfish.png", "group": "jellyfish", "rarity": 1}, {"lat": -62.417, "lng": -101.025, "id": "104615", "name": "Lucicutia wolfendeni", "sprite": "sp-anchoviella_juruasanga.png", "group": "other", "rarity": 1}, {"lat": -62.2417, "lng": -100.3333, "id": "137233", "name": "Salpa", "sprite": "sp-anchoviella_juruasanga.png", "group": "other", "rarity": 1}, {"lat": -62.417, "lng": -101.025, "id": "104126", "name": "Pseudochirella", "sprite": "sp-anchoviella_juruasanga.png", "group": "other", "rarity": 1}, {"lat": -61.7332, "lng": -99.9044, "id": "175039", "name": "Phascolion (Montuga) lutense", "sprite": "sp-anchoviella_juruasanga.png", "group": "other", "rarity": 1}]}