{"zoom": 7, "x": 30, "y": 68, "points": [{"lat": -12.3042, "lng": -95.0333, "id": "272701", "name": "Diogenes lanternfish", "sprite": "sp-anchoviella_juruasanga.png", "group": "other", "rarity": 1, "waterType": "Saltwater"}, {"lat": -12.8417, "lng": -94.9833, "id": "125833", "name": "Symbolophorus", "sprite": "sp-anchoviella_juruasanga.png", "group": "other", "rarity": 1}, {"lat": -12.5921, "lng": -95.5966, "id": "10194", "name": "Actinopterygii", "sprite": "sp-anchoviella_juruasanga.png", "group": "other", "rarity": 1}, {"lat": -11.7667, "lng": -95.0833, "id": "126604", "name": "Reinhardt's lantern fish", "thumb": "tn_Larei_u1.gif", "sprite": "sp-anchoviella_juruasanga.png", "group": "other", "rarity": 1, "waterType": "Saltwater"}, {"lat": -12.8417, "lng": -94.9833, "id": "126205", "name": "Chauliodus", "sprite": "sp-anchoviella_juruasanga.png", "group": "other", "rarity": 1}, {"lat": -11.675, "lng": -95.0333, "id": "272650", "name": "Popeye lampfish", "thumb": "tn_Bolon_u3.jpg", "sprite": "sp-anchoviella_juruasanga.png", "group": "other", "rarity": 1, "waterType": "Saltwater"}, {"lat": -12.8417, "lng": -94.9833, "id": "220334", "name": "Stemonosudis macrura", "thumb": "tn_Stmac_u0.gif", "sprite": "sp-anchoviella_juruasanga.png", "group": "other", "rarity": 1, "waterType": "Saltwater"}, {"lat": -11.5833, "lng": -94.9833, "id": "126610", "name": "Winged lanternfish", "thumb": "tn_Laala_u0.gif", "sprite": "sp-anchoviella_juruasanga.png", "group": "other", "rarity": 1, "waterType": "Saltwater"}, {"lat": -12.5921, "lng": -95.5966, "id": "1102", "name": "Harpacticoida", "sprite": "sp-anchoviella_juruasanga.png", "group": "other", "rarity": 1}, {"lat": -12.5921, "lng": -95.5966, "id": "1410", "name": "Foraminifera", "sprite": "sp-anchoviella_juruasanga.png", "group": "other", "rarity": 1}, {"lat": -11.5833, "lng": -94.9833, "id": "126194", "name": "Vinciguerria", "sprite": "sp-anchoviella_juruasanga.png", "group": "other", "rarity": 1}, {"lat": -11.7667, "lng": -95.0833, "id": "217717", "name": "Multispotted lanternfish", "thumb": "tn_Scmul_u1.gif", "sprite": "sp-anchoviella_juruasanga.png", "group": "other", "rarity": 1, "waterType": "Saltwater"}, {"lat": -12.5921, "lng": -95.5966, "id": "345868", "name": "Phaeodaria", "sprite": "sp-anchoviella_juruasanga.png", "group": "other", "rarity": 1}, {"lat": -12.5921, "lng": -95.5966, "id": "1078", "name": "Ostracoda", "sprite": "sp-anchoviella_juruasanga.png", "group": "other", "rarity": 1}, {"lat": -12.3042, "lng": -95.0333, "id": "158888", "name": "Garman's lanternfish", "thumb": "tn_Digar_u0.jpg", "sprite": "sp-anchoviella_juruasanga.png", "group": "other", "rarity": 1, "waterType": "Saltwater"}, {"lat": -12.29, "lng": -94.13, "id": "2688", "name": "Cetacea", "sprite": "sp-anchoviella_juruasanga.png", "group": "other", "rarity": 1}, {"lat": -12.5921, "lng": -95.5966, "id": "135338", "name": "Diphyidae", "sprite": "sp-anchoviella_juruasanga.png", "group": "other", "rarity": 1}, {"lat": -12.0639, "lng": -95.0167, "id": "158916", "name": "Patchwork lampfish", "thumb": "tn_Nores_u0.jpg", "sprite": "sp-anchoviella_juruasanga.png", "group": "other", "rarity": 1, "waterType": "Saltwater"}, {"lat": -12.5921, "lng": -95.5966, "id": "137214", "name": "Salpida", "sprite": "sp-anchoviella_juruasanga.png", "group": "other", "rarity": 1}, {"lat": -12.6398, "lng": -94.2224, "id": "225975", "name": "Pterodroma magentae", "sprite": "sp-anchoviella_juruasanga.png", "group": "other", "rarity": 1}, {"lat": -12.8417, "lng": -94.9833, "id": "217715", "name": "Golden lanternfish", "thumb": "tn_Myaur_u1.jpg", "sprite": "sp-anchoviella_juruasanga.png", "group": "other", "rarity": 1, "waterType": "Saltwater"}, {"lat": -11.7667, "lng": -95.0833, "id": "279336", "name": "Slender fangjaw", "thumb": "tn_Sigra_u0.gif", "sprite": "sp-anchoviella_juruasanga.png", "group": "other", "rarity": 1, "waterType": "Saltwater"}, {"lat": -12.5921, "lng": -95.5966, "id": "135335", "name": "Physonectae", "sprite": "sp-anchoviella_juruasanga.png", "group": "other", "rarity": 1}, {"lat": -12.29, "lng": -93.72, "id": "137119", "name": "Physeter macrocephalus", "sprite": "sp-blue_whale.png", "group": "whale", "rarity": 1}, {"lat": -12.5921, "lng": -95.5966, "id": "137687", "name": "Atlanta", "sprite": "sp-cowrie_shell.png", "group": "sea_snail", "rarity": 1}, {"lat": -12.0, "lng": -94.0083, "id": "217700", "name": "Firefly lanternfish", "thumb": "tn_Hypro_u1.gif", "sprite": "sp-anchoviella_juruasanga.png", "group": "other", "rarity": 1, "waterType": "Saltwater"}, {"lat": -12.3042, "lng": -95.0333, "id": "126629", "name": "Topside lampfish", "thumb": "tn_Noval_m0.gif", "sprite": "sp-anchoviella_juruasanga.png", "group": "other", "rarity": 1, "waterType": "Saltwater"}, {"lat": -11.5833, "lng": -94.9833, "id": "126188", "name": "Diplophos", "sprite": "sp-anchoviella_juruasanga.png", "group": "other", "rarity": 1}, {"lat": -11.48, "lng": -94.82, "id": "137202", "name": "Puffinus griseus", "sprite": "sp-anchoviella_juruasanga.png", "group": "other", "rarity": 1}, {"lat": -12.8417, "lng": -94.9833, "id": "126861", "name": "Striped escolar", "thumb": "tn_Dimul_u1.jpg", "sprite": "sp-anchoviella_juruasanga.png", "group": "other", "rarity": 1, "waterType": "Saltwater"}, {"lat": -12.5921, "lng": -95.5966, "id": "1371", "name": "Siphonophorae", "sprite": "sp-anchoviella_juruasanga.png", "group": "other", "rarity": 1}, {"lat": -12.3, "lng": -94.5, "id": "137209", "name": "Dermochelys coriacea", "sprite": "sp-green_sea_turtle.png", "group": "sea_turtle", "rarity": 1}, {"lat": -11.7667, "lng": -95.0833, "id": "217695", "name": "Parr's lanternfish", "thumb": "tn_Dipar_u1.jpg", "sprite": "sp-anchoviella_juruasanga.png", "group": "other", "rarity": 1, "waterType": "Saltwater"}, {"lat": -12.5921, "lng": -95.5966, "id": "51", "name": "Mollusca", "sprite": "sp-anchoviella_juruasanga.png", "group": "other", "rarity": 1}, {"lat": -12.5921, "lng": -95.5966, "id": "411905", "name": "Creseidae", "sprite": "sp-cowrie_shell.png", "group": "sea_snail", "rarity": 1}, {"lat": -12.5947, "lng": -95.1033, "id": "2", "name": "Animalia", "sprite": "sp-anchoviella_juruasanga.png", "group": "other", "rarity": 1}, {"lat": -12.8417, "lng": -94.9833, "id": "126609", "name": "Sunbeam lampfish", "thumb": "tn_Lauro_u0.jpg", "sprite": "sp-anchoviella_juruasanga.png", "group": "other", "rarity": 1, "waterType": "Saltwater"}, {"lat": -12.0639, "lng": -95.0167, "id": "126586", "name": "Warming's lantern fish", "thumb": "tn_Cewar_u0.jpg", "sprite": "sp-anchoviella_juruasanga.png", "group": "other", "rarity": 1, "waterType": "Saltwater"}, {"lat": -12.8417, "lng": -94.9833, "id": "217721", "name": "Highseas lampfish", "thumb": "tn_Trnig_u0.gif", "sprite": "sp-anchoviella_juruasanga.png", "group": "other", "rarity": 1, "waterType": "Saltwater"}, {"lat": -12.5921, "lng": -95.5966, "id": "1080", "name": "Copepoda", "sprite": "sp-anchoviella_juruasanga.png", "group": "other", "rarity": 1}, {"lat": -12.5921, "lng": -95.5966, "id": "582419", "name": "Harosa", "sprite": "sp-anchoviella_juruasanga.png", "group": "other", "rarity": 1}, {"lat": -12.5921, "lng": -95.5966, "id": "1066", "name": "Crustacea", "sprite": "sp-anchoviella_juruasanga.png", "group": "other", "rarity": 1}, {"lat": -12.8417, "lng": -94.9833, "id": "272702", "name": "Slendertail lanternfish", "thumb": "tn_Goten_u0.jpg", "sprite": "sp-anchoviella_juruasanga.png", "group": "other", "rarity": 1, "waterType": "Saltwater"}, {"lat": -11.5833, "lng": -94.9833, "id": "272684", "name": "Pacific headlightfish", "sprite": "sp-anchoviella_juruasanga.png", "group": "other", "rarity": 1, "waterType": "Saltwater"}, {"lat": -12.5921, "lng": -95.5966, "id": "13704", "name": "Limacinidae", "sprite": "sp-cowrie_shell.png", "group": "sea_snail", "rarity": 1}, {"lat": -11.5833, "lng": -94.9833, "id": "126187", "name": "Cyclothone", "sprite": "sp-anchoviella_juruasanga.png", "group": "other", "rarity": 1}, {"lat": -12.5921, "lng": -95.5966, "id": "23000", "name": "Cavoliniidae", "sprite": "sp-cowrie_shell.png", "group": "sea_snail", "rarity": 1}, {"lat": -12.5921, "lng": -95.5966, "id": "103356", "name": "Oikopleuridae", "sprite": "sp-anchoviella_juruasanga.png", "group": "other", "rarity": 1}, {"lat": -11.77, "lng": -95.08, "id": "883", "name": "Polychaeta", "sprite": "sp-anchoviella_juruasanga.png", "group": "other", "rarity": 1}, {"lat": -12.4167, "lng": -93.0333, "id": "126626", "name": "Pearly lanternfish", "thumb": "tn_Mynit_u0.jpg", "sprite": "sp-anchoviella_juruasanga.png", "group": "other", "rarity": 1, "waterType": "Saltwater"}, {"lat": -11.5833, "lng": -94.9833, "id": "158901", "name": "Cocco's lantern fish", "thumb": "tn_Logem_u0.jpg", "sprite": "sp-anchoviella_juruasanga.png", "group": "other", "rarity": 1, "waterType": "Saltwater"}, {"lat": -11.7667, "lng": -95.0833, "id": "126864", "name": "Black snake mackerel", "thumb": "tn_Netri_u0.jpg", "sprite": "sp-anchoviella_juruasanga.png", "group": "other", "rarity": 1, "waterType": "Saltwater"}, {"lat": -12.29, "lng": -94.76, "id": "137107", "name": "Stenella coeruleoalba", "sprite": "sp-bottlenose_dolphin.png", "group": "dolphin", "rarity": 1}, {"lat": -11.7667, "lng": -95.0833, "id": "272687", "name": "Bolin's lantern fish", "thumb": "tn_Diphi_u0.jpg", "sprite": "sp-anchoviella_juruasanga.png", "group": "other", "rarity": 1, "waterType": "Saltwater"}, {"lat": -12.4167, "lng": -93.0333, "id": "272735", "name": "Reverse gland lanternfish", "thumb": "tn_Syrev_u0.jpg", "sprite": "sp-anchoviella_juruasanga.png", "group": "other", "rarity": 1, "waterType": "Saltwater"}, {"lat": -12.2125, "lng": -94.9833, "id": "274961", "name": "Panama lightfish", "thumb": "tn_Viluc_u0.jpg", "sprite": "sp-anchoviella_juruasanga.png", "group": "other", "rarity": 1, "waterType": "Saltwater"}, {"lat": -11.7667, "lng": -95.0833, "id": "272714", "name": "Lampanyctus omostigma", "sprite": "sp-anchoviella_juruasanga.png", "group": "other", "rarity": 1, "waterType": "Saltwater"}, {"lat": -12.4167, "lng": -93.0333, "id": "272168", "name": "Exocoetus peruvianus", "sprite": "sp-flying_fish.png", "group": "flying_fish", "rarity": 1, "waterType": "Saltwater"}, {"lat": -11.5833, "lng": -94.9833, "id": "125823", "name": "Hygophum", "sprite": "sp-anchoviella_juruasanga.png", "group": "other", "rarity": 1}, {"lat": -11.5833, "lng": -94.9833, "id": "217718", "name": "Evermann's lantern fish", "thumb": "tn_Syeve_u2.gif", "sprite": "sp-anchoviella_juruasanga.png", "group": "other", "rarity": 1, "waterType": "Saltwater"}, {"lat": -12.2125, "lng": -94.9833, "id": "217692", "name": "Diaphus fulgens", "thumb": "tn_Diful_f1.gif", "sprite": "sp-anchoviella_juruasanga.png", "group": "other", "rarity": 1, "waterType": "Saltwater"}]}