{"zoom": 7, "x": 30, "y": 97, "points": [{"lat": -68.083, "lng": -95.0, "id": "325297", "name": "Galiteuthis glacialis", "sprite": "sp-giant_pacific_octopus.png", "group": "octopus_squid", "rarity": 1}, {"lat": -67.7167, "lng": -94.3042, "id": "641607", "name": "Dactyliosolen laevis", "sprite": "sp-anchoviella_juruasanga.png", "group": "other", "rarity": 1}, {"lat": -68.4948, "lng": -94.1028, "id": "231404", "name": "Arctocephalus gazella", "sprite": "sp-elephant_seal.png", "group": "seal", "rarity": 1}, {"lat": -68.065, "lng": -95.0, "id": "345267", "name": "Pseudochirella mawsoni", "sprite": "sp-anchoviella_juruasanga.png", "group": "other", "rarity": 1}, {"lat": -68.3415, "lng": -95.3125, "id": "345290", "name": "Scaphocalanus vervoorti", "sprite": "sp-anchoviella_juruasanga.png", "group": "other", "rarity": 1}, {"lat": -67.7167, "lng": -94.3042, "id": "342434", "name": "Calanoides acutus", "sprite": "sp-anchoviella_juruasanga.png", "group": "other", "rarity": 1}, {"lat": -67.7167, "lng": -94.3042, "id": "156505", "name": "Phalacroma rotundatum", "sprite": "sp-anchoviella_juruasanga.png", "group": "other", "rarity": 1}, {"lat": -68.3415, "lng": -95.3125, "id": "221290", "name": "Gaetanus kruppii", "sprite": "sp-anchoviella_juruasanga.png", "group": "other", "rarity": 1}, {"lat": -68.05, "lng": -95.0, "id": "342624", "name": "Haloptilus ocellatus", "sprite": "sp-anchoviella_juruasanga.png", "group": "other", "rarity": 1}, {"lat": -68.4387, "lng": -95.4167, "id": "345284", "name": "Scaphocalanus antarcticus", "sprite": "sp-anchoviella_juruasanga.png", "group": "other", "rarity": 1}, {"lat": -68.3415, "lng": -95.3125, "id": "104406", "name": "Euaugaptilus nodifrons", "sprite": "sp-anchoviella_juruasanga.png", "group": "other", "rarity": 1}, {"lat": -68.024, "lng": -95.03, "id": "1080", "name": "Copepoda", "sprite": "sp-anchoviella_juruasanga.png", "group": "other", "rarity": 1}, {"lat": -68.0233, "lng": -95.03, "id": "582421", "name": "Radiozoa", "sprite": "sp-anchoviella_juruasanga.png", "group": "other", "rarity": 1}, {"lat": -68.633, "lng": -95.625, "id": "104696", "name": "Onchocalanus magnus", "sprite": "sp-anchoviella_juruasanga.png", "group": "other", "rarity": 1}, {"lat": -67.7167, "lng": -94.3042, "id": "341502", "name": "Rhizosolenia chunii", "sprite": "sp-anchoviella_juruasanga.png", "group": "other", "rarity": 1}, {"lat": -68.1749, "lng": -94.9646, "id": "342435", "name": "Calanus propinquus", "sprite": "sp-anchoviella_juruasanga.png", "group": "other", "rarity": 1}, {"lat": -68.633, "lng": -95.625, "id": "106674", "name": "Caridea", "sprite": "sp-american_lobster.png", "group": "crab_lobster", "rarity": 1}, {"lat": -68.017, "lng": -95.033, "id": "536012", "name": "Austrinoecia isocheira", "sprite": "sp-anchoviella_juruasanga.png", "group": "other", "rarity": 1}, {"lat": -68.633, "lng": -95.625, "id": "104774", "name": "Amallothrix robusta", "sprite": "sp-anchoviella_juruasanga.png", "group": "other", "rarity": 1}, {"lat": -67.9728, "lng": -94.909, "id": "2081", "name": "Chaetognatha", "sprite": "sp-anchoviella_juruasanga.png", "group": "other", "rarity": 1}, {"lat": -68.017, "lng": -95.033, "id": "176554", "name": "Obtusoecia antarctica", "sprite": "sp-anchoviella_juruasanga.png", "group": "other", "rarity": 1}, {"lat": -68.017, "lng": -95.033, "id": "127814", "name": "Metaconchoecia skogsbergi", "sprite": "sp-anchoviella_juruasanga.png", "group": "other", "rarity": 1}, {"lat": -67.7167, "lng": -94.3042, "id": "341475", "name": "Chaetoceros curvatus", "sprite": "sp-anchoviella_juruasanga.png", "group": "other", "rarity": 1}, {"lat": -67.7167, "lng": -94.3042, "id": "140223", "name": "Limacina helicina", "sprite": "sp-cowrie_shell.png", "group": "sea_snail", "rarity": 1}, {"lat": -67.7167, "lng": -94.3042, "id": "110679", "name": "Thysanoessa", "sprite": "sp-antarctic_krill.png", "group": "shrimp", "rarity": 1}, {"lat": -68.0225, "lng": -95.03, "id": "1128", "name": "Euphausiacea", "sprite": "sp-antarctic_krill.png", "group": "shrimp", "rarity": 1}, {"lat": -68.633, "lng": -95.625, "id": "345052", "name": "Paraeuchaeta parvula", "sprite": "sp-anchoviella_juruasanga.png", "group": "other", "rarity": 1}, {"lat": -67.9156, "lng": -94.8997, "id": "212638", "name": "Fulmarus glacialoides", "sprite": "sp-anchoviella_juruasanga.png", "group": "other", "rarity": 1}, {"lat": -67.7167, "lng": -94.3042, "id": "149152", "name": "Pseudo-nitzschia seriata", "sprite": "sp-anchoviella_juruasanga.png", "group": "other", "rarity": 1}, {"lat": -67.7167, "lng": -94.3042, "id": "156645", "name": "Rhizosolenia gracillima", "sprite": "sp-anchoviella_juruasanga.png", "group": "other", "rarity": 1}, {"lat": -67.7167, "lng": -94.3042, "id": "149110", "name": "Corethron criophilum", "sprite": "sp-anchoviella_juruasanga.png", "group": "other", "rarity": 1}, {"lat": -68.633, "lng": -95.625, "id": "104688", "name": "Cephalophanes frigidus", "sprite": "sp-anchoviella_juruasanga.png", "group": "other", "rarity": 1}, {"lat": -67.7167, "lng": -94.3042, "id": "661829", "name": "Corethron valdiviae", "sprite": "sp-anchoviella_juruasanga.png", "group": "other", "rarity": 1}, {"lat": -67.7167, "lng": -94.3042, "id": "183533", "name": "Tintinnidae", "sprite": "sp-anchoviella_juruasanga.png", "group": "other", "rarity": 1}, {"lat": -67.7167, "lng": -94.3042, "id": "149629", "name": "Rhizosolenia styliformis", "sprite": "sp-anchoviella_juruasanga.png", "group": "other", "rarity": 1}, {"lat": -67.7167, "lng": -94.3042, "id": "178215", "name": "Chaetoceros dichaeta", "sprite": "sp-anchoviella_juruasanga.png", "group": "other", "rarity": 1}, {"lat": -68.0225, "lng": -95.03, "id": "883", "name": "Polychaeta", "sprite": "sp-anchoviella_juruasanga.png", "group": "other", "rarity": 1}, {"lat": -68.05, "lng": -95.0, "id": "287142", "name": "Tetraplatia chuni", "sprite": "sp-anchoviella_juruasanga.png", "group": "other", "rarity": 1}, {"lat": -67.7167, "lng": -94.3042, "id": "573621", "name": "Terebraria kerguelensis", "sprite": "sp-anchoviella_juruasanga.png", "group": "other", "rarity": 1}, {"lat": -68.633, "lng": -95.625, "id": "149693", "name": "Undinella simplex", "sprite": "sp-anchoviella_juruasanga.png", "group": "other", "rarity": 1}, {"lat": -68.017, "lng": -95.033, "id": "127782", "name": "Discoconchoecia elegans", "sprite": "sp-anchoviella_juruasanga.png", "group": "other", "rarity": 1}, {"lat": -68.03, "lng": -95.03, "id": "1292", "name": "Anthozoa", "sprite": "sp-actiniidae.png", "group": "coral", "rarity": 1}, {"lat": -67.7167, "lng": -94.3042, "id": "465380", "name": "Biddulphia striata", "sprite": "sp-anchoviella_juruasanga.png", "group": "other", "rarity": 1}, {"lat": -68.05, "lng": -95.0, "id": "104434", "name": "Haloptilus oxycephalus", "sprite": "sp-anchoviella_juruasanga.png", "group": "other", "rarity": 1}, {"lat": -68.03, "lng": -95.03, "id": "11676", "name": "Pisces", "sprite": "sp-anchoviella_juruasanga.png", "group": "other", "rarity": 1}, {"lat": -68.1181, "lng": -93.8497, "id": "137092", "name": "Megaptera novaeangliae", "sprite": "sp-blue_whale.png", "group": "whale", "rarity": 1}, {"lat": -67.7167, "lng": -94.3042, "id": "149038", "name": "Leptocylindrus", "sprite": "sp-anchoviella_juruasanga.png", "group": "other", "rarity": 1}, {"lat": -68.024, "lng": -95.03, "id": "13703", "name": "Thecosomata", "sprite": "sp-cowrie_shell.png", "group": "sea_snail", "rarity": 1}, {"lat": -68.3415, "lng": -95.3125, "id": "106727", "name": "Penaeidae", "sprite": "sp-american_lobster.png", "group": "crab_lobster", "rarity": 1}, {"lat": -68.633, "lng": -95.625, "id": "342455", "name": "Euaugaptilus antarcticus", "sprite": "sp-anchoviella_juruasanga.png", "group": "other", "rarity": 1}, {"lat": -68.633, "lng": -95.625, "id": "344751", "name": "Onchocalanus wolfendeni", "sprite": "sp-anchoviella_juruasanga.png", "group": "other", "rarity": 1}, {"lat": -67.9156, "lng": -94.8997, "id": "212640", "name": "Daption capense", "sprite": "sp-anchoviella_juruasanga.png", "group": "other", "rarity": 1}, {"lat": -68.633, "lng": -95.625, "id": "104142", "name": "Pachyptilus", "sprite": "sp-anchoviella_juruasanga.png", "group": "other", "rarity": 1}, {"lat": -67.7167, "lng": -94.3042, "id": "465389", "name": "Chaetoceros criophilus", "sprite": "sp-anchoviella_juruasanga.png", "group": "other", "rarity": 1}, {"lat": -68.633, "lng": -95.625, "id": "567103", "name": "Pseudhaloptilus pacificus", "sprite": "sp-anchoviella_juruasanga.png", "group": "other", "rarity": 1}, {"lat": -68.08, "lng": -95.0, "id": "344974", "name": "Paraeuchaeta antarctica", "sprite": "sp-anchoviella_juruasanga.png", "group": "other", "rarity": 1}, {"lat": -68.1354, "lng": -94.1002, "id": "231413", "name": "Mirounga leonina", "sprite": "sp-elephant_seal.png", "group": "seal", "rarity": 1}, {"lat": -68.017, "lng": -95.033, "id": "127857", "name": "Proceroecia brachyaskos", "sprite": "sp-anchoviella_juruasanga.png", "group": "other", "rarity": 1}, {"lat": -67.7167, "lng": -94.3042, "id": "149288", "name": "Chaetoceros atlanticus", "sprite": "sp-anchoviella_juruasanga.png", "group": "other", "rarity": 1}, {"lat": -68.2543, "lng": -95.2083, "id": "104335", "name": "Pseudochirella obtusa", "sprite": "sp-anchoviella_juruasanga.png", "group": "other", "rarity": 1}, {"lat": -68.3415, "lng": -95.3125, "id": "137222", "name": "Doliolum", "sprite": "sp-anchoviella_juruasanga.png", "group": "other", "rarity": 1}, {"lat": -68.0225, "lng": -95.03, "id": "1078", "name": "Ostracoda", "sprite": "sp-anchoviella_juruasanga.png", "group": "other", "rarity": 1}, {"lat": -68.2543, "lng": -95.2083, "id": "342468", "name": "Euchirella rostromagna", "sprite": "sp-anchoviella_juruasanga.png", "group": "other", "rarity": 1}, {"lat": -67.9156, "lng": -94.8997, "id": "343995", "name": "Thalassarche melanophris", "sprite": "sp-anchoviella_juruasanga.png", "group": "other", "rarity": 1}, {"lat": -68.0, "lng": -94.0, "id": "325384", "name": "Themisto gaudichaudii", "sprite": "sp-american_lobster.png", "group": "crab_lobster", "rarity": 1}, {"lat": -67.7167, "lng": -94.3042, "id": "149099", "name": "Thalassiosira antarctica", "sprite": "sp-anchoviella_juruasanga.png", "group": "other", "rarity": 1}, {"lat": -68.017, "lng": -95.033, "id": "172467", "name": "Boroecia antipoda", "sprite": "sp-anchoviella_juruasanga.png", "group": "other", "rarity": 1}, {"lat": -68.633, "lng": -95.625, "id": "345289", "name": "Scaphocalanus parantarcticus", "sprite": "sp-anchoviella_juruasanga.png", "group": "other", "rarity": 1}, {"lat": -68.3415, "lng": -95.3125, "id": "221297", "name": "Pseudochirella hirsuta", "sprite": "sp-anchoviella_juruasanga.png", "group": "other", "rarity": 1}, {"lat": -68.349, "lng": -95.3125, "id": "237965", "name": "Gaetanus tenuispinus", "sprite": "sp-anchoviella_juruasanga.png", "group": "other", "rarity": 1}, {"lat": -68.633, "lng": -95.625, "id": "104838", "name": "Mimocalanus cultrifer", "sprite": "sp-anchoviella_juruasanga.png", "group": "other", "rarity": 1}, {"lat": -68.1667, "lng": -94.3417, "id": "137217", "name": "Salpidae", "sprite": "sp-anchoviella_juruasanga.png", "group": "other", "rarity": 1}, {"lat": -68.025, "lng": -95.03, "id": "1135", "name": "Amphipoda", "sprite": "sp-american_lobster.png", "group": "crab_lobster", "rarity": 1}, {"lat": -68.017, "lng": -95.033, "id": "127850", "name": "Paramollicia major", "sprite": "sp-anchoviella_juruasanga.png", "group": "other", "rarity": 1}, {"lat": -67.7167, "lng": -94.3042, "id": "341479", "name": "Chaetoceros neglectus", "sprite": "sp-anchoviella_juruasanga.png", "group": "other", "rarity": 1}, {"lat": -68.0233, "lng": -95.03, "id": "103357", "name": "Appendicularia", "sprite": "sp-anchoviella_juruasanga.png", "group": "other", "rarity": 1}, {"lat": -67.7167, "lng": -94.3042, "id": "620090", "name": "Chaetoceros chunii", "sprite": "sp-anchoviella_juruasanga.png", "group": "other", "rarity": 1}, {"lat": -68.633, "lng": -95.625, "id": "342457", "name": "Euaugaptilus hadrocephalus", "sprite": "sp-anchoviella_juruasanga.png", "group": "other", "rarity": 1}, {"lat": -68.3415, "lng": -95.3125, "id": "346494", "name": "Gaetanus simplex", "sprite": "sp-anchoviella_juruasanga.png", "group": "other", "rarity": 1}, {"lat": -68.02, "lng": -95.03, "id": "1410", "name": "Foraminifera", "sprite": "sp-anchoviella_juruasanga.png", "group": "other", "rarity": 1}, {"lat": -68.0267, "lng": -95.03, "id": "1371", "name": "Siphonophorae", "sprite": "sp-anchoviella_juruasanga.png", "group": "other", "rarity": 1}, {"lat": -67.7167, "lng": -94.3042, "id": "591214", "name": "Silicoflagellata", "sprite": "sp-anchoviella_juruasanga.png", "group": "other", "rarity": 1}, {"lat": -67.7167, "lng": -94.3042, "id": "220837", "name": "Rhincalanus gigas", "sprite": "sp-anchoviella_juruasanga.png", "group": "other", "rarity": 1}, {"lat": -68.1333, "lng": -95.0333, "id": "217697", "name": "Electrona antarctica", "thumb": "tn_Elant_u0.gif", "sprite": "sp-anchoviella_juruasanga.png", "group": "other", "rarity": 1, "waterType": "Saltwater"}, {"lat": -67.7167, "lng": -94.3042, "id": "137270", "name": "Salpa aspera", "sprite": "sp-anchoviella_juruasanga.png", "group": "other", "rarity": 1}, {"lat": -67.7167, "lng": -94.3042, "id": "341540", "name": "Thalassiothrix antarctica", "sprite": "sp-anchoviella_juruasanga.png", "group": "other", "rarity": 1}, {"lat": -68.017, "lng": -95.033, "id": "172456", "name": "Alacia hettacra", "sprite": "sp-anchoviella_juruasanga.png", "group": "other", "rarity": 1}, {"lat": -68.633, "lng": -95.625, "id": "137233", "name": "Salpa", "sprite": "sp-anchoviella_juruasanga.png", "group": "other", "rarity": 1}, {"lat": -68.2443, "lng": -95.2083, "id": "342448", "name": "Cornucalanus robustus", "sprite": "sp-anchoviella_juruasanga.png", "group": "other", "rarity": 1}, {"lat": -67.7167, "lng": -94.3042, "id": "666426", "name": "Chaetoceros schimperianus", "sprite": "sp-anchoviella_juruasanga.png", "group": "other", "rarity": 1}, {"lat": -67.7167, "lng": -94.3042, "id": "573590", "name": "Rhizosolenia truncata", "sprite": "sp-anchoviella_juruasanga.png", "group": "other", "rarity": 1}, {"lat": -67.7167, "lng": -94.3014, "id": "236217", "name": "Euphausia superba", "sprite": "sp-antarctic_krill.png", "group": "shrimp", "rarity": 1}, {"lat": -68.633, "lng": -95.625, "id": "104333", "name": "Pseudochirella notacantha", "sprite": "sp-anchoviella_juruasanga.png", "group": "other", "rarity": 1}]}