{"zoom": 7, "x": 31, "y": 88, "points": [{"lat": -56.0833, "lng": -90.1833, "id": "149110", "name": "Corethron criophilum", "sprite": "sp-anchoviella_juruasanga.png", "group": "other", "rarity": 1}, {"lat": -56.0833, "lng": -90.1833, "id": "341573", "name": "Pseudonitzschia heimii", "sprite": "sp-anchoviella_juruasanga.png", "group": "other", "rarity": 1}, {"lat": -56.949, "lng": -92.1906, "id": "212631", "name": "Phoebetria palpebrata", "sprite": "sp-anchoviella_juruasanga.png", "group": "other", "rarity": 1}, {"lat": -57.037, "lng": -92.38, "id": "845955", "name": "Pyxidinopsis reticulata", "sprite": "sp-anchoviella_juruasanga.png", "group": "other", "rarity": 1}, {"lat": -56.4085, "lng": -91.447, "id": "212583", "name": "Diomedea exulans", "sprite": "sp-anchoviella_juruasanga.png", "group": "other", "rarity": 1}, {"lat": -56.0833, "lng": -90.1833, "id": "157083", "name": "Thalassiothrix longissima", "sprite": "sp-anchoviella_juruasanga.png", "group": "other", "rarity": 1}, {"lat": -57.037, "lng": -92.38, "id": "623771", "name": "Impagidinium sphaericum", "sprite": "sp-anchoviella_juruasanga.png", "group": "other", "rarity": 1}, {"lat": -56.08, "lng": -90.17, "id": "103357", "name": "Appendicularia", "sprite": "sp-anchoviella_juruasanga.png", "group": "other", "rarity": 1}, {"lat": -56.08, "lng": -90.13, "id": "1131", "name": "Isopoda", "sprite": "sp-american_lobster.png", "group": "crab_lobster", "rarity": 1}, {"lat": -56.08, "lng": -90.16, "id": "883", "name": "Polychaeta", "sprite": "sp-anchoviella_juruasanga.png", "group": "other", "rarity": 1}, {"lat": -56.0833, "lng": -90.1833, "id": "980585", "name": "Chaetoceros criophilum", "sprite": "sp-anchoviella_juruasanga.png", "group": "other", "rarity": 1}, {"lat": -56.0833, "lng": -90.1833, "id": "341504", "name": "Rhizosolenia curvata", "sprite": "sp-anchoviella_juruasanga.png", "group": "other", "rarity": 1}, {"lat": -56.0833, "lng": -90.1833, "id": "686756", "name": "Coscinodiscus tumidus var. fasciculata", "sprite": "sp-anchoviella_juruasanga.png", "group": "other", "rarity": 1}, {"lat": -56.0833, "lng": -90.1833, "id": "977633", "name": "Coscinodiscus tumidus var. tumidus", "sprite": "sp-anchoviella_juruasanga.png", "group": "other", "rarity": 1}, {"lat": -56.08, "lng": -90.162, "id": "1078", "name": "Ostracoda", "sprite": "sp-anchoviella_juruasanga.png", "group": "other", "rarity": 1}, {"lat": -56.0833, "lng": -90.1833, "id": "149629", "name": "Rhizosolenia styliformis", "sprite": "sp-anchoviella_juruasanga.png", "group": "other", "rarity": 1}, {"lat": -56.08, "lng": -90.16, "id": "1371", "name": "Siphonophorae", "sprite": "sp-anchoviella_juruasanga.png", "group": "other", "rarity": 1}, {"lat": -56.0833, "lng": -90.1833, "id": "149093", "name": "Thalassionema nitzschioides", "sprite": "sp-anchoviella_juruasanga.png", "group": "other", "rarity": 1}, {"lat": -56.08, "lng": -90.162, "id": "13703", "name": "Thecosomata", "sprite": "sp-cowrie_shell.png", "group": "sea_snail", "rarity": 1}, {"lat": -56.08, "lng": -90.162, "id": "2081", "name": "Chaetognatha", "sprite": "sp-anchoviella_juruasanga.png", "group": "other", "rarity": 1}, {"lat": -56.08, "lng": -90.146, "id": "11676", "name": "Pisces", "sprite": "sp-anchoviella_juruasanga.png", "group": "other", "rarity": 1}, {"lat": -56.0833, "lng": -90.1833, "id": "149288", "name": "Chaetoceros atlanticus", "sprite": "sp-anchoviella_juruasanga.png", "group": "other", "rarity": 1}, {"lat": -56.08, "lng": -90.17, "id": "22626", "name": "Thaliacea", "sprite": "sp-anchoviella_juruasanga.png", "group": "other", "rarity": 1}, {"lat": -56.0833, "lng": -90.1833, "id": "573422", "name": "Coscinodiscus gracilis", "sprite": "sp-anchoviella_juruasanga.png", "group": "other", "rarity": 1}, {"lat": -56.08, "lng": -90.13, "id": "1292", "name": "Anthozoa", "sprite": "sp-actiniidae.png", "group": "coral", "rarity": 1}, {"lat": -56.08, "lng": -90.1433, "id": "1410", "name": "Foraminifera", "sprite": "sp-anchoviella_juruasanga.png", "group": "other", "rarity": 1}, {"lat": -56.0833, "lng": -90.1833, "id": "341506", "name": "Rhizosolenia simplex", "sprite": "sp-anchoviella_juruasanga.png", "group": "other", "rarity": 1}, {"lat": -56.08, "lng": -90.17, "id": "1082", "name": "Cirripedia", "sprite": "sp-anchoviella_juruasanga.png", "group": "other", "rarity": 1}, {"lat": -56.0833, "lng": -90.1833, "id": "179785", "name": "Dactyliosolen antarcticus", "sprite": "sp-anchoviella_juruasanga.png", "group": "other", "rarity": 1}, {"lat": -56.08, "lng": -90.1567, "id": "1128", "name": "Euphausiacea", "sprite": "sp-antarctic_krill.png", "group": "shrimp", "rarity": 1}, {"lat": -56.0833, "lng": -90.1833, "id": "149168", "name": "Proboscia alata", "sprite": "sp-anchoviella_juruasanga.png", "group": "other", "rarity": 1}, {"lat": -56.7251, "lng": -91.3422, "id": "231404", "name": "Arctocephalus gazella", "sprite": "sp-elephant_seal.png", "group": "seal", "rarity": 1}, {"lat": -56.0833, "lng": -90.1833, "id": "149266", "name": "Coscinodiscus curvatulus", "sprite": "sp-anchoviella_juruasanga.png", "group": "other", "rarity": 1}, {"lat": -56.08, "lng": -90.16, "id": "1135", "name": "Amphipoda", "sprite": "sp-american_lobster.png", "group": "crab_lobster", "rarity": 1}, {"lat": -56.5637, "lng": -91.6443, "id": "225760", "name": "Thalassarche chrysostoma", "sprite": "sp-anchoviella_juruasanga.png", "group": "other", "rarity": 1}, {"lat": -56.08, "lng": -90.154, "id": "19494", "name": "Hydroidolina", "sprite": "sp-anchoviella_juruasanga.png", "group": "other", "rarity": 1}, {"lat": -56.0833, "lng": -90.1833, "id": "573621", "name": "Terebraria kerguelensis", "sprite": "sp-anchoviella_juruasanga.png", "group": "other", "rarity": 1}, {"lat": -56.08, "lng": -90.162, "id": "1080", "name": "Copepoda", "sprite": "sp-anchoviella_juruasanga.png", "group": "other", "rarity": 1}, {"lat": -57.037, "lng": -92.38, "id": "601728", "name": "Impagidinium", "sprite": "sp-anchoviella_juruasanga.png", "group": "other", "rarity": 1}, {"lat": -56.5016, "lng": -92.4214, "id": "231413", "name": "Mirounga leonina", "sprite": "sp-elephant_seal.png", "group": "seal", "rarity": 1}, {"lat": -56.0833, "lng": -90.1833, "id": "573614", "name": "Synedra reinboldii", "sprite": "sp-anchoviella_juruasanga.png", "group": "other", "rarity": 1}, {"lat": -57.037, "lng": -92.38, "id": "623770", "name": "Impagidinium aculeatum", "sprite": "sp-anchoviella_juruasanga.png", "group": "other", "rarity": 1}, {"lat": -56.08, "lng": -90.15, "id": "582421", "name": "Radiozoa", "sprite": "sp-anchoviella_juruasanga.png", "group": "other", "rarity": 1}, {"lat": -56.0, "lng": -90.9, "id": "225975", "name": "Pterodroma magentae", "sprite": "sp-anchoviella_juruasanga.png", "group": "other", "rarity": 1}, {"lat": -56.0833, "lng": -90.1833, "id": "659538", "name": "Actinocyclus oliveranus", "sprite": "sp-anchoviella_juruasanga.png", "group": "other", "rarity": 1}, {"lat": -57.037, "lng": -92.38, "id": "603684", "name": "Brigantedinium", "sprite": "sp-anchoviella_juruasanga.png", "group": "other", "rarity": 1}]}