{"zoom": 7, "x": 32, "y": 36, "points": [{"lat": 60.42, "lng": -88.94, "id": "232577", "name": "Amphidinium extensum", "sprite": "sp-anchoviella_juruasanga.png", "group": "other", "rarity": 1}, {"lat": 61.08, "lng": -90.0, "id": "163063", "name": "Chaetoceros holsaticus", "sprite": "sp-anchoviella_juruasanga.png", "group": "other", "rarity": 1}, {"lat": 60.5, "lng": -87.8155, "id": "113567", "name": "Melonis zaandami", "sprite": "sp-anchoviella_juruasanga.png", "group": "other", "rarity": 1}, {"lat": 60.5, "lng": -87.8155, "id": "113933", "name": "Eggerelloides advena", "sprite": "sp-anchoviella_juruasanga.png", "group": "other", "rarity": 1}, {"lat": 61.57, "lng": -89.94, "id": "377005", "name": "Pedinomonas minutissima", "sprite": "sp-anchoviella_juruasanga.png", "group": "other", "rarity": 1}, {"lat": 60.42, "lng": -87.92, "id": "110210", "name": "Protoperidinium brevipes", "sprite": "sp-anchoviella_juruasanga.png", "group": "other", "rarity": 1}, {"lat": 60.5, "lng": -87.8155, "id": "113207", "name": "Fissurina marginata", "sprite": "sp-anchoviella_juruasanga.png", "group": "other", "rarity": 1}, {"lat": 60.8414, "lng": -88.82, "id": "367250", "name": "Carteria", "sprite": "sp-anchoviella_juruasanga.png", "group": "other", "rarity": 1}, {"lat": 61.0833, "lng": -88.1333, "id": "254624", "name": "Lumbrineris minuta", "sprite": "sp-anchoviella_juruasanga.png", "group": "other", "rarity": 1}, {"lat": 60.7262, "lng": -88.9737, "id": "157240", "name": "Dinobryon", "sprite": "sp-anchoviella_juruasanga.png", "group": "other", "rarity": 1}, {"lat": 60.6333, "lng": -88.6667, "id": "178583", "name": "Chlamydomonas", "sprite": "sp-anchoviella_juruasanga.png", "group": "other", "rarity": 1}, {"lat": 60.41, "lng": -88.0, "id": "178949", "name": "Tetraëdron", "sprite": "sp-anchoviella_juruasanga.png", "group": "other", "rarity": 1}, {"lat": 60.5, "lng": -87.8155, "id": "113756", "name": "Trifarina angulosa", "sprite": "sp-anchoviella_juruasanga.png", "group": "other", "rarity": 1}, {"lat": 60.5825, "lng": -88.97, "id": "160552", "name": "Dinobryon balticum", "sprite": "sp-anchoviella_juruasanga.png", "group": "other", "rarity": 1}, {"lat": 60.5, "lng": -87.8155, "id": "417803", "name": "Procerolagena mollis", "sprite": "sp-anchoviella_juruasanga.png", "group": "other", "rarity": 1}, {"lat": 60.5, "lng": -87.8155, "id": "113240", "name": "Cribroelphidium incertum", "sprite": "sp-anchoviella_juruasanga.png", "group": "other", "rarity": 1}, {"lat": 61.57, "lng": -87.95, "id": "109843", "name": "Gyrodinium britannicum", "sprite": "sp-anchoviella_juruasanga.png", "group": "other", "rarity": 1}, {"lat": 60.75, "lng": -87.7167, "id": "332927", "name": "Ampharete borealis", "sprite": "sp-anchoviella_juruasanga.png", "group": "other", "rarity": 1}, {"lat": 61.0833, "lng": -88.1333, "id": "416573", "name": "Byblis gaimardii", "sprite": "sp-american_lobster.png", "group": "crab_lobster", "rarity": 1}, {"lat": 60.78, "lng": -89.164, "id": "149093", "name": "Thalassionema nitzschioides", "sprite": "sp-anchoviella_juruasanga.png", "group": "other", "rarity": 1}, {"lat": 60.5, "lng": -87.8155, "id": "113598", "name": "Nonionella auricula", "sprite": "sp-anchoviella_juruasanga.png", "group": "other", "rarity": 1}, {"lat": 60.9117, "lng": -88.9617, "id": "146203", "name": "Dinoflagellata", "sprite": "sp-anchoviella_juruasanga.png", "group": "other", "rarity": 1}, {"lat": 60.75, "lng": -87.7167, "id": "110479", "name": "Diastylis goodsiri", "sprite": "sp-american_lobster.png", "group": "crab_lobster", "rarity": 1}, {"lat": 61.0833, "lng": -88.1333, "id": "131482", "name": "Artacama proboscidea", "sprite": "sp-anchoviella_juruasanga.png", "group": "other", "rarity": 1}, {"lat": 61.57, "lng": -89.94, "id": "109889", "name": "Torodinium robustum", "sprite": "sp-anchoviella_juruasanga.png", "group": "other", "rarity": 1}, {"lat": 60.9117, "lng": -88.9617, "id": "801", "name": "Chlorophyta", "sprite": "sp-anchoviella_juruasanga.png", "group": "other", "rarity": 1}, {"lat": 60.5, "lng": -87.8155, "id": "113552", "name": "Astrononion stelligerum", "sprite": "sp-anchoviella_juruasanga.png", "group": "other", "rarity": 1}, {"lat": 60.5, "lng": -87.8155, "id": "849840", "name": "Gaudryina contorta", "sprite": "sp-anchoviella_juruasanga.png", "group": "other", "rarity": 1}, {"lat": 60.9117, "lng": -88.9617, "id": "109872", "name": "Gyrodinium pingue", "sprite": "sp-anchoviella_juruasanga.png", "group": "other", "rarity": 1}, {"lat": 60.89, "lng": -88.7553, "id": "109475", "name": "Gymnodinium", "sprite": "sp-anchoviella_juruasanga.png", "group": "other", "rarity": 1}, {"lat": 61.08, "lng": -90.0, "id": "149102", "name": "Thalassiosira gravida", "sprite": "sp-anchoviella_juruasanga.png", "group": "other", "rarity": 1}, {"lat": 60.5, "lng": -87.8155, "id": "934474", "name": "Islandiella algida", "sprite": "sp-anchoviella_juruasanga.png", "group": "other", "rarity": 1}, {"lat": 60.5, "lng": -87.8155, "id": "113957", "name": "Labrospira crassimargo", "sprite": "sp-anchoviella_juruasanga.png", "group": "other", "rarity": 1}, {"lat": 60.5, "lng": -87.8155, "id": "114058", "name": "Recurvoides turbinatus", "sprite": "sp-anchoviella_juruasanga.png", "group": "other", "rarity": 1}, {"lat": 60.5, "lng": -87.8155, "id": "1543804", "name": "Laevidentalina frobisherensis", "sprite": "sp-anchoviella_juruasanga.png", "group": "other", "rarity": 1}, {"lat": 60.8725, "lng": -89.455, "id": "149318", "name": "Nitzschia delicatissima", "sprite": "sp-anchoviella_juruasanga.png", "group": "other", "rarity": 1}, {"lat": 60.5, "lng": -87.8155, "id": "1436963", "name": "Botuloides ittai", "sprite": "sp-anchoviella_juruasanga.png", "group": "other", "rarity": 1}, {"lat": 60.5825, "lng": -88.97, "id": "109476", "name": "Gyrodinium", "sprite": "sp-anchoviella_juruasanga.png", "group": "other", "rarity": 1}, {"lat": 61.325, "lng": -89.97, "id": "148917", "name": "Coscinodiscus", "sprite": "sp-anchoviella_juruasanga.png", "group": "other", "rarity": 1}, {"lat": 61.08, "lng": -90.0, "id": "109793", "name": "Gymnodinium filum", "sprite": "sp-anchoviella_juruasanga.png", "group": "other", "rarity": 1}, {"lat": 60.5833, "lng": -87.6, "id": "130467", "name": "Nothria conchylega", "sprite": "sp-anchoviella_juruasanga.png", "group": "other", "rarity": 1}, {"lat": 60.8073, "lng": -88.8782, "id": "450030", "name": "Myzozoa", "sprite": "sp-anchoviella_juruasanga.png", "group": "other", "rarity": 1}, {"lat": 60.75, "lng": -87.7167, "id": "141663", "name": "Thyasira gouldii", "sprite": "sp-blue_mussel.png", "group": "clam_mussel", "rarity": 1}, {"lat": 60.9167, "lng": -87.925, "id": "130305", "name": "Maldane sarsi", "sprite": "sp-anchoviella_juruasanga.png", "group": "other", "rarity": 1}, {"lat": 60.5, "lng": -87.8155, "id": "114226", "name": "Spiroplectammina biformis", "sprite": "sp-anchoviella_juruasanga.png", "group": "other", "rarity": 1}, {"lat": 61.108, "lng": -89.148, "id": "109549", "name": "Peridinium", "sprite": "sp-anchoviella_juruasanga.png", "group": "other", "rarity": 1}, {"lat": 60.75, "lng": -87.7167, "id": "131500", "name": "Lysilla loveni", "sprite": "sp-anchoviella_juruasanga.png", "group": "other", "rarity": 1}, {"lat": 61.08, "lng": -90.0, "id": "149039", "name": "Leptocylindrus minimus", "sprite": "sp-anchoviella_juruasanga.png", "group": "other", "rarity": 1}, {"lat": 60.7714, "lng": -89.1129, "id": "149045", "name": "Nitzschia", "sprite": "sp-anchoviella_juruasanga.png", "group": "other", "rarity": 1}, {"lat": 60.995, "lng": -89.95, "id": "149126", "name": "Chaetoceros decipiens", "sprite": "sp-anchoviella_juruasanga.png", "group": "other", "rarity": 1}, {"lat": 61.57, "lng": -89.94, "id": "1590706", "name": "Sundstroemia setigera", "sprite": "sp-anchoviella_juruasanga.png", "group": "other", "rarity": 1}, {"lat": 60.5, "lng": -87.8155, "id": "113747", "name": "Buliminella elegantissima", "sprite": "sp-anchoviella_juruasanga.png", "group": "other", "rarity": 1}, {"lat": 60.5, "lng": -87.8155, "id": "113606", "name": "Nonionellina labradorica", "sprite": "sp-anchoviella_juruasanga.png", "group": "other", "rarity": 1}, {"lat": 60.78, "lng": -88.766, "id": "109876", "name": "Gyrodinium spirale", "sprite": "sp-anchoviella_juruasanga.png", "group": "other", "rarity": 1}, {"lat": 60.5, "lng": -87.8155, "id": "114164", "name": "Lagenammina atlantica", "sprite": "sp-anchoviella_juruasanga.png", "group": "other", "rarity": 1}, {"lat": 61.0833, "lng": -88.1333, "id": "155243", "name": "Tharyx acutus", "sprite": "sp-anchoviella_juruasanga.png", "group": "other", "rarity": 1}, {"lat": 60.5833, "lng": -87.6, "id": "138797", "name": "Bathyarca glacialis", "sprite": "sp-blue_mussel.png", "group": "clam_mussel", "rarity": 1}, {"lat": 61.105, "lng": -89.285, "id": "148985", "name": "Chaetoceros", "sprite": "sp-anchoviella_juruasanga.png", "group": "other", "rarity": 1}, {"lat": 61.57, "lng": -89.94, "id": "149152", "name": "Pseudo-nitzschia seriata", "sprite": "sp-anchoviella_juruasanga.png", "group": "other", "rarity": 1}, {"lat": 60.5, "lng": -87.8155, "id": "466138", "name": "Hyalinonetrion gracillimum", "sprite": "sp-anchoviella_juruasanga.png", "group": "other", "rarity": 1}, {"lat": 60.87, "lng": -88.4675, "id": "106289", "name": "Rhodomonas", "sprite": "sp-anchoviella_juruasanga.png", "group": "other", "rarity": 1}, {"lat": 61.08, "lng": -90.0, "id": "148967", "name": "Biddulphia", "sprite": "sp-anchoviella_juruasanga.png", "group": "other", "rarity": 1}, {"lat": 61.57, "lng": -89.94, "id": "172451", "name": "Alacia minor", "sprite": "sp-anchoviella_juruasanga.png", "group": "other", "rarity": 1}, {"lat": 61.0833, "lng": -88.1333, "id": "131573", "name": "Terebellides stroemii", "sprite": "sp-anchoviella_juruasanga.png", "group": "other", "rarity": 1}, {"lat": 60.5, "lng": -87.8155, "id": "113136", "name": "Buccella frigida", "sprite": "sp-anchoviella_juruasanga.png", "group": "other", "rarity": 1}, {"lat": 61.1575, "lng": -88.9725, "id": "962003", "name": "Chaetoceros septentrionalis", "sprite": "sp-anchoviella_juruasanga.png", "group": "other", "rarity": 1}, {"lat": 61.08, "lng": -90.0, "id": "146585", "name": "Anabaena", "sprite": "sp-anchoviella_juruasanga.png", "group": "other", "rarity": 1}, {"lat": 61.325, "lng": -89.97, "id": "146537", "name": "Cyanobacteria", "sprite": "sp-anchoviella_juruasanga.png", "group": "other", "rarity": 1}, {"lat": 60.5, "lng": -87.8155, "id": "815748", "name": "Pseudoparrella takayanagii", "sprite": "sp-anchoviella_juruasanga.png", "group": "other", "rarity": 1}, {"lat": 60.5, "lng": -87.8155, "id": "466392", "name": "Fursenkoina complanata", "sprite": "sp-anchoviella_juruasanga.png", "group": "other", "rarity": 1}, {"lat": 60.41, "lng": -88.0, "id": "148912", "name": "Thalassiosira", "sprite": "sp-anchoviella_juruasanga.png", "group": "other", "rarity": 1}, {"lat": 60.9167, "lng": -87.925, "id": "142001", "name": "Yoldiella lenticula", "sprite": "sp-blue_mussel.png", "group": "clam_mussel", "rarity": 1}, {"lat": 60.6367, "lng": -88.64, "id": "149150", "name": "Nitzschia longissima", "sprite": "sp-anchoviella_juruasanga.png", "group": "other", "rarity": 1}, {"lat": 61.57, "lng": -87.95, "id": "109826", "name": "Gymnodinium rhomboides", "sprite": "sp-anchoviella_juruasanga.png", "group": "other", "rarity": 1}, {"lat": 60.99, "lng": -88.97, "id": "109741", "name": "Amphidinium longum", "sprite": "sp-anchoviella_juruasanga.png", "group": "other", "rarity": 1}, {"lat": 60.5, "lng": -87.8155, "id": "114016", "name": "Reophax scorpiurus", "sprite": "sp-anchoviella_juruasanga.png", "group": "other", "rarity": 1}, {"lat": 61.18, "lng": -90.0, "id": "117931", "name": "Thuiaria alternitheca", "sprite": "sp-anchoviella_juruasanga.png", "group": "other", "rarity": 1}, {"lat": 61.57, "lng": -89.94, "id": "156611", "name": "Chaetoceros convolutus", "sprite": "sp-anchoviella_juruasanga.png", "group": "other", "rarity": 1}, {"lat": 60.9117, "lng": -88.9617, "id": "146230", "name": "Chrysophyceae", "sprite": "sp-anchoviella_juruasanga.png", "group": "other", "rarity": 1}, {"lat": 61.57, "lng": -87.95, "id": "118051", "name": "Ebria tripartita", "sprite": "sp-anchoviella_juruasanga.png", "group": "other", "rarity": 1}, {"lat": 60.5, "lng": -87.8155, "id": "417607", "name": "Adercotryma glomeratum", "sprite": "sp-anchoviella_juruasanga.png", "group": "other", "rarity": 1}, {"lat": 60.42, "lng": -87.92, "id": "163451", "name": "Coscinodiscus polychordus", "sprite": "sp-anchoviella_juruasanga.png", "group": "other", "rarity": 1}, {"lat": 60.9117, "lng": -88.9617, "id": "148971", "name": "Coscinodiscophycidae", "sprite": "sp-anchoviella_juruasanga.png", "group": "other", "rarity": 1}, {"lat": 61.57, "lng": -89.94, "id": "160576", "name": "Chlorella", "sprite": "sp-anchoviella_juruasanga.png", "group": "other", "rarity": 1}, {"lat": 60.9117, "lng": -88.9617, "id": "148899", "name": "Bacillariophyceae", "sprite": "sp-anchoviella_juruasanga.png", "group": "other", "rarity": 1}, {"lat": 60.5, "lng": -87.8155, "id": "113975", "name": "Cuneata arctica", "sprite": "sp-anchoviella_juruasanga.png", "group": "other", "rarity": 1}, {"lat": 61.08, "lng": -90.0, "id": "160602", "name": "Scenedesmus", "sprite": "sp-anchoviella_juruasanga.png", "group": "other", "rarity": 1}, {"lat": 60.5, "lng": -87.8155, "id": "113095", "name": "Islandiella norcrossi", "sprite": "sp-anchoviella_juruasanga.png", "group": "other", "rarity": 1}, {"lat": 61.57, "lng": -89.94, "id": "663583", "name": "Protodinium simplex", "sprite": "sp-anchoviella_juruasanga.png", "group": "other", "rarity": 1}, {"lat": 60.9117, "lng": -88.9617, "id": "17639", "name": "Cryptophyceae", "sprite": "sp-anchoviella_juruasanga.png", "group": "other", "rarity": 1}, {"lat": 61.57, "lng": -89.94, "id": "172818", "name": "Polyasterias problematica", "sprite": "sp-anchoviella_juruasanga.png", "group": "other", "rarity": 1}, {"lat": 60.75, "lng": -87.7167, "id": "125125", "name": "Ophiopholis aculeata", "sprite": "sp-sea_cucumber.png", "group": "starfish", "rarity": 1}, {"lat": 60.42, "lng": -87.92, "id": "163348", "name": "Rhizosolenia semispina", "sprite": "sp-anchoviella_juruasanga.png", "group": "other", "rarity": 1}, {"lat": 61.57, "lng": -88.945, "id": "249689", "name": "Chromulina", "sprite": "sp-anchoviella_juruasanga.png", "group": "other", "rarity": 1}, {"lat": 60.5, "lng": -87.8155, "id": "112979", "name": "Bolivina pacifica", "sprite": "sp-anchoviella_juruasanga.png", "group": "other", "rarity": 1}, {"lat": 61.57, "lng": -89.94, "id": "249725", "name": "Ochromonas", "sprite": "sp-anchoviella_juruasanga.png", "group": "other", "rarity": 1}, {"lat": 60.5825, "lng": -88.97, "id": "149129", "name": "Chaetoceros compressus", "sprite": "sp-anchoviella_juruasanga.png", "group": "other", "rarity": 1}, {"lat": 60.42, "lng": -88.94, "id": "149228", "name": "Chaetoceros laciniosus", "sprite": "sp-anchoviella_juruasanga.png", "group": "other", "rarity": 1}, {"lat": 61.1833, "lng": -88.63, "id": "109473", "name": "Amphidinium", "sprite": "sp-anchoviella_juruasanga.png", "group": "other", "rarity": 1}, {"lat": 61.57, "lng": -89.94, "id": "178611", "name": "Oocystis", "sprite": "sp-anchoviella_juruasanga.png", "group": "other", "rarity": 1}, {"lat": 60.5, "lng": -87.8155, "id": "113212", "name": "Fissurina serrata", "sprite": "sp-anchoviella_juruasanga.png", "group": "other", "rarity": 1}, {"lat": 60.78, "lng": -88.766, "id": "162529", "name": "Gymnodinium arcticum", "sprite": "sp-anchoviella_juruasanga.png", "group": "other", "rarity": 1}]}