{"zoom": 7, "x": 32, "y": 55, "points": [{"lat": 23.95, "lng": -87.5123, "id": "178245", "name": "Cheiraster (Christopheraster) blakei", "sprite": "sp-sea_cucumber.png", "group": "starfish", "rarity": 1}, {"lat": 22.7785, "lng": -88.6413, "id": "418076", "name": "Planulina edwardsiana", "sprite": "sp-anchoviella_juruasanga.png", "group": "other", "rarity": 1}, {"lat": 24.2299, "lng": -87.9042, "id": "240796", "name": "Aristaeopsis edwardsiana", "sprite": "sp-american_lobster.png", "group": "crab_lobster", "rarity": 1}, {"lat": 22.6739, "lng": -88.9383, "id": "158342", "name": "Sicyonia brevirostris", "sprite": "sp-american_lobster.png", "group": "crab_lobster", "rarity": 1}, {"lat": 22.3956, "lng": -89.5375, "id": "421990", "name": "Mithraculus sculptus", "sprite": "sp-american_lobster.png", "group": "crab_lobster", "rarity": 1}, {"lat": 22.7785, "lng": -88.6413, "id": "422420", "name": "Crisia carolina", "sprite": "sp-anchoviella_juruasanga.png", "group": "other", "rarity": 1}, {"lat": 23.0664, "lng": -88.821, "id": "418011", "name": "Cancris sagra", "sprite": "sp-anchoviella_juruasanga.png", "group": "other", "rarity": 1}, {"lat": 22.3023, "lng": -88.3442, "id": "111067", "name": "Aetea truncata", "sprite": "sp-anchoviella_juruasanga.png", "group": "other", "rarity": 1}, {"lat": 23.876, "lng": -88.2838, "id": "127306", "name": "Lovely hatchetfish", "thumb": "tn_Aracu_u4.jpg", "sprite": "sp-anchoviella_juruasanga.png", "group": "other", "rarity": 1, "waterType": "Saltwater"}, {"lat": 22.3023, "lng": -88.3442, "id": "375056", "name": "Caulerpa pusilla", "sprite": "sp-anchoviella_juruasanga.png", "group": "other", "rarity": 1}, {"lat": 22.7785, "lng": -88.6413, "id": "221052", "name": "Euphausia tenera", "sprite": "sp-antarctic_krill.png", "group": "shrimp", "rarity": 1}, {"lat": 22.5854, "lng": -89.7451, "id": "267779", "name": "Pseudoplexaura", "sprite": "sp-actiniidae.png", "group": "coral", "rarity": 1}, {"lat": 22.3823, "lng": -89.6735, "id": "421840", "name": "Upogebia vasquezi", "sprite": "sp-american_lobster.png", "group": "crab_lobster", "rarity": 1}, {"lat": 22.7785, "lng": -88.6413, "id": "129058", "name": "Sapphirina scarlata", "sprite": "sp-anchoviella_juruasanga.png", "group": "other", "rarity": 1}, {"lat": 22.7179, "lng": -89.4579, "id": "421729", "name": "Alpheus armatus", "sprite": "sp-american_lobster.png", "group": "crab_lobster", "rarity": 1}, {"lat": 23.7117, "lng": -89.2235, "id": "127284", "name": "Garrick", "thumb": "tn_Cybra_u0.jpg", "sprite": "sp-anchoviella_juruasanga.png", "group": "other", "rarity": 1, "waterType": "Saltwater"}, {"lat": 22.3023, "lng": -88.3442, "id": "234476", "name": "Ulva prolifera", "sprite": "sp-anchoviella_juruasanga.png", "group": "other", "rarity": 1}, {"lat": 22.7785, "lng": -88.6413, "id": "420320", "name": "Viridrillia cervina", "sprite": "sp-cowrie_shell.png", "group": "sea_snail", "rarity": 1}, {"lat": 22.3023, "lng": -88.3442, "id": "211519", "name": "Halimeda incrassata", "sprite": "sp-anchoviella_juruasanga.png", "group": "other", "rarity": 1}, {"lat": 22.3023, "lng": -88.3442, "id": "420428", "name": "Ammonicera lineofuscata", "sprite": "sp-cowrie_shell.png", "group": "sea_snail", "rarity": 1}, {"lat": 22.3023, "lng": -88.3442, "id": "224358", "name": "Heliacus cylindricus", "sprite": "sp-cowrie_shell.png", "group": "sea_snail", "rarity": 1}, {"lat": 23.2451, "lng": -88.9324, "id": "111345", "name": "Cupuladria biporosa", "sprite": "sp-anchoviella_juruasanga.png", "group": "other", "rarity": 1}, {"lat": 22.3023, "lng": -88.3442, "id": "373054", "name": "Ceramium corniculatum", "sprite": "sp-anchoviella_juruasanga.png", "group": "other", "rarity": 1}, {"lat": 22.7785, "lng": -88.6413, "id": "157147", "name": "Aglaophamus verrilli", "sprite": "sp-anchoviella_juruasanga.png", "group": "other", "rarity": 1}, {"lat": 24.0217, "lng": -87.9827, "id": "235503", "name": "Stenosarina angustata", "sprite": "sp-anchoviella_juruasanga.png", "group": "other", "rarity": 1}, {"lat": 22.7785, "lng": -88.6413, "id": "104880", "name": "Temora turbinata", "sprite": "sp-anchoviella_juruasanga.png", "group": "other", "rarity": 1}, {"lat": 22.3023, "lng": -88.3442, "id": "145033", "name": "Cladophora albida", "sprite": "sp-anchoviella_juruasanga.png", "group": "other", "rarity": 1}, {"lat": 22.8741, "lng": -89.1897, "id": "117635", "name": "Monostaechas quadridens", "sprite": "sp-anchoviella_juruasanga.png", "group": "other", "rarity": 1}, {"lat": 23.4484, "lng": -89.0594, "id": "135153", "name": "Dasmosmilia variegata", "sprite": "sp-actiniidae.png", "group": "coral", "rarity": 1}, {"lat": 22.5217, "lng": -89.7678, "id": "100793", "name": "Parazoanthus", "sprite": "sp-actiniidae.png", "group": "coral", "rarity": 1}, {"lat": 22.7785, "lng": -88.6413, "id": "183559", "name": "Coxliella laciniosa", "sprite": "sp-anchoviella_juruasanga.png", "group": "other", "rarity": 1}, {"lat": 23.4484, "lng": -89.0594, "id": "421847", "name": "Eiconaxius borradailei", "sprite": "sp-american_lobster.png", "group": "crab_lobster", "rarity": 1}, {"lat": 22.3023, "lng": -88.3442, "id": "417766", "name": "Fischerinella dubia", "sprite": "sp-anchoviella_juruasanga.png", "group": "other", "rarity": 1}, {"lat": 22.4013, "lng": -89.0655, "id": "207517", "name": "Siderastrea radians", "sprite": "sp-actiniidae.png", "group": "coral", "rarity": 1}, {"lat": 23.0664, "lng": -88.821, "id": "243865", "name": "Ophiomyxa tumida", "sprite": "sp-sea_cucumber.png", "group": "starfish", "rarity": 1}, {"lat": 24.0759, "lng": -89.4509, "id": "126322", "name": "Haptenchelys texis", "thumb": "tn_Hatex_u0.jpg", "sprite": "sp-electric_eel.png", "group": "eel", "rarity": 1, "waterType": "Saltwater"}, {"lat": 22.7785, "lng": -88.6413, "id": "286401", "name": "Placogorgia mirabilis", "sprite": "sp-actiniidae.png", "group": "coral", "rarity": 1}, {"lat": 22.3023, "lng": -88.3442, "id": "372996", "name": "Gracilaria damicornis", "sprite": "sp-anchoviella_juruasanga.png", "group": "other", "rarity": 1}, {"lat": 22.5143, "lng": -89.3207, "id": "159655", "name": "Rough scad", "thumb": "tn_Trlat_u2.jpg", "sprite": "sp-anchoviella_juruasanga.png", "group": "other", "rarity": 1, "waterType": "Saltwater"}, {"lat": 22.5312, "lng": -89.7375, "id": "514731", "name": "Periclimenes sandyi", "sprite": "sp-american_lobster.png", "group": "crab_lobster", "rarity": 1}, {"lat": 22.7785, "lng": -88.6413, "id": "346026", "name": "Acartia (Acartia) danae", "sprite": "sp-anchoviella_juruasanga.png", "group": "other", "rarity": 1}, {"lat": 22.7785, "lng": -88.6413, "id": "159126", "name": "Charadrius semipalmatus", "sprite": "sp-anchoviella_juruasanga.png", "group": "other", "rarity": 1}, {"lat": 22.3023, "lng": -88.3442, "id": "159615", "name": "Spotted dragonet", "thumb": "tn_Dipau_u2.jpg", "sprite": "sp-anchoviella_juruasanga.png", "group": "other", "rarity": 1, "waterType": "Saltwater"}, {"lat": 23.4702, "lng": -89.073, "id": "137108", "name": "Stenella frontalis", "sprite": "sp-bottlenose_dolphin.png", "group": "dolphin", "rarity": 1}, {"lat": 23.6421, "lng": -89.1803, "id": "413447", "name": "Bayerotrochus midas", "sprite": "sp-cowrie_shell.png", "group": "sea_snail", "rarity": 1}, {"lat": 24.3167, "lng": -87.625, "id": "105923", "name": "Picked dogfish", "thumb": "tn_Sqaca_u6.jpg", "sprite": "sp-great_white_shark.png", "group": "shark", "rarity": 1, "waterType": "Brackish"}, {"lat": 22.3023, "lng": -88.3442, "id": "624719", "name": "Ceratodictyon planicaule", "sprite": "sp-anchoviella_juruasanga.png", "group": "other", "rarity": 1}, {"lat": 23.5348, "lng": -89.3733, "id": "149884", "name": "Ophiomusium eburneum", "sprite": "sp-sea_cucumber.png", "group": "starfish", "rarity": 1}, {"lat": 22.7785, "lng": -88.6413, "id": "994130", "name": "Acromegalomma pigmentum", "sprite": "sp-anchoviella_juruasanga.png", "group": "other", "rarity": 1}, {"lat": 23.0664, "lng": -88.821, "id": "417943", "name": "Trifarina bella", "sprite": "sp-anchoviella_juruasanga.png", "group": "other", "rarity": 1}, {"lat": 23.0664, "lng": -88.821, "id": "422391", "name": "Fedora nodosa", "sprite": "sp-anchoviella_juruasanga.png", "group": "other", "rarity": 1}, {"lat": 22.7785, "lng": -88.6413, "id": "608242", "name": "Calothrix confervicola", "sprite": "sp-anchoviella_juruasanga.png", "group": "other", "rarity": 1}, {"lat": 22.4783, "lng": -89.7293, "id": "421872", "name": "Parapetrolisthes tortugensis", "sprite": "sp-american_lobster.png", "group": "crab_lobster", "rarity": 1}, {"lat": 23.4702, "lng": -89.073, "id": "421293", "name": "Perissocytheridea subrugosa", "sprite": "sp-anchoviella_juruasanga.png", "group": "other", "rarity": 1}, {"lat": 23.2451, "lng": -88.9324, "id": "420830", "name": "Basterotia quadrata", "sprite": "sp-blue_mussel.png", "group": "clam_mussel", "rarity": 1}, {"lat": 22.7785, "lng": -88.6413, "id": "419446", "name": "Solariella periscopia", "sprite": "sp-cowrie_shell.png", "group": "sea_snail", "rarity": 1}, {"lat": 22.3023, "lng": -88.3442, "id": "419643", "name": "Stosicia houbricki", "sprite": "sp-cowrie_shell.png", "group": "sea_snail", "rarity": 1}, {"lat": 23.2548, "lng": -88.9385, "id": "393549", "name": "Comactinia meridionalis meridionalis", "sprite": "sp-sea_cucumber.png", "group": "starfish", "rarity": 1}, {"lat": 23.2167, "lng": -89.2667, "id": "170913", "name": "Halicometes stellata", "sprite": "sp-barrel_sponge.png", "group": "sponge", "rarity": 1}, {"lat": 23.4484, "lng": -89.0594, "id": "127358", "name": "Stoplight loosejaw", "thumb": "tn_Manig_u6.jpg", "sprite": "sp-anchoviella_juruasanga.png", "group": "other", "rarity": 1, "waterType": "Saltwater"}, {"lat": 22.3023, "lng": -88.3442, "id": "422770", "name": "Mercenaria campechiensis campechiensis", "sprite": "sp-blue_mussel.png", "group": "clam_mussel", "rarity": 1}, {"lat": 22.7785, "lng": -88.6413, "id": "419770", "name": "Stigmaulax cancellatus", "sprite": "sp-cowrie_shell.png", "group": "sea_snail", "rarity": 1}, {"lat": 22.3023, "lng": -88.3442, "id": "559857", "name": "Triloculina funafutiensis", "sprite": "sp-anchoviella_juruasanga.png", "group": "other", "rarity": 1}, {"lat": 24.0833, "lng": -87.95, "id": "126992", "name": "Silver driftfish", "thumb": "tn_Psmac_u1.gif", "sprite": "sp-anchoviella_juruasanga.png", "group": "other", "rarity": 1, "waterType": "Brackish"}, {"lat": 22.7785, "lng": -88.6413, "id": "422501", "name": "Encope michelini", "sprite": "sp-sea_cucumber.png", "group": "starfish", "rarity": 1}, {"lat": 22.3023, "lng": -88.3442, "id": "166200", "name": "Callyspongia (Callyspongia) strongylophora", "sprite": "sp-barrel_sponge.png", "group": "sponge", "rarity": 1}, {"lat": 22.3023, "lng": -88.3442, "id": "759678", "name": "Hinea lineata", "sprite": "sp-cowrie_shell.png", "group": "sea_snail", "rarity": 1}, {"lat": 23.0664, "lng": -88.821, "id": "240860", "name": "Automate evermanni", "sprite": "sp-american_lobster.png", "group": "crab_lobster", "rarity": 1}, {"lat": 22.7785, "lng": -88.6413, "id": "420833", "name": "Glans dominguensis", "sprite": "sp-blue_mussel.png", "group": "clam_mussel", "rarity": 1}, {"lat": 22.3023, "lng": -88.3442, "id": "276425", "name": "Colon goby", "thumb": "tn_Copun_u1.jpg", "sprite": "sp-eviota_bipunctata.png", "group": "goby", "rarity": 1, "waterType": "Saltwater"}, {"lat": 22.7785, "lng": -88.6413, "id": "289178", "name": "Rhizopsammia goesi", "sprite": "sp-actiniidae.png", "group": "coral", "rarity": 1}, {"lat": 22.4072, "lng": -89.694, "id": "587907", "name": "Holthuisaeus bermudensis", "sprite": "sp-american_lobster.png", "group": "crab_lobster", "rarity": 1}, {"lat": 22.3023, "lng": -88.3442, "id": "376807", "name": "Dichotomaria marginata", "sprite": "sp-anchoviella_juruasanga.png", "group": "other", "rarity": 1}, {"lat": 22.3023, "lng": -88.3442, "id": "178200", "name": "Mithrodia clavigera", "sprite": "sp-sea_cucumber.png", "group": "starfish", "rarity": 1}, {"lat": 22.3811, "lng": -89.686, "id": "158813", "name": "Halichoeres", "sprite": "sp-cleaner_wrasse.png", "group": "wrasse", "rarity": 1}, {"lat": 23.0664, "lng": -88.821, "id": "137095", "name": "Feresa attenuata", "sprite": "sp-bottlenose_dolphin.png", "group": "dolphin", "rarity": 1}, {"lat": 22.7785, "lng": -88.6413, "id": "113662", "name": "Guttulina communis", "sprite": "sp-anchoviella_juruasanga.png", "group": "other", "rarity": 1}, {"lat": 23.4484, "lng": -89.0594, "id": "422400", "name": "Turbicellepora pourtalesi", "sprite": "sp-anchoviella_juruasanga.png", "group": "other", "rarity": 1}, {"lat": 22.3023, "lng": -88.3442, "id": "422093", "name": "Lobopilumnus agassizii", "sprite": "sp-american_lobster.png", "group": "crab_lobster", "rarity": 1}, {"lat": 22.7785, "lng": -88.6413, "id": "396058", "name": "Haplocochlias nunezi", "sprite": "sp-cowrie_shell.png", "group": "sea_snail", "rarity": 1}, {"lat": 23.4484, "lng": -89.0594, "id": "342400", "name": "Tetracheledone spinicirrhus", "sprite": "sp-giant_pacific_octopus.png", "group": "octopus_squid", "rarity": 1}, {"lat": 23.1486, "lng": -88.8723, "id": "117702", "name": "Lafoea dumosa", "sprite": "sp-anchoviella_juruasanga.png", "group": "other", "rarity": 1}, {"lat": 22.3023, "lng": -88.3442, "id": "421256", "name": "Havanardia havanensis", "sprite": "sp-anchoviella_juruasanga.png", "group": "other", "rarity": 1}, {"lat": 22.3023, "lng": -88.3442, "id": "214152", "name": "Dasya mollis", "sprite": "sp-anchoviella_juruasanga.png", "group": "other", "rarity": 1}, {"lat": 22.7785, "lng": -88.6413, "id": "422429", "name": "Entalophoroecia proboscideoides", "sprite": "sp-anchoviella_juruasanga.png", "group": "other", "rarity": 1}, {"lat": 22.7785, "lng": -88.6413, "id": "419492", "name": "Lodderena pulchella", "sprite": "sp-cowrie_shell.png", "group": "sea_snail", "rarity": 1}, {"lat": 22.7785, "lng": -88.6413, "id": "994105", "name": "Acromegalomma bioculatum", "sprite": "sp-anchoviella_juruasanga.png", "group": "other", "rarity": 1}, {"lat": 22.7785, "lng": -88.6413, "id": "421608", "name": "Hyperietta stephenseni", "sprite": "sp-american_lobster.png", "group": "crab_lobster", "rarity": 1}, {"lat": 22.7785, "lng": -88.6413, "id": "141714", "name": "Cosmotriphora melanura", "sprite": "sp-cowrie_shell.png", "group": "sea_snail", "rarity": 1}, {"lat": 22.3023, "lng": -88.3442, "id": "420457", "name": "Odostomia laevigata", "sprite": "sp-cowrie_shell.png", "group": "sea_snail", "rarity": 1}, {"lat": 22.7785, "lng": -88.6413, "id": "421868", "name": "Pachycheles monilifer", "sprite": "sp-american_lobster.png", "group": "crab_lobster", "rarity": 1}, {"lat": 23.6421, "lng": -89.1803, "id": "178779", "name": "Pedicellaster pourtalesi", "sprite": "sp-sea_cucumber.png", "group": "starfish", "rarity": 1}, {"lat": 23.2548, "lng": -88.9385, "id": "422359", "name": "Gemelliporidra pertusa", "sprite": "sp-anchoviella_juruasanga.png", "group": "other", "rarity": 1}, {"lat": 23.2548, "lng": -88.9385, "id": "718673", "name": "Atagema anceps", "sprite": "sp-cowrie_shell.png", "group": "sea_snail", "rarity": 1}, {"lat": 23.2548, "lng": -88.9385, "id": "289321", "name": "Acanthoptilum agassizii", "sprite": "sp-actiniidae.png", "group": "coral", "rarity": 1}, {"lat": 22.7785, "lng": -88.6413, "id": "421408", "name": "Actinocythereis bahamensis", "sprite": "sp-anchoviella_juruasanga.png", "group": "other", "rarity": 1}, {"lat": 22.3023, "lng": -88.3442, "id": "145038", "name": "Cladophora conferta", "sprite": "sp-anchoviella_juruasanga.png", "group": "other", "rarity": 1}, {"lat": 22.7785, "lng": -88.6413, "id": "421208", "name": "Cytherella vermillionensis", "sprite": "sp-anchoviella_juruasanga.png", "group": "other", "rarity": 1}, {"lat": 22.3023, "lng": -88.3442, "id": "214415", "name": "Boodleopsis pusilla", "sprite": "sp-anchoviella_juruasanga.png", "group": "other", "rarity": 1}, {"lat": 22.3023, "lng": -88.3442, "id": "159303", "name": "Silver perch", "thumb": "tn_Bachr_u0.jpg", "sprite": "sp-anchoviella_juruasanga.png", "group": "other", "rarity": 1, "waterType": "Brackish"}, {"lat": 22.3023, "lng": -88.3442, "id": "126302", "name": "Purplemouth moray", "thumb": "tn_Gyvic_u3.jpg", "sprite": "sp-anarchias.png", "group": "moray", "rarity": 1, "waterType": "Saltwater"}, {"lat": 22.7785, "lng": -88.6413, "id": "157341", "name": "Diplocirrus capensis", "sprite": "sp-anchoviella_juruasanga.png", "group": "other", "rarity": 1}, {"lat": 23.6421, "lng": -89.1803, "id": "422475", "name": "Ophiozonella antillarum", "sprite": "sp-sea_cucumber.png", "group": "starfish", "rarity": 1}, {"lat": 23.4484, "lng": -89.0594, "id": "420421", "name": "Spirolaxis lamellifer", "sprite": "sp-cowrie_shell.png", "group": "sea_snail", "rarity": 1}, {"lat": 22.3023, "lng": -88.3442, "id": "217342", "name": "Smalltail shark", "thumb": "tn_Capor_u1.jpg", "sprite": "sp-great_white_shark.png", "group": "shark", "rarity": 1, "waterType": "Brackish"}, {"lat": 23.0664, "lng": -88.821, "id": "405262", "name": "Siratus beauii", "sprite": "sp-cowrie_shell.png", "group": "sea_snail", "rarity": 1}, {"lat": 23.3769, "lng": -88.3285, "id": "286893", "name": "Trochocyathus (Trochocyathus) rawsonii", "sprite": "sp-actiniidae.png", "group": "coral", "rarity": 1}, {"lat": 23.4484, "lng": -89.0594, "id": "422483", "name": "Stylocidaris lineata", "sprite": "sp-sea_cucumber.png", "group": "starfish", "rarity": 1}, {"lat": 23.569, "lng": -88.5105, "id": "127338", "name": "Sloane's viperfish", "thumb": "tn_Chslo_u5.jpg", "sprite": "sp-anchoviella_juruasanga.png", "group": "other", "rarity": 1, "waterType": "Saltwater"}, {"lat": 23.6421, "lng": -89.1803, "id": "419931", "name": "Babelomurex fax", "sprite": "sp-cowrie_shell.png", "group": "sea_snail", "rarity": 1}, {"lat": 23.3723, "lng": -89.1296, "id": "287008", "name": "Flabellum (Flabellum) floridanum", "sprite": "sp-actiniidae.png", "group": "coral", "rarity": 1}, {"lat": 23.0664, "lng": -88.821, "id": "1472449", "name": "Tritonoranella ranelloides", "sprite": "sp-cowrie_shell.png", "group": "sea_snail", "rarity": 1}, {"lat": 23.4484, "lng": -89.0594, "id": "178679", "name": "Blakiaster conicus", "sprite": "sp-sea_cucumber.png", "group": "starfish", "rarity": 1}, {"lat": 23.4484, "lng": -89.0594, "id": "422532", "name": "Psolus tuberculosus", "sprite": "sp-sea_cucumber.png", "group": "starfish", "rarity": 1}, {"lat": 23.0664, "lng": -88.821, "id": "135290", "name": "Nausithoe punctata", "sprite": "sp-box_jellyfish.png", "group": "jellyfish", "rarity": 1}, {"lat": 22.7785, "lng": -88.6413, "id": "420051", "name": "Triplofusus giganteus", "sprite": "sp-cowrie_shell.png", "group": "sea_snail", "rarity": 1}, {"lat": 23.0664, "lng": -88.821, "id": "288336", "name": "Distichopora sulcata", "sprite": "sp-anchoviella_juruasanga.png", "group": "other", "rarity": 1}, {"lat": 24.0217, "lng": -88.1087, "id": "126473", "name": "Common Atlantic grenadier", "thumb": "tn_Neaeq_u0.jpg", "sprite": "sp-anchoviella_juruasanga.png", "group": "other", "rarity": 1, "waterType": "Saltwater"}, {"lat": 23.7117, "lng": -89.2235, "id": "104066", "name": "Platidia anomioides", "sprite": "sp-anchoviella_juruasanga.png", "group": "other", "rarity": 1}, {"lat": 23.2451, "lng": -88.9324, "id": "417965", "name": "Fursenkoina compressa", "sprite": "sp-anchoviella_juruasanga.png", "group": "other", "rarity": 1}]}