{"zoom": 7, "x": 33, "y": 47, "points": [{"lat": 42.3852, "lng": -86.1554, "id": "154582", "name": "Common carp", "thumb": "tn_Cycar_ua.jpg", "sprite": "sp-enteromius.png", "group": "carp_minnow", "rarity": 1, "waterType": "Brackish"}, {"lat": 41.3, "lng": -86.18, "id": "127136", "name": "Witch flounder", "thumb": "tn_Glcyn_u1.jpg", "sprite": "sp-atlantic_halibut.png", "group": "flatfish", "rarity": 1, "waterType": "Saltwater"}, {"lat": 41.5149, "lng": -85.7298, "id": "151290", "name": "Pumpkinseed", "thumb": "tn_Legib_u7.jpg", "sprite": "sp-dicentrarchus.png", "group": "bass", "rarity": 1, "waterType": "Brackish"}, {"lat": 41.3, "lng": -86.18, "id": "153087", "name": "Illex illecebrosus", "sprite": "sp-giant_pacific_octopus.png", "group": "octopus_squid", "rarity": 1}, {"lat": 42.2972, "lng": -85.7747, "id": "126141", "name": "Salmo", "sprite": "sp-atlantic_salmon.png", "group": "salmon_trout", "rarity": 1}, {"lat": 42.619, "lng": -86.4023, "id": "158669", "name": "Alewife", "thumb": "tn_Alpse_u0.jpg", "sprite": "sp-anchoviella_juruasanga.png", "group": "other", "rarity": 1, "waterType": "Brackish"}, {"lat": 41.2272, "lng": -85.8219, "id": "154208", "name": "Esox", "sprite": "sp-anchoviella_juruasanga.png", "group": "other", "rarity": 1}, {"lat": 42.7309, "lng": -85.6207, "id": "468698", "name": "Vitrius", "sprite": "sp-anchoviella_juruasanga.png", "group": "other", "rarity": 1}, {"lat": 41.7272, "lng": -86.4783, "id": "126148", "name": "Cottus", "sprite": "sp-anchoviella_juruasanga.png", "group": "other", "rarity": 1}, {"lat": 42.5058, "lng": -86.3417, "id": "151177", "name": "White perch", "thumb": "tn_Moame_u1.jpg", "sprite": "sp-dicentrarchus.png", "group": "bass", "rarity": 1, "waterType": "Brackish"}, {"lat": 42.0884, "lng": -85.2154, "id": "151157", "name": "Micropogonias", "sprite": "sp-anchoviella_juruasanga.png", "group": "other", "rarity": 1}, {"lat": 42.5753, "lng": -86.3474, "id": "126916", "name": "Round goby", "thumb": "tn_Nemel_uc.jpg", "sprite": "sp-eviota_bipunctata.png", "group": "goby", "rarity": 1, "waterType": "Brackish"}, {"lat": 41.3, "lng": -86.18, "id": "158833", "name": "American fourspot flounder", "thumb": "tn_Paobl_u0.jpg", "sprite": "sp-atlantic_halibut.png", "group": "flatfish", "rarity": 1, "waterType": "Saltwater"}, {"lat": 42.1804, "lng": -85.4509, "id": "159988", "name": "Notemigonus", "sprite": "sp-enteromius.png", "group": "carp_minnow", "rarity": 1}, {"lat": 42.7908, "lng": -85.9901, "id": "154296", "name": "Carassius", "sprite": "sp-enteromius.png", "group": "carp_minnow", "rarity": 1}, {"lat": 41.3, "lng": -86.18, "id": "127338", "name": "Sloane's viperfish", "thumb": "tn_Chslo_u5.jpg", "sprite": "sp-anchoviella_juruasanga.png", "group": "other", "rarity": 1, "waterType": "Saltwater"}, {"lat": 42.7129, "lng": -86.3925, "id": "126507", "name": "Ninespine stickleback", "thumb": "tn_Pupun_u9.jpg", "sprite": "sp-anchoviella_juruasanga.png", "group": "other", "rarity": 1, "waterType": "Brackish"}, {"lat": 41.3, "lng": -86.18, "id": "158962", "name": "Silver hake", "thumb": "tn_Mebil_u0.jpg", "sprite": "sp-anchoviella_juruasanga.png", "group": "other", "rarity": 1, "waterType": "Saltwater"}, {"lat": 42.0417, "lng": -85.5715, "id": "275402", "name": "Spotted gar", "thumb": "tn_Leocu_u3.jpg", "sprite": "sp-anchoviella_juruasanga.png", "group": "other", "rarity": 1, "waterType": "Brackish"}, {"lat": 42.4141, "lng": -85.8173, "id": "126142", "name": "Salvelinus", "sprite": "sp-atlantic_salmon.png", "group": "salmon_trout", "rarity": 1}, {"lat": 42.7166, "lng": -84.5525, "id": "154241", "name": "Brook trout", "thumb": "tn_Safon_u4.jpg", "sprite": "sp-atlantic_salmon.png", "group": "salmon_trout", "rarity": 1, "waterType": "Brackish"}, {"lat": 42.1057, "lng": -85.3753, "id": "270054", "name": "Notropis", "sprite": "sp-enteromius.png", "group": "carp_minnow", "rarity": 1}, {"lat": 42.7164, "lng": -86.3427, "id": "158725", "name": "Cisco", "thumb": "tn_Coart_u1.jpg", "sprite": "sp-atlantic_salmon.png", "group": "salmon_trout", "rarity": 1, "waterType": "Brackish"}, {"lat": 42.8408, "lng": -85.5593, "id": "269437", "name": "Hybognathus", "sprite": "sp-enteromius.png", "group": "carp_minnow", "rarity": 1}, {"lat": 42.0538, "lng": -85.0806, "id": "157871", "name": "Lepisosteus", "sprite": "sp-anchoviella_juruasanga.png", "group": "other", "rarity": 1}, {"lat": 41.1553, "lng": -86.1356, "id": "276310", "name": "Threadfin shad", "thumb": "tn_Dopet_u0.jpg", "sprite": "sp-anchoviella_juruasanga.png", "group": "other", "rarity": 1, "waterType": "Brackish"}, {"lat": 41.3, "lng": -86.18, "id": "159518", "name": "Sea raven", "thumb": "tn_Heame_u0.jpg", "sprite": "sp-anchoviella_juruasanga.png", "group": "other", "rarity": 1, "waterType": "Saltwater"}, {"lat": 41.9557, "lng": -86.4711, "id": "153994", "name": "Valvata", "sprite": "sp-cowrie_shell.png", "group": "sea_snail", "rarity": 1}, {"lat": 42.4373, "lng": -86.3239, "id": "127187", "name": "Sea trout", "thumb": "tn_Satru_u2.jpg", "sprite": "sp-atlantic_salmon.png", "group": "salmon_trout", "rarity": 1, "waterType": "Brackish"}, {"lat": 41.7398, "lng": -85.5162, "id": "125776", "name": "Pungitius", "sprite": "sp-anchoviella_juruasanga.png", "group": "other", "rarity": 1}, {"lat": 41.3, "lng": -86.18, "id": "1577339", "name": "Leucoraja erinaceus", "sprite": "sp-himantura_australis.png", "group": "ray", "rarity": 1}, {"lat": 41.9192, "lng": -85.2357, "id": "159292", "name": "Fundulus", "sprite": "sp-anchoviella_juruasanga.png", "group": "other", "rarity": 1}, {"lat": 42.6626, "lng": -86.4175, "id": "159512", "name": "Slimy sculpin", "thumb": "tn_Cocog_u0.jpg", "sprite": "sp-anchoviella_juruasanga.png", "group": "other", "rarity": 1, "waterType": "Brackish"}, {"lat": 42.2328, "lng": -85.3106, "id": "101167", "name": "Lampetra", "sprite": "sp-pacific_lamprey.png", "group": "lamprey", "rarity": 1}, {"lat": 42.6613, "lng": -85.8179, "id": "125899", "name": "Osmerus", "sprite": "sp-anchoviella_juruasanga.png", "group": "other", "rarity": 1}, {"lat": 43.03, "lng": -85.67, "id": "160343", "name": "Lymnaeidae", "sprite": "sp-cowrie_shell.png", "group": "sea_snail", "rarity": 1}, {"lat": 42.4927, "lng": -86.3878, "id": "127184", "name": "Coho salmon", "thumb": "tn_Onkis_m3.jpg", "sprite": "sp-atlantic_salmon.png", "group": "salmon_trout", "rarity": 1, "waterType": "Brackish"}, {"lat": 42.5578, "lng": -85.8797, "id": "181582", "name": "Lymnaea stagnalis", "sprite": "sp-cowrie_shell.png", "group": "sea_snail", "rarity": 1}, {"lat": 42.4285, "lng": -85.8687, "id": "126140", "name": "Oncorhynchus", "sprite": "sp-atlantic_salmon.png", "group": "salmon_trout", "rarity": 1}, {"lat": 42.4993, "lng": -86.0306, "id": "271694", "name": "Lake sturgeon", "thumb": "tn_Acful_u0.jpg", "sprite": "sp-atlantic_sturgeon.png", "group": "sturgeon", "rarity": 1, "waterType": "Brackish"}, {"lat": 42.0317, "lng": -85.1432, "id": "154198", "name": "Ameiurus", "sprite": "sp-blue_catfish.png", "group": "catfish", "rarity": 1}, {"lat": 41.467, "lng": -87.05, "id": "259559", "name": "Caecidotea kendeighi", "sprite": "sp-american_lobster.png", "group": "crab_lobster", "rarity": 1}, {"lat": 42.6667, "lng": -85.6667, "id": "22876", "name": "Onchocercidae", "sprite": "sp-anchoviella_juruasanga.png", "group": "other", "rarity": 1}, {"lat": 42.5718, "lng": -85.5934, "id": "154203", "name": "Ictalurus", "sprite": "sp-blue_catfish.png", "group": "catfish", "rarity": 1}, {"lat": 42.8738, "lng": -85.3812, "id": "154325", "name": "Phoxinus", "sprite": "sp-enteromius.png", "group": "carp_minnow", "rarity": 1}, {"lat": 41.3, "lng": -86.18, "id": "126175", "name": "Sebastes", "sprite": "sp-anchoviella_juruasanga.png", "group": "other", "rarity": 1}, {"lat": 41.3, "lng": -86.18, "id": "158988", "name": "Longfin hake", "thumb": "tn_Phche_u0.jpg", "sprite": "sp-anchoviella_juruasanga.png", "group": "other", "rarity": 1, "waterType": "Saltwater"}, {"lat": 42.632, "lng": -86.3208, "id": "154388", "name": "Burbot", "thumb": "tn_Lolot_u0.jpg", "sprite": "sp-anchoviella_juruasanga.png", "group": "other", "rarity": 1, "waterType": "Brackish"}, {"lat": 42.6879, "lng": -86.3047, "id": "158726", "name": "Lake whitefish", "thumb": "tn_Coclu_u0.jpg", "sprite": "sp-atlantic_salmon.png", "group": "salmon_trout", "rarity": 1, "waterType": "Brackish"}, {"lat": 42.5239, "lng": -86.3144, "id": "275313", "name": "American yellow perch", "thumb": "tn_Pefla_m0.jpg", "sprite": "sp-dicentrarchus.png", "group": "bass", "rarity": 1, "waterType": "Brackish"}, {"lat": 41.2091, "lng": -84.6762, "id": "154298", "name": "Goldfish", "thumb": "tn_Caaurau1.jpg", "sprite": "sp-enteromius.png", "group": "carp_minnow", "rarity": 1, "waterType": "Brackish"}, {"lat": 42.6943, "lng": -85.6408, "id": "101169", "name": "Petromyzon", "sprite": "sp-pacific_lamprey.png", "group": "lamprey", "rarity": 1}, {"lat": 42.1105, "lng": -85.9753, "id": "158705", "name": "Catostomus", "sprite": "sp-anchoviella_juruasanga.png", "group": "other", "rarity": 1}, {"lat": 42.0548, "lng": -86.1339, "id": "158707", "name": "White sucker", "thumb": "tn_Cacom_u7.jpg", "sprite": "sp-anchoviella_juruasanga.png", "group": "other", "rarity": 1, "waterType": "Brackish"}, {"lat": 41.9917, "lng": -84.9622, "id": "603326", "name": "Annularius", "sprite": "sp-anchoviella_juruasanga.png", "group": "other", "rarity": 1}, {"lat": 42.5412, "lng": -86.4047, "id": "101174", "name": "Sea lamprey", "thumb": "tn_Pemar_u7.jpg", "sprite": "sp-pacific_lamprey.png", "group": "lamprey", "rarity": 1, "waterType": "Brackish"}, {"lat": 42.8022, "lng": -86.3929, "id": "126152", "name": "Myoxocephalus", "sprite": "sp-anchoviella_juruasanga.png", "group": "other", "rarity": 1}, {"lat": 42.1462, "lng": -85.2209, "id": "151289", "name": "Lepomis", "sprite": "sp-dicentrarchus.png", "group": "bass", "rarity": 1}, {"lat": 42.6698, "lng": -86.8327, "id": "154247", "name": "Scorpaenoidei", "sprite": "sp-anchoviella_juruasanga.png", "group": "other", "rarity": 1}, {"lat": 41.3, "lng": -86.18, "id": "159184", "name": "American angler", "thumb": "tn_Loame_u2.jpg", "sprite": "sp-deep_sea_anglerfish.png", "group": "anglerfish", "rarity": 1, "waterType": "Saltwater"}, {"lat": 41.5778, "lng": -86.0894, "id": "593217", "name": "Shorthead redhorse", "thumb": "tn_Momac_u2.jpg", "sprite": "sp-anchoviella_juruasanga.png", "group": "other", "rarity": 1, "waterType": "Brackish"}, {"lat": 42.1668, "lng": -86.5693, "id": "126139", "name": "Coregonus", "sprite": "sp-atlantic_salmon.png", "group": "salmon_trout", "rarity": 1}, {"lat": 41.3, "lng": -86.18, "id": "156134", "name": "Homarus americanus", "sprite": "sp-american_lobster.png", "group": "crab_lobster", "rarity": 1}, {"lat": 42.7072, "lng": -86.4516, "id": "126505", "name": "Three-spined stickleback", "thumb": "tn_Gaacu_u1.jpg", "sprite": "sp-anchoviella_juruasanga.png", "group": "other", "rarity": 1, "waterType": "Brackish"}, {"lat": 42.0, "lng": -86.0, "id": "1821", "name": "Chordata", "sprite": "sp-anchoviella_juruasanga.png", "group": "other", "rarity": 1}, {"lat": 41.3732, "lng": -85.6139, "id": "159325", "name": "Mosquitofish", "thumb": "tn_Gaaff_m2.jpg", "sprite": "sp-anchoviella_juruasanga.png", "group": "other", "rarity": 1, "waterType": "Brackish"}, {"lat": 42.5865, "lng": -86.3206, "id": "567537", "name": "Spottail shiner", "thumb": "tn_Nohud_u0.jpg", "sprite": "sp-enteromius.png", "group": "carp_minnow", "rarity": 1, "waterType": "Brackish"}, {"lat": 41.3, "lng": -86.18, "id": "127252", "name": "Acadian redfish", "thumb": "tn_Sefas_u0.jpg", "sprite": "sp-anchoviella_juruasanga.png", "group": "other", "rarity": 1, "waterType": "Saltwater"}, {"lat": 42.28, "lng": -85.47, "id": "412657", "name": "Eupulmonata", "sprite": "sp-cowrie_shell.png", "group": "sea_snail", "rarity": 1}, {"lat": 42.6242, "lng": -86.4337, "id": "154387", "name": "Lota", "sprite": "sp-anchoviella_juruasanga.png", "group": "other", "rarity": 1}, {"lat": 41.801, "lng": -85.7624, "id": "159296", "name": "Banded killifish", "thumb": "tn_Fudia_u1.jpg", "sprite": "sp-anchoviella_juruasanga.png", "group": "other", "rarity": 1, "waterType": "Brackish"}, {"lat": 42.7647, "lng": -86.255, "id": "282373", "name": "Round whitefish", "thumb": "tn_Prcyl_u1.jpg", "sprite": "sp-atlantic_salmon.png", "group": "salmon_trout", "rarity": 1, "waterType": "Brackish"}, {"lat": 42.7, "lng": -86.2167, "id": "154163", "name": "Cyprinidae", "sprite": "sp-enteromius.png", "group": "carp_minnow", "rarity": 1}, {"lat": 41.817, "lng": -86.35, "id": "248558", "name": "Caecidotea", "sprite": "sp-american_lobster.png", "group": "crab_lobster", "rarity": 1}, {"lat": 42.2463, "lng": -86.113, "id": "159600", "name": "American gizzard shad", "thumb": "tn_Docep_u2.jpg", "sprite": "sp-anchoviella_juruasanga.png", "group": "other", "rarity": 1, "waterType": "Brackish"}, {"lat": 42.4798, "lng": -86.0636, "id": "494365", "name": "Chrysops", "sprite": "sp-anchoviella_juruasanga.png", "group": "other", "rarity": 1}, {"lat": 42.5004, "lng": -86.1774, "id": "151288", "name": "Centrarchidae", "sprite": "sp-dicentrarchus.png", "group": "bass", "rarity": 1}, {"lat": 42.6835, "lng": -86.2854, "id": "158075", "name": "Chinook salmon", "thumb": "tn_Ontsh_m1.jpg", "sprite": "sp-atlantic_salmon.png", "group": "salmon_trout", "rarity": 1, "waterType": "Brackish"}, {"lat": 42.2307, "lng": -85.4712, "id": "269917", "name": "Moxostoma", "sprite": "sp-anchoviella_juruasanga.png", "group": "other", "rarity": 1}, {"lat": 41.4931, "lng": -85.9286, "id": "1021987", "name": "Redfin pickerel", "thumb": "tn_Esame_u3.jpg", "sprite": "sp-anchoviella_juruasanga.png", "group": "other", "rarity": 1, "waterType": "Brackish"}, {"lat": 42.0928, "lng": -86.309, "id": "127185", "name": "Rainbow trout", "thumb": "tn_Onmyk_f0.jpg", "sprite": "sp-atlantic_salmon.png", "group": "salmon_trout", "rarity": 1, "waterType": "Brackish"}, {"lat": 41.3, "lng": -86.18, "id": "105865", "name": "Starry ray", "thumb": "tn_Amrad_u0.jpg", "sprite": "sp-himantura_australis.png", "group": "ray", "rarity": 1, "waterType": "Brackish"}, {"lat": 41.4566, "lng": -85.9727, "id": "159989", "name": "Golden shiner", "thumb": "tn_Nocry_u0.jpg", "sprite": "sp-enteromius.png", "group": "carp_minnow", "rarity": 1, "waterType": "Brackish"}, {"lat": 42.4, "lng": -86.2667, "id": "159080", "name": "Actitis", "sprite": "sp-anchoviella_juruasanga.png", "group": "other", "rarity": 1}, {"lat": 42.598, "lng": -86.3744, "id": "126737", "name": "Rainbow smelt", "thumb": "tn_Osmor_u1.jpg", "sprite": "sp-anchoviella_juruasanga.png", "group": "other", "rarity": 1, "waterType": "Brackish"}, {"lat": 42.2917, "lng": -85.7917, "id": "1131", "name": "Isopoda", "sprite": "sp-american_lobster.png", "group": "crab_lobster", "rarity": 1}, {"lat": 42.558, "lng": -86.3225, "id": "158706", "name": "Longnose sucker", "thumb": "tn_Cacat_u3.jpg", "sprite": "sp-anchoviella_juruasanga.png", "group": "other", "rarity": 1, "waterType": "Brackish"}, {"lat": 42.3542, "lng": -85.9823, "id": "154280", "name": "Cyprinus", "sprite": "sp-enteromius.png", "group": "carp_minnow", "rarity": 1}, {"lat": 42.2409, "lng": -86.4135, "id": "275311", "name": "Walleye", "thumb": "tn_Stvit_u0.jpg", "sprite": "sp-dicentrarchus.png", "group": "bass", "rarity": 1, "waterType": "Brackish"}, {"lat": 41.8558, "lng": -85.7163, "id": "157872", "name": "Longnose gar", "thumb": "tn_Leoss_u5.jpg", "sprite": "sp-anchoviella_juruasanga.png", "group": "other", "rarity": 1, "waterType": "Brackish"}, {"lat": 42.3496, "lng": -85.3905, "id": "125620", "name": "Anguilla", "sprite": "sp-electric_eel.png", "group": "eel", "rarity": 1}, {"lat": 42.1515, "lng": -86.2339, "id": "154210", "name": "Northern pike", "thumb": "tn_Esluc_u9.jpg", "sprite": "sp-anchoviella_juruasanga.png", "group": "other", "rarity": 1, "waterType": "Brackish"}, {"lat": 41.2259, "lng": -85.9106, "id": "270338", "name": "Percina", "sprite": "sp-dicentrarchus.png", "group": "bass", "rarity": 1}, {"lat": 42.6833, "lng": -86.35, "id": "151300", "name": "Percidae", "sprite": "sp-dicentrarchus.png", "group": "bass", "rarity": 1}]}