{"zoom": 7, "x": 34, "y": 44, "points": [{"lat": 47.7017, "lng": -83.2892, "id": "158707", "name": "White sucker", "thumb": "tn_Cacom_u7.jpg", "sprite": "sp-anchoviella_juruasanga.png", "group": "other", "rarity": 1, "waterType": "Brackish"}, {"lat": 48.2477, "lng": -82.0899, "id": "158726", "name": "Lake whitefish", "thumb": "tn_Coclu_u0.jpg", "sprite": "sp-atlantic_salmon.png", "group": "salmon_trout", "rarity": 1, "waterType": "Brackish"}, {"lat": 48.0217, "lng": -82.8733, "id": "154210", "name": "Northern pike", "thumb": "tn_Esluc_u9.jpg", "sprite": "sp-anchoviella_juruasanga.png", "group": "other", "rarity": 1, "waterType": "Brackish"}, {"lat": 47.82, "lng": -84.2, "id": "159254", "name": "Kathetostoma", "sprite": "sp-anchoviella_juruasanga.png", "group": "other", "rarity": 1}, {"lat": 47.9535, "lng": -83.1023, "id": "275313", "name": "American yellow perch", "thumb": "tn_Pefla_m0.jpg", "sprite": "sp-dicentrarchus.png", "group": "bass", "rarity": 1, "waterType": "Brackish"}, {"lat": 48.4089, "lng": -83.535, "id": "154208", "name": "Esox", "sprite": "sp-anchoviella_juruasanga.png", "group": "other", "rarity": 1}, {"lat": 48.1639, "lng": -84.3737, "id": "158705", "name": "Catostomus", "sprite": "sp-anchoviella_juruasanga.png", "group": "other", "rarity": 1}, {"lat": 47.5256, "lng": -83.9375, "id": "412863", "name": "Bythotrephes longimanus", "sprite": "sp-anchoviella_juruasanga.png", "group": "other", "rarity": 1}, {"lat": 48.2094, "lng": -82.9034, "id": "154179", "name": "Catostomidae", "sprite": "sp-anchoviella_juruasanga.png", "group": "other", "rarity": 1}, {"lat": 47.0667, "lng": -83.85, "id": "241", "name": "Arcticidae", "sprite": "sp-blue_mussel.png", "group": "clam_mussel", "rarity": 1}, {"lat": 47.783, "lng": -82.183, "id": "160008", "name": "Glossiphoniidae", "sprite": "sp-anchoviella_juruasanga.png", "group": "other", "rarity": 1}, {"lat": 48.1193, "lng": -83.3095, "id": "270054", "name": "Notropis", "sprite": "sp-enteromius.png", "group": "carp_minnow", "rarity": 1}, {"lat": 48.667, "lng": -83.8, "id": "286923", "name": "Balanophyllia (Balanophyllia) floridana", "sprite": "sp-actiniidae.png", "group": "coral", "rarity": 1}, {"lat": 48.4694, "lng": -82.8917, "id": "158725", "name": "Cisco", "thumb": "tn_Coart_u1.jpg", "sprite": "sp-atlantic_salmon.png", "group": "salmon_trout", "rarity": 1, "waterType": "Brackish"}, {"lat": 48.3652, "lng": -81.9854, "id": "126139", "name": "Coregonus", "sprite": "sp-atlantic_salmon.png", "group": "salmon_trout", "rarity": 1}, {"lat": 48.2872, "lng": -82.7056, "id": "567537", "name": "Spottail shiner", "thumb": "tn_Nohud_u0.jpg", "sprite": "sp-enteromius.png", "group": "carp_minnow", "rarity": 1, "waterType": "Brackish"}, {"lat": 48.1889, "lng": -82.2685, "id": "159989", "name": "Golden shiner", "thumb": "tn_Nocry_u0.jpg", "sprite": "sp-enteromius.png", "group": "carp_minnow", "rarity": 1, "waterType": "Brackish"}, {"lat": 48.0747, "lng": -82.2453, "id": "159988", "name": "Notemigonus", "sprite": "sp-enteromius.png", "group": "carp_minnow", "rarity": 1}, {"lat": 48.2196, "lng": -83.6602, "id": "275311", "name": "Walleye", "thumb": "tn_Stvit_u0.jpg", "sprite": "sp-dicentrarchus.png", "group": "bass", "rarity": 1, "waterType": "Brackish"}, {"lat": 47.63, "lng": -83.55, "id": "181582", "name": "Lymnaea stagnalis", "sprite": "sp-cowrie_shell.png", "group": "sea_snail", "rarity": 1}, {"lat": 48.0635, "lng": -84.0848, "id": "101174", "name": "Sea lamprey", "thumb": "tn_Pemar_u7.jpg", "sprite": "sp-pacific_lamprey.png", "group": "lamprey", "rarity": 1, "waterType": "Brackish"}, {"lat": 48.1, "lng": -82.4619, "id": "159512", "name": "Slimy sculpin", "thumb": "tn_Cocog_u0.jpg", "sprite": "sp-anchoviella_juruasanga.png", "group": "other", "rarity": 1, "waterType": "Brackish"}, {"lat": 48.1639, "lng": -84.3737, "id": "154387", "name": "Lota", "sprite": "sp-anchoviella_juruasanga.png", "group": "other", "rarity": 1}, {"lat": 48.1, "lng": -83.225, "id": "151307", "name": "Sander", "sprite": "sp-dicentrarchus.png", "group": "bass", "rarity": 1}, {"lat": 47.3791, "lng": -83.7645, "id": "158706", "name": "Longnose sucker", "thumb": "tn_Cacat_u3.jpg", "sprite": "sp-anchoviella_juruasanga.png", "group": "other", "rarity": 1, "waterType": "Brackish"}, {"lat": 47.8167, "lng": -83.225, "id": "154241", "name": "Brook trout", "thumb": "tn_Safon_u4.jpg", "sprite": "sp-atlantic_salmon.png", "group": "salmon_trout", "rarity": 1, "waterType": "Brackish"}, {"lat": 47.201, "lng": -83.6795, "id": "154325", "name": "Phoxinus", "sprite": "sp-enteromius.png", "group": "carp_minnow", "rarity": 1}, {"lat": 48.1923, "lng": -82.9176, "id": "154388", "name": "Burbot", "thumb": "tn_Lolot_u0.jpg", "sprite": "sp-anchoviella_juruasanga.png", "group": "other", "rarity": 1, "waterType": "Brackish"}, {"lat": 47.1583, "lng": -83.525, "id": "282373", "name": "Round whitefish", "thumb": "tn_Prcyl_u1.jpg", "sprite": "sp-atlantic_salmon.png", "group": "salmon_trout", "rarity": 1, "waterType": "Brackish"}, {"lat": 47.783, "lng": -82.183, "id": "160005", "name": "Erpobdellidae", "sprite": "sp-anchoviella_juruasanga.png", "group": "other", "rarity": 1}, {"lat": 48.2418, "lng": -83.907, "id": "126507", "name": "Ninespine stickleback", "thumb": "tn_Pupun_u9.jpg", "sprite": "sp-anchoviella_juruasanga.png", "group": "other", "rarity": 1, "waterType": "Brackish"}]}