{"zoom": 7, "x": 35, "y": 44, "points": [{"lat": 47.9363, "lng": -79.9554, "id": "158707", "name": "White sucker", "thumb": "tn_Cacom_u7.jpg", "sprite": "sp-anchoviella_juruasanga.png", "group": "other", "rarity": 1, "waterType": "Brackish"}, {"lat": 48.0941, "lng": -79.6619, "id": "412863", "name": "Bythotrephes longimanus", "sprite": "sp-anchoviella_juruasanga.png", "group": "other", "rarity": 1}, {"lat": 48.7667, "lng": -79.6167, "id": "593217", "name": "Shorthead redhorse", "thumb": "tn_Momac_u2.jpg", "sprite": "sp-anchoviella_juruasanga.png", "group": "other", "rarity": 1, "waterType": "Brackish"}, {"lat": 47.9483, "lng": -79.9723, "id": "158706", "name": "Longnose sucker", "thumb": "tn_Cacat_u3.jpg", "sprite": "sp-anchoviella_juruasanga.png", "group": "other", "rarity": 1, "waterType": "Brackish"}, {"lat": 47.4617, "lng": -79.6022, "id": "271694", "name": "Lake sturgeon", "thumb": "tn_Acful_u0.jpg", "sprite": "sp-atlantic_sturgeon.png", "group": "sturgeon", "rarity": 1, "waterType": "Brackish"}, {"lat": 48.1808, "lng": -80.0986, "id": "275313", "name": "American yellow perch", "thumb": "tn_Pefla_m0.jpg", "sprite": "sp-dicentrarchus.png", "group": "bass", "rarity": 1, "waterType": "Brackish"}, {"lat": 47.8881, "lng": -80.5668, "id": "241", "name": "Arcticidae", "sprite": "sp-blue_mussel.png", "group": "clam_mussel", "rarity": 1}, {"lat": 48.097, "lng": -80.1013, "id": "154387", "name": "Lota", "sprite": "sp-anchoviella_juruasanga.png", "group": "other", "rarity": 1}, {"lat": 48.7, "lng": -79.75, "id": "151307", "name": "Sander", "sprite": "sp-dicentrarchus.png", "group": "bass", "rarity": 1}, {"lat": 48.0269, "lng": -79.9493, "id": "567537", "name": "Spottail shiner", "thumb": "tn_Nohud_u0.jpg", "sprite": "sp-enteromius.png", "group": "carp_minnow", "rarity": 1, "waterType": "Brackish"}, {"lat": 48.0217, "lng": -79.8617, "id": "275311", "name": "Walleye", "thumb": "tn_Stvit_u0.jpg", "sprite": "sp-dicentrarchus.png", "group": "bass", "rarity": 1, "waterType": "Brackish"}, {"lat": 48.4833, "lng": -81.3167, "id": "154298", "name": "Goldfish", "thumb": "tn_Caaurau1.jpg", "sprite": "sp-enteromius.png", "group": "carp_minnow", "rarity": 1, "waterType": "Brackish"}, {"lat": 47.4362, "lng": -79.9646, "id": "159512", "name": "Slimy sculpin", "thumb": "tn_Cocog_u0.jpg", "sprite": "sp-anchoviella_juruasanga.png", "group": "other", "rarity": 1, "waterType": "Brackish"}, {"lat": 48.2652, "lng": -80.2923, "id": "270054", "name": "Notropis", "sprite": "sp-enteromius.png", "group": "carp_minnow", "rarity": 1}, {"lat": 48.4427, "lng": -79.9788, "id": "154388", "name": "Burbot", "thumb": "tn_Lolot_u0.jpg", "sprite": "sp-anchoviella_juruasanga.png", "group": "other", "rarity": 1, "waterType": "Brackish"}, {"lat": 48.2981, "lng": -79.9338, "id": "154210", "name": "Northern pike", "thumb": "tn_Esluc_u9.jpg", "sprite": "sp-anchoviella_juruasanga.png", "group": "other", "rarity": 1, "waterType": "Brackish"}, {"lat": 48.0738, "lng": -79.8, "id": "158725", "name": "Cisco", "thumb": "tn_Coart_u1.jpg", "sprite": "sp-atlantic_salmon.png", "group": "salmon_trout", "rarity": 1, "waterType": "Brackish"}, {"lat": 48.5357, "lng": -80.6134, "id": "159988", "name": "Notemigonus", "sprite": "sp-enteromius.png", "group": "carp_minnow", "rarity": 1}, {"lat": 48.1196, "lng": -80.1031, "id": "158705", "name": "Catostomus", "sprite": "sp-anchoviella_juruasanga.png", "group": "other", "rarity": 1}, {"lat": 47.793, "lng": -80.0937, "id": "126507", "name": "Ninespine stickleback", "thumb": "tn_Pupun_u9.jpg", "sprite": "sp-anchoviella_juruasanga.png", "group": "other", "rarity": 1, "waterType": "Brackish"}, {"lat": 47.3852, "lng": -80.6332, "id": "126142", "name": "Salvelinus", "sprite": "sp-atlantic_salmon.png", "group": "salmon_trout", "rarity": 1}, {"lat": 47.9842, "lng": -80.0758, "id": "159989", "name": "Golden shiner", "thumb": "tn_Nocry_u0.jpg", "sprite": "sp-enteromius.png", "group": "carp_minnow", "rarity": 1, "waterType": "Brackish"}, {"lat": 48.1, "lng": -80.1167, "id": "126148", "name": "Cottus", "sprite": "sp-anchoviella_juruasanga.png", "group": "other", "rarity": 1}, {"lat": 47.8, "lng": -80.45, "id": "126139", "name": "Coregonus", "sprite": "sp-atlantic_salmon.png", "group": "salmon_trout", "rarity": 1}, {"lat": 47.315, "lng": -80.3833, "id": "154179", "name": "Catostomidae", "sprite": "sp-anchoviella_juruasanga.png", "group": "other", "rarity": 1}, {"lat": 47.5145, "lng": -79.3785, "id": "446746", "name": "Mysis diluviana", "sprite": "sp-american_lobster.png", "group": "crab_lobster", "rarity": 1}, {"lat": 47.5345, "lng": -80.5292, "id": "154241", "name": "Brook trout", "thumb": "tn_Safon_u4.jpg", "sprite": "sp-atlantic_salmon.png", "group": "salmon_trout", "rarity": 1, "waterType": "Brackish"}, {"lat": 48.097, "lng": -80.1013, "id": "468698", "name": "Vitrius", "sprite": "sp-anchoviella_juruasanga.png", "group": "other", "rarity": 1}, {"lat": 47.8849, "lng": -80.3654, "id": "154325", "name": "Phoxinus", "sprite": "sp-enteromius.png", "group": "carp_minnow", "rarity": 1}, {"lat": 48.3974, "lng": -79.5056, "id": "158726", "name": "Lake whitefish", "thumb": "tn_Coclu_u0.jpg", "sprite": "sp-atlantic_salmon.png", "group": "salmon_trout", "rarity": 1, "waterType": "Brackish"}, {"lat": 47.6365, "lng": -80.0357, "id": "151290", "name": "Pumpkinseed", "thumb": "tn_Legib_u7.jpg", "sprite": "sp-dicentrarchus.png", "group": "bass", "rarity": 1, "waterType": "Brackish"}]}