{"zoom": 7, "x": 36, "y": 56, "points": [{"lat": 20.9295, "lng": -77.1811, "id": "169649", "name": "Aplysina fulva", "sprite": "sp-barrel_sponge.png", "group": "sponge", "rarity": 1}, {"lat": 20.6495, "lng": -78.0895, "id": "210726", "name": "Millepora alcicornis", "sprite": "sp-anchoviella_juruasanga.png", "group": "other", "rarity": 1}, {"lat": 19.9919, "lng": -77.7403, "id": "166654", "name": "Amphimedon", "sprite": "sp-barrel_sponge.png", "group": "sponge", "rarity": 1}, {"lat": 19.4, "lng": -78.55, "id": "418107", "name": "Globigerinoides tenellus", "sprite": "sp-anchoviella_juruasanga.png", "group": "other", "rarity": 1}, {"lat": 21.5925, "lng": -77.1092, "id": "105792", "name": "Bull shark", "thumb": "tn_Caleu_u1.jpg", "sprite": "sp-great_white_shark.png", "group": "shark", "rarity": 1, "waterType": "Brackish"}, {"lat": 21.7667, "lng": -76.65, "id": "125606", "name": "Syngnathidae", "sprite": "sp-cosmocampus_coccineus.png", "group": "seahorse", "rarity": 1}, {"lat": 20.6076, "lng": -78.2707, "id": "276042", "name": "Midnight parrotfish", "thumb": "tn_Sccoe_u1.jpg", "sprite": "sp-rainbow_parrotfish.png", "group": "parrotfish", "rarity": 1, "waterType": "Saltwater"}, {"lat": 20.6061, "lng": -78.281, "id": "273771", "name": "Greenblotch parrotfish", "thumb": "tn_Spato_u0.jpg", "sprite": "sp-sparisoma.png", "group": "parrotfish", "rarity": 1, "waterType": "Saltwater"}, {"lat": 19.4, "lng": -78.55, "id": "418114", "name": "Globorotalia tumida", "sprite": "sp-anchoviella_juruasanga.png", "group": "other", "rarity": 1}, {"lat": 19.8251, "lng": -77.7403, "id": "178375", "name": "Siphonodictyon", "sprite": "sp-barrel_sponge.png", "group": "sponge", "rarity": 1}, {"lat": 21.5028, "lng": -77.15, "id": "280068", "name": "Common snook", "thumb": "tn_Ceund_u1.jpg", "sprite": "sp-anchoviella_juruasanga.png", "group": "other", "rarity": 1, "waterType": "Brackish"}, {"lat": 19.4, "lng": -78.55, "id": "113473", "name": "Neogloboquadrina dutertrei", "sprite": "sp-anchoviella_juruasanga.png", "group": "other", "rarity": 1}, {"lat": 21.1468, "lng": -76.8612, "id": "204051", "name": "Pterois", "sprite": "sp-parascorpaena_moultoni.png", "group": "scorpionfish", "rarity": 1}, {"lat": 20.6252, "lng": -78.4652, "id": "289807", "name": "Dichocoenia stokesii", "sprite": "sp-actiniidae.png", "group": "coral", "rarity": 1}, {"lat": 19.9892, "lng": -76.2764, "id": "1321435", "name": "Phonorhynchopsis capillaris", "sprite": "sp-anchoviella_juruasanga.png", "group": "other", "rarity": 1}, {"lat": 21.0234, "lng": -78.0795, "id": "276064", "name": "Queen parrotfish", "thumb": "tn_Scvet_u0.jpg", "sprite": "sp-rainbow_parrotfish.png", "group": "parrotfish", "rarity": 1, "waterType": "Saltwater"}, {"lat": 21.5222, "lng": -77.2056, "id": "289830", "name": "Discosoma carlgreni", "sprite": "sp-actiniidae.png", "group": "coral", "rarity": 1}, {"lat": 20.7549, "lng": -77.4527, "id": "131868", "name": "Clathria", "sprite": "sp-barrel_sponge.png", "group": "sponge", "rarity": 1}, {"lat": 19.9606, "lng": -75.9578, "id": "1511123", "name": "Cheliplana spuriaseminalis", "sprite": "sp-anchoviella_juruasanga.png", "group": "other", "rarity": 1}, {"lat": 20.417, "lng": -76.017, "id": "256083", "name": "Joeropsis unidentata", "sprite": "sp-american_lobster.png", "group": "crab_lobster", "rarity": 1}, {"lat": 19.8814, "lng": -77.3111, "id": "261877", "name": "Parapagurion imbricata", "sprite": "sp-american_lobster.png", "group": "crab_lobster", "rarity": 1}, {"lat": 19.6442, "lng": -76.28, "id": "389595", "name": "Molpadiodemas epibiotus", "sprite": "sp-sea_cucumber.png", "group": "starfish", "rarity": 1}, {"lat": 21.5, "lng": -77.217, "id": "256903", "name": "Limnoria platycauda", "sprite": "sp-american_lobster.png", "group": "crab_lobster", "rarity": 1}, {"lat": 19.9039, "lng": -76.8476, "id": "166894", "name": "Xestospongia muta", "sprite": "sp-barrel_sponge.png", "group": "sponge", "rarity": 1}, {"lat": 20.5961, "lng": -78.1972, "id": "158807", "name": "Tomtate grunt", "thumb": "tn_Haaur_u1.gif", "sprite": "sp-anchoviella_juruasanga.png", "group": "other", "rarity": 1, "waterType": "Saltwater"}, {"lat": 19.4, "lng": -78.55, "id": "113460", "name": "Orbulina universa", "sprite": "sp-anchoviella_juruasanga.png", "group": "other", "rarity": 1}, {"lat": 20.7739, "lng": -78.3284, "id": "289826", "name": "Diploria labyrinthiformis", "sprite": "sp-actiniidae.png", "group": "coral", "rarity": 1}, {"lat": 21.003, "lng": -78.2749, "id": "273541", "name": "Spanish hogfish", "thumb": "tn_Boruf_u9.jpg", "sprite": "sp-cleaner_wrasse.png", "group": "wrasse", "rarity": 1, "waterType": "Saltwater"}, {"lat": 20.6442, "lng": -78.6577, "id": "430664", "name": "Madracis auretenra", "sprite": "sp-actiniidae.png", "group": "coral", "rarity": 1}, {"lat": 20.587, "lng": -78.4653, "id": "287850", "name": "Isophyllia rigida", "sprite": "sp-actiniidae.png", "group": "coral", "rarity": 1}, {"lat": 20.5, "lng": -78.63, "id": "126863", "name": "Escolar", "thumb": "tn_Lefla_u1.jpg", "sprite": "sp-anchoviella_juruasanga.png", "group": "other", "rarity": 1, "waterType": "Saltwater"}, {"lat": 20.6059, "lng": -78.3531, "id": "159792", "name": "Mutton snapper", "thumb": "tn_Luana_u0.jpg", "sprite": "sp-mutton_snapper.png", "group": "snapper", "rarity": 1, "waterType": "Brackish"}, {"lat": 20.6061, "lng": -78.281, "id": "279623", "name": "Black margate", "thumb": "tn_Ansur_u1.jpg", "sprite": "sp-anchoviella_juruasanga.png", "group": "other", "rarity": 1, "waterType": "Saltwater"}, {"lat": 20.7094, "lng": -76.5718, "id": "137119", "name": "Physeter macrocephalus", "sprite": "sp-blue_whale.png", "group": "whale", "rarity": 1}, {"lat": 19.9606, "lng": -75.9578, "id": "1511170", "name": "Carcharodorhynchus nativus", "sprite": "sp-anchoviella_juruasanga.png", "group": "other", "rarity": 1}, {"lat": 20.7277, "lng": -77.2208, "id": "125277", "name": "Plexauridae", "sprite": "sp-actiniidae.png", "group": "coral", "rarity": 1}, {"lat": 20.7549, "lng": -77.4523, "id": "169638", "name": "Aplysina bathyphila", "sprite": "sp-barrel_sponge.png", "group": "sponge", "rarity": 1}, {"lat": 19.8842, "lng": -77.0709, "id": "131751", "name": "Ircinia", "sprite": "sp-barrel_sponge.png", "group": "sponge", "rarity": 1}, {"lat": 19.9431, "lng": -76.4011, "id": "166776", "name": "Niphates erecta", "sprite": "sp-barrel_sponge.png", "group": "sponge", "rarity": 1}, {"lat": 21.82, "lng": -76.72, "id": "287088", "name": "Fungiacyathus (Bathyactis) symmetricus", "sprite": "sp-actiniidae.png", "group": "coral", "rarity": 1}, {"lat": 19.8252, "lng": -77.7407, "id": "166230", "name": "Callyspongia (Cladochalina) tenerrima", "sprite": "sp-barrel_sponge.png", "group": "sponge", "rarity": 1}, {"lat": 19.4, "lng": -78.55, "id": "221249", "name": "Globigerina falconensis", "sprite": "sp-anchoviella_juruasanga.png", "group": "other", "rarity": 1}, {"lat": 19.8252, "lng": -77.7408, "id": "283882", "name": "Antipathes atlantica", "sprite": "sp-actiniidae.png", "group": "coral", "rarity": 1}, {"lat": 20.8025, "lng": -78.2786, "id": "159581", "name": "Blue tang surgeonfish", "thumb": "tn_Accoe_u0.jpg", "sprite": "sp-acanthurus_albimento.png", "group": "surgeonfish", "rarity": 1, "waterType": "Saltwater"}, {"lat": 20.6194, "lng": -78.5411, "id": "159803", "name": "Yellowtail snapper", "thumb": "tn_Occhr_u2.jpg", "sprite": "sp-mutton_snapper.png", "group": "snapper", "rarity": 1, "waterType": "Saltwater"}, {"lat": 20.603, "lng": -78.2976, "id": "159287", "name": "Gray angelfish", "thumb": "tn_Poarc_u1.jpg", "sprite": "sp-holacanthus.png", "group": "angelfish", "rarity": 1, "waterType": "Saltwater"}, {"lat": 19.9825, "lng": -76.3042, "id": "1567848", "name": "Orostylis caecus", "sprite": "sp-anchoviella_juruasanga.png", "group": "other", "rarity": 1}, {"lat": 21.5, "lng": -77.2167, "id": "260361", "name": "Excorallana berbicensis", "sprite": "sp-american_lobster.png", "group": "crab_lobster", "rarity": 1}, {"lat": 21.7167, "lng": -76.55, "id": "131690", "name": "Tretodictyidae", "sprite": "sp-barrel_sponge.png", "group": "sponge", "rarity": 1}, {"lat": 19.4, "lng": -78.55, "id": "113454", "name": "Globoturborotalita rubescens", "sprite": "sp-anchoviella_juruasanga.png", "group": "other", "rarity": 1}, {"lat": 21.064, "lng": -77.3562, "id": "131595", "name": "Dictyoceratida", "sprite": "sp-barrel_sponge.png", "group": "sponge", "rarity": 1}, {"lat": 19.4, "lng": -78.55, "id": "113452", "name": "Globorotalia scitula", "sprite": "sp-anchoviella_juruasanga.png", "group": "other", "rarity": 1}, {"lat": 20.88, "lng": -76.25, "id": "101", "name": "Gastropoda", "sprite": "sp-cowrie_shell.png", "group": "sea_snail", "rarity": 1}, {"lat": 20.7547, "lng": -77.4527, "id": "166223", "name": "Callyspongia (Cladochalina) plicifera", "sprite": "sp-barrel_sponge.png", "group": "sponge", "rarity": 1}, {"lat": 19.9583, "lng": -76.0166, "id": "137127", "name": "Ziphius cavirostris", "sprite": "sp-blue_whale.png", "group": "whale", "rarity": 1}, {"lat": 20.6184, "lng": -78.5892, "id": "159663", "name": "Banded butterflyfish", "thumb": "tn_Chstr_u0.jpg", "sprite": "sp-chaetodon.png", "group": "butterflyfish", "rarity": 1, "waterType": "Saltwater"}, {"lat": 21.6845, "lng": -77.1638, "id": "170709", "name": "Spirastrella hartmani", "sprite": "sp-barrel_sponge.png", "group": "sponge", "rarity": 1}, {"lat": 20.5503, "lng": -77.0381, "id": "131849", "name": "Xestospongia", "sprite": "sp-barrel_sponge.png", "group": "sponge", "rarity": 1}, {"lat": 20.8448, "lng": -78.4616, "id": "204717", "name": "Montastraea", "sprite": "sp-actiniidae.png", "group": "coral", "rarity": 1}, {"lat": 21.0517, "lng": -78.2593, "id": "289232", "name": "Meandrina meandrites", "sprite": "sp-actiniidae.png", "group": "coral", "rarity": 1}, {"lat": 19.8131, "lng": -77.3815, "id": "171796", "name": "Cyrtaulon sigsbeei", "sprite": "sp-barrel_sponge.png", "group": "sponge", "rarity": 1}, {"lat": 20.2901, "lng": -77.5967, "id": "166666", "name": "Amphimedon compressa", "sprite": "sp-barrel_sponge.png", "group": "sponge", "rarity": 1}, {"lat": 20.3491, "lng": -76.9268, "id": "169632", "name": "Aiolochroia crassa", "sprite": "sp-barrel_sponge.png", "group": "sponge", "rarity": 1}, {"lat": 21.5028, "lng": -77.15, "id": "159743", "name": "Lyre goby", "thumb": "tn_Evlyr_u0.jpg", "sprite": "sp-eviota_bipunctata.png", "group": "goby", "rarity": 1, "waterType": "Brackish"}, {"lat": 21.8433, "lng": -77.4656, "id": "275724", "name": "Caesar grunt", "thumb": "tn_Hacar_u1.jpg", "sprite": "sp-anchoviella_juruasanga.png", "group": "other", "rarity": 1, "waterType": "Saltwater"}, {"lat": 19.9431, "lng": -76.4009, "id": "286416", "name": "Swiftia exserta", "sprite": "sp-actiniidae.png", "group": "coral", "rarity": 1}, {"lat": 20.5998, "lng": -78.2602, "id": "279625", "name": "Porkfish", "thumb": "tn_Anvir_uc.jpg", "sprite": "sp-anchoviella_juruasanga.png", "group": "other", "rarity": 1, "waterType": "Saltwater"}, {"lat": 21.6848, "lng": -77.1644, "id": "22805", "name": "Stylasteridae", "sprite": "sp-anchoviella_juruasanga.png", "group": "other", "rarity": 1}, {"lat": 20.4358, "lng": -77.5769, "id": "159483", "name": "Atlantic bumper", "thumb": "tn_Chchr_ug.jpg", "sprite": "sp-anchoviella_juruasanga.png", "group": "other", "rarity": 1, "waterType": "Brackish"}, {"lat": 20.902, "lng": -78.1393, "id": "275733", "name": "Bluestriped grunt", "thumb": "tn_Hasci_u2.jpg", "sprite": "sp-anchoviella_juruasanga.png", "group": "other", "rarity": 1, "waterType": "Saltwater"}, {"lat": 20.8667, "lng": -76.15, "id": "393781", "name": "Lindapecten exasperatus", "sprite": "sp-blue_mussel.png", "group": "clam_mussel", "rarity": 1}, {"lat": 21.5028, "lng": -77.15, "id": "277805", "name": "Spinycheek sleeper", "thumb": "tn_Elpis_u0.jpg", "sprite": "sp-anchoviella_juruasanga.png", "group": "other", "rarity": 1, "waterType": "Brackish"}, {"lat": 19.8252, "lng": -77.7403, "id": "166770", "name": "Niphates", "sprite": "sp-barrel_sponge.png", "group": "sponge", "rarity": 1}, {"lat": 20.3678, "lng": -77.4484, "id": "164822", "name": "Agelas citrina", "sprite": "sp-barrel_sponge.png", "group": "sponge", "rarity": 1}, {"lat": 19.8252, "lng": -77.7408, "id": "290289", "name": "Lignella richardii", "sprite": "sp-actiniidae.png", "group": "coral", "rarity": 1}, {"lat": 19.8547, "lng": -77.4058, "id": "169648", "name": "Aplysina fistularis", "sprite": "sp-barrel_sponge.png", "group": "sponge", "rarity": 1}, {"lat": 20.6063, "lng": -78.3888, "id": "302432", "name": "Bar jack", "thumb": "tn_Carub_u1.jpg", "sprite": "sp-anchoviella_juruasanga.png", "group": "other", "rarity": 1, "waterType": "Saltwater"}, {"lat": 20.6676, "lng": -78.3677, "id": "288889", "name": "Porites astreoides", "sprite": "sp-actiniidae.png", "group": "coral", "rarity": 1}, {"lat": 21.7167, "lng": -76.55, "id": "131943", "name": "Desmacidon", "sprite": "sp-barrel_sponge.png", "group": "sponge", "rarity": 1}, {"lat": 21.5, "lng": -77.2167, "id": "257081", "name": "Sphaeroma terebrans", "sprite": "sp-american_lobster.png", "group": "crab_lobster", "rarity": 1}, {"lat": 21.2152, "lng": -77.9654, "id": "159662", "name": "Spotfin butterflyfish", "thumb": "tn_Choce_ub.jpg", "sprite": "sp-chaetodon.png", "group": "butterflyfish", "rarity": 1, "waterType": "Saltwater"}, {"lat": 20.6355, "lng": -78.6272, "id": "290426", "name": "Mycetophyllia ferox", "sprite": "sp-actiniidae.png", "group": "coral", "rarity": 1}, {"lat": 20.8221, "lng": -78.1668, "id": "159301", "name": "Redfin parrotfish", "thumb": "tn_Sprub_m0.jpg", "sprite": "sp-sparisoma.png", "group": "parrotfish", "rarity": 1, "waterType": "Saltwater"}, {"lat": 20.55, "lng": -76.917, "id": "419565", "name": "Littoraria angulifera", "sprite": "sp-cowrie_shell.png", "group": "sea_snail", "rarity": 1}, {"lat": 21.5, "lng": -77.8, "id": "159427", "name": "Freckled driftfish", "thumb": "tn_Parot_u0.gif", "sprite": "sp-anchoviella_juruasanga.png", "group": "other", "rarity": 1, "waterType": "Saltwater"}, {"lat": 21.6846, "lng": -77.164, "id": "418846", "name": "Chironephthya caribaea", "sprite": "sp-actiniidae.png", "group": "coral", "rarity": 1}, {"lat": 21.8167, "lng": -76.7167, "id": "160150", "name": "Calliotropis infundibulum", "sprite": "sp-cowrie_shell.png", "group": "sea_snail", "rarity": 1}, {"lat": 20.3683, "lng": -77.051, "id": "131638", "name": "Petrosiidae", "sprite": "sp-barrel_sponge.png", "group": "sponge", "rarity": 1}, {"lat": 21.6844, "lng": -77.1637, "id": "165384", "name": "Smenospongia", "sprite": "sp-barrel_sponge.png", "group": "sponge", "rarity": 1}, {"lat": 21.226, "lng": -77.8724, "id": "273369", "name": "Longsnout butterflyfish", "thumb": "tn_Pracu_u0.jpg", "sprite": "sp-chaetodon.png", "group": "butterflyfish", "rarity": 1, "waterType": "Saltwater"}, {"lat": 20.7559, "lng": -78.2662, "id": "159793", "name": "Schoolmaster snapper", "thumb": "tn_Luapo_u4.jpg", "sprite": "sp-mutton_snapper.png", "group": "snapper", "rarity": 1, "waterType": "Brackish"}, {"lat": 21.7667, "lng": -76.65, "id": "158584", "name": "Spotted moray", "thumb": "tn_Gymor_u0.jpg", "sprite": "sp-anarchias.png", "group": "moray", "rarity": 1, "waterType": "Saltwater"}, {"lat": 21.139, "lng": -76.8169, "id": "257034", "name": "Exosphaeroma productatelson", "sprite": "sp-american_lobster.png", "group": "crab_lobster", "rarity": 1}, {"lat": 19.8254, "lng": -77.7399, "id": "1341", "name": "Octocorallia", "sprite": "sp-actiniidae.png", "group": "coral", "rarity": 1}, {"lat": 20.6018, "lng": -78.391, "id": "276062", "name": "Princess parrotfish", "thumb": "tn_Sctae_m2.jpg", "sprite": "sp-rainbow_parrotfish.png", "group": "parrotfish", "rarity": 1, "waterType": "Saltwater"}, {"lat": 21.0691, "lng": -78.1579, "id": "758260", "name": "Orbicella annularis", "sprite": "sp-actiniidae.png", "group": "coral", "rarity": 1}, {"lat": 19.6333, "lng": -76.3017, "id": "159428", "name": "Rondeletia bicolor", "thumb": "tn_Robic_u0.jpg", "sprite": "sp-anchoviella_juruasanga.png", "group": "other", "rarity": 1, "waterType": "Saltwater"}, {"lat": 20.4358, "lng": -77.5769, "id": "159731", "name": "Eucinostomus", "sprite": "sp-anchoviella_juruasanga.png", "group": "other", "rarity": 1}, {"lat": 20.1333, "lng": -76.5111, "id": "105789", "name": "Silky shark", "thumb": "tn_Cafal_u4.jpg", "sprite": "sp-great_white_shark.png", "group": "shark", "rarity": 1, "waterType": "Saltwater"}, {"lat": 21.5, "lng": -77.8, "id": "125539", "name": "Istiophoridae", "sprite": "sp-blue_marlin.png", "group": "swordfish", "rarity": 1}, {"lat": 21.1579, "lng": -78.1631, "id": "287962", "name": "Montastraea cavernosa", "sprite": "sp-actiniidae.png", "group": "coral", "rarity": 1}, {"lat": 20.4844, "lng": -77.102, "id": "267888", "name": "Tanacetipathes", "sprite": "sp-actiniidae.png", "group": "coral", "rarity": 1}, {"lat": 20.8001, "lng": -78.4527, "id": "287911", "name": "Agaricia agaricites", "sprite": "sp-actiniidae.png", "group": "coral", "rarity": 1}, {"lat": 19.91, "lng": -77.2452, "id": "276421", "name": "Bigeye mojarra", "thumb": "tn_Euhav_u0.jpg", "sprite": "sp-anchoviella_juruasanga.png", "group": "other", "rarity": 1, "waterType": "Brackish"}, {"lat": 21.07, "lng": -77.372, "id": "126846", "name": "Common dolphinfish", "thumb": "tn_Cohip_ud.jpg", "sprite": "sp-anchoviella_juruasanga.png", "group": "other", "rarity": 1, "waterType": "Brackish"}, {"lat": 21.0082, "lng": -77.3832, "id": "159700", "name": "Fat sleeper", "thumb": "tn_Domac_u1.jpg", "sprite": "sp-anchoviella_juruasanga.png", "group": "other", "rarity": 1, "waterType": "Brackish"}, {"lat": 20.9, "lng": -76.7, "id": "105719", "name": "Carcharhinus", "sprite": "sp-great_white_shark.png", "group": "shark", "rarity": 1}, {"lat": 21.5, "lng": -77.2167, "id": "220727", "name": "Sphaeroma walkeri", "sprite": "sp-american_lobster.png", "group": "crab_lobster", "rarity": 1}, {"lat": 21.5, "lng": -77.2167, "id": "220697", "name": "Cirolana parva", "sprite": "sp-american_lobster.png", "group": "crab_lobster", "rarity": 1}, {"lat": 20.3196, "lng": -77.2616, "id": "166708", "name": "Cribrochalina vasculum", "sprite": "sp-barrel_sponge.png", "group": "sponge", "rarity": 1}, {"lat": 19.8253, "lng": -77.7401, "id": "166867", "name": "Petrosia (Petrosia) weinbergi", "sprite": "sp-barrel_sponge.png", "group": "sponge", "rarity": 1}, {"lat": 20.6356, "lng": -78.703, "id": "276012", "name": "Queen angelfish", "thumb": "tn_Hocil_ua.jpg", "sprite": "sp-holacanthus.png", "group": "angelfish", "rarity": 1, "waterType": "Saltwater"}, {"lat": 19.6442, "lng": -76.28, "id": "123471", "name": "Synallactes", "sprite": "sp-sea_cucumber.png", "group": "starfish", "rarity": 1}, {"lat": 21.65, "lng": -76.5833, "id": "158643", "name": "Speckled worm-eel", "thumb": "tn_Mypun_u4.jpg", "sprite": "sp-electric_eel.png", "group": "eel", "rarity": 1, "waterType": "Brackish"}, {"lat": 19.4, "lng": -78.55, "id": "113458", "name": "Neogloboquadrina pachyderma", "sprite": "sp-anchoviella_juruasanga.png", "group": "other", "rarity": 1}, {"lat": 21.6847, "lng": -77.1642, "id": "169656", "name": "Aplysina lacunosa", "sprite": "sp-barrel_sponge.png", "group": "sponge", "rarity": 1}, {"lat": 21.505, "lng": -76.195, "id": "170294", "name": "Thenea fenestrata", "sprite": "sp-barrel_sponge.png", "group": "sponge", "rarity": 1}, {"lat": 19.8252, "lng": -77.7409, "id": "178378", "name": "Siphonodictyon coralliphagum", "sprite": "sp-barrel_sponge.png", "group": "sponge", "rarity": 1}, {"lat": 20.417, "lng": -76.017, "id": "261859", "name": "Paraimene tumulus", "sprite": "sp-american_lobster.png", "group": "crab_lobster", "rarity": 1}, {"lat": 21.7167, "lng": -76.55, "id": "132107", "name": "Farrea", "sprite": "sp-barrel_sponge.png", "group": "sponge", "rarity": 1}]}