{"zoom": 7, "x": 36, "y": 99, "points": [{"lat": -69.826, "lng": -77.728, "id": "174366", "name": "Smittina anecdota", "sprite": "sp-anchoviella_juruasanga.png", "group": "other", "rarity": 1}, {"lat": -69.8275, "lng": -77.83, "id": "432377", "name": "Hansenomysis anaramosae", "sprite": "sp-american_lobster.png", "group": "crab_lobster", "rarity": 1}, {"lat": -69.8054, "lng": -77.4968, "id": "225760", "name": "Thalassarche chrysostoma", "sprite": "sp-anchoviella_juruasanga.png", "group": "other", "rarity": 1}, {"lat": -69.8275, "lng": -77.83, "id": "1307760", "name": "Platytyphlops aspera", "sprite": "sp-american_lobster.png", "group": "crab_lobster", "rarity": 1}, {"lat": -69.826, "lng": -77.728, "id": "174430", "name": "Aspericreta crassatina", "sprite": "sp-anchoviella_juruasanga.png", "group": "other", "rarity": 1}, {"lat": -70.1667, "lng": -78.5, "id": "174519", "name": "Antarctoscyphus spiralis", "sprite": "sp-anchoviella_juruasanga.png", "group": "other", "rarity": 1}, {"lat": -70.1667, "lng": -78.5, "id": "172992", "name": "Caryophyllia (Caryophyllia) antarctica", "sprite": "sp-actiniidae.png", "group": "coral", "rarity": 1}, {"lat": -69.8275, "lng": -77.83, "id": "181693", "name": "Cyclaspis gigas", "sprite": "sp-american_lobster.png", "group": "crab_lobster", "rarity": 1}, {"lat": -70.1085, "lng": -78.4416, "id": "175004", "name": "Parapneustes cordatus", "sprite": "sp-sea_cucumber.png", "group": "starfish", "rarity": 1}, {"lat": -70.1667, "lng": -78.5, "id": "174267", "name": "Saccohydra problematica", "sprite": "sp-anchoviella_juruasanga.png", "group": "other", "rarity": 1}, {"lat": -70.5333, "lng": -76.6333, "id": "156292", "name": "Amphiporus gerlachei", "sprite": "sp-anchoviella_juruasanga.png", "group": "other", "rarity": 1}, {"lat": -69.8275, "lng": -77.83, "id": "182039", "name": "Leptostylis antipus", "sprite": "sp-american_lobster.png", "group": "crab_lobster", "rarity": 1}, {"lat": -69.826, "lng": -77.728, "id": "173684", "name": "Exochella hymanae", "sprite": "sp-anchoviella_juruasanga.png", "group": "other", "rarity": 1}, {"lat": -69.826, "lng": -77.728, "id": "173838", "name": "Trilochites biformatus", "sprite": "sp-anchoviella_juruasanga.png", "group": "other", "rarity": 1}, {"lat": -69.8223, "lng": -77.832, "id": "529076", "name": "Cucumaria dudexa", "sprite": "sp-sea_cucumber.png", "group": "starfish", "rarity": 1}, {"lat": -69.826, "lng": -77.728, "id": "197054", "name": "Bathyarca sinuata", "sprite": "sp-blue_mussel.png", "group": "clam_mussel", "rarity": 1}, {"lat": -69.888, "lng": -78.114, "id": "173370", "name": "Buffonellaria frigida", "sprite": "sp-anchoviella_juruasanga.png", "group": "other", "rarity": 1}, {"lat": -69.7922, "lng": -78.066, "id": "344008", "name": "Lobodon carcinophagus", "sprite": "sp-elephant_seal.png", "group": "seal", "rarity": 1}, {"lat": -69.8275, "lng": -77.83, "id": "110513", "name": "Hemilamprops pellucidus", "sprite": "sp-american_lobster.png", "group": "crab_lobster", "rarity": 1}, {"lat": -70.0458, "lng": -76.1329, "id": "236217", "name": "Euphausia superba", "sprite": "sp-antarctic_krill.png", "group": "shrimp", "rarity": 1}, {"lat": -70.1669, "lng": -78.5, "id": "234808", "name": "Gerlachea australis", "thumb": "tn_Geaus_u0.gif", "sprite": "sp-anchoviella_juruasanga.png", "group": "other", "rarity": 1, "waterType": "Saltwater"}, {"lat": -69.8275, "lng": -77.83, "id": "181965", "name": "Diastylis mawsoni", "sprite": "sp-american_lobster.png", "group": "crab_lobster", "rarity": 1}, {"lat": -69.826, "lng": -77.728, "id": "174287", "name": "Fenestrulina proxima", "sprite": "sp-anchoviella_juruasanga.png", "group": "other", "rarity": 1}, {"lat": -69.826, "lng": -77.728, "id": "174207", "name": "Lacerna watersi", "sprite": "sp-anchoviella_juruasanga.png", "group": "other", "rarity": 1}, {"lat": -70.1667, "lng": -78.5, "id": "869816", "name": "Primnoisis (Delicatisis) formosa", "sprite": "sp-actiniidae.png", "group": "coral", "rarity": 1}, {"lat": -69.8238, "lng": -77.7525, "id": "160830", "name": "Sterechinus diadema", "sprite": "sp-sea_cucumber.png", "group": "starfish", "rarity": 1}, {"lat": -70.1667, "lng": -78.5, "id": "286574", "name": "Thouarella (Thouarella) variabilis", "sprite": "sp-actiniidae.png", "group": "coral", "rarity": 1}, {"lat": -69.826, "lng": -77.728, "id": "174400", "name": "Smittoidea conspicua", "sprite": "sp-anchoviella_juruasanga.png", "group": "other", "rarity": 1}, {"lat": -69.9922, "lng": -78.3248, "id": "160778", "name": "Amphipneustes similis", "sprite": "sp-sea_cucumber.png", "group": "starfish", "rarity": 1}, {"lat": -70.1667, "lng": -78.5, "id": "286091", "name": "Acanthogorgia thomsoni", "sprite": "sp-actiniidae.png", "group": "coral", "rarity": 1}, {"lat": -69.826, "lng": -77.728, "id": "111400", "name": "Hippothoa flagellum", "sprite": "sp-anchoviella_juruasanga.png", "group": "other", "rarity": 1}, {"lat": -69.826, "lng": -77.728, "id": "174294", "name": "Micropora brevissima", "sprite": "sp-anchoviella_juruasanga.png", "group": "other", "rarity": 1}, {"lat": -69.826, "lng": -77.728, "id": "173663", "name": "Escharella watersi", "sprite": "sp-anchoviella_juruasanga.png", "group": "other", "rarity": 1}, {"lat": -69.826, "lng": -77.728, "id": "174392", "name": "Smittinella rubrilingulata", "sprite": "sp-anchoviella_juruasanga.png", "group": "other", "rarity": 1}, {"lat": -69.826, "lng": -77.728, "id": "768217", "name": "Platypyxis inconstantia", "sprite": "sp-anchoviella_juruasanga.png", "group": "other", "rarity": 1}, {"lat": -69.9843, "lng": -76.171, "id": "137092", "name": "Megaptera novaeangliae", "sprite": "sp-blue_whale.png", "group": "whale", "rarity": 1}, {"lat": -69.826, "lng": -77.728, "id": "173251", "name": "Pyriporoides uniserialis", "sprite": "sp-anchoviella_juruasanga.png", "group": "other", "rarity": 1}, {"lat": -69.8275, "lng": -77.83, "id": "231738", "name": "Procampylaspis halei", "sprite": "sp-american_lobster.png", "group": "crab_lobster", "rarity": 1}, {"lat": -69.8238, "lng": -77.7525, "id": "160813", "name": "Notocidaris mortenseni", "sprite": "sp-sea_cucumber.png", "group": "starfish", "rarity": 1}, {"lat": -69.9554, "lng": -77.0994, "id": "231413", "name": "Mirounga leonina", "sprite": "sp-elephant_seal.png", "group": "seal", "rarity": 1}, {"lat": -69.7742, "lng": -78.4567, "id": "231404", "name": "Arctocephalus gazella", "sprite": "sp-elephant_seal.png", "group": "seal", "rarity": 1}, {"lat": -69.9922, "lng": -78.3248, "id": "160796", "name": "Ctenocidaris perrieri", "sprite": "sp-sea_cucumber.png", "group": "starfish", "rarity": 1}, {"lat": -69.7385, "lng": -77.3065, "id": "343995", "name": "Thalassarche melanophris", "sprite": "sp-anchoviella_juruasanga.png", "group": "other", "rarity": 1}, {"lat": -70.1667, "lng": -78.5, "id": "160831", "name": "Sterechinus neumayeri", "sprite": "sp-sea_cucumber.png", "group": "starfish", "rarity": 1}, {"lat": -70.1667, "lng": -78.5, "id": "135085", "name": "Caryophyllia", "sprite": "sp-actiniidae.png", "group": "coral", "rarity": 1}, {"lat": -69.826, "lng": -77.728, "id": "174360", "name": "Rhamphosmittina bassleri", "sprite": "sp-anchoviella_juruasanga.png", "group": "other", "rarity": 1}, {"lat": -70.1667, "lng": -78.5, "id": "287026", "name": "Flabellum (Flabellum) thouarsii", "sprite": "sp-actiniidae.png", "group": "coral", "rarity": 1}, {"lat": -70.1667, "lng": -78.5, "id": "235668", "name": "Magellania fragilis", "sprite": "sp-anchoviella_juruasanga.png", "group": "other", "rarity": 1}, {"lat": -70.1667, "lng": -78.5, "id": "117702", "name": "Lafoea dumosa", "sprite": "sp-anchoviella_juruasanga.png", "group": "other", "rarity": 1}, {"lat": -69.8238, "lng": -77.7525, "id": "160828", "name": "Sterechinus antarcticus", "sprite": "sp-sea_cucumber.png", "group": "starfish", "rarity": 1}]}