{"zoom": 7, "x": 37, "y": 76, "points": [{"lat": -33.025, "lng": -73.804, "id": "301793", "name": "Talismania aphos", "sprite": "sp-anchoviella_juruasanga.png", "group": "other", "rarity": 1, "waterType": "Saltwater"}, {"lat": -33.52, "lng": -74.72, "id": "205785", "name": "Palythoa", "sprite": "sp-actiniidae.png", "group": "coral", "rarity": 1}, {"lat": -32.95, "lng": -74.95, "id": "104402", "name": "Euaugaptilus magnus", "sprite": "sp-anchoviella_juruasanga.png", "group": "other", "rarity": 1}, {"lat": -34.0, "lng": -74.0, "id": "274941", "name": "Southern bigscale", "sprite": "sp-anchoviella_juruasanga.png", "group": "other", "rarity": 1, "waterType": "Saltwater"}, {"lat": -34.1667, "lng": -74.75, "id": "237855", "name": "Euphausia gibba", "sprite": "sp-antarctic_krill.png", "group": "shrimp", "rarity": 1}, {"lat": -33.58, "lng": -74.92, "id": "1571884", "name": "Sagmatias australis", "sprite": "sp-bottlenose_dolphin.png", "group": "dolphin", "rarity": 1}, {"lat": -33.0443, "lng": -75.1247, "id": "2081", "name": "Chaetognatha", "sprite": "sp-anchoviella_juruasanga.png", "group": "other", "rarity": 1}, {"lat": -32.0151, "lng": -73.1704, "id": "220222", "name": "Eubalaena australis", "sprite": "sp-blue_whale.png", "group": "whale", "rarity": 1}, {"lat": -34.267, "lng": -73.4, "id": "847452", "name": "Eucalanus elongatus elongatus", "sprite": "sp-anchoviella_juruasanga.png", "group": "other", "rarity": 1}, {"lat": -33.0, "lng": -75.0, "id": "745865", "name": "Paracalanus parvus parvus", "sprite": "sp-anchoviella_juruasanga.png", "group": "other", "rarity": 1}, {"lat": -32.89, "lng": -74.9575, "id": "1078", "name": "Ostracoda", "sprite": "sp-anchoviella_juruasanga.png", "group": "other", "rarity": 1}, {"lat": -32.8929, "lng": -74.0334, "id": "106361", "name": "Beroe gracilis", "sprite": "sp-anchoviella_juruasanga.png", "group": "other", "rarity": 1}, {"lat": -32.8833, "lng": -73.6447, "id": "106358", "name": "Beroe cucumis", "sprite": "sp-anchoviella_juruasanga.png", "group": "other", "rarity": 1}, {"lat": -33.25, "lng": -75.383, "id": "237545", "name": "Stegocephalus kergueleni", "sprite": "sp-american_lobster.png", "group": "crab_lobster", "rarity": 1}, {"lat": -32.8875, "lng": -73.9585, "id": "265191", "name": "Pleurobrachia bachei", "sprite": "sp-anchoviella_juruasanga.png", "group": "other", "rarity": 1}, {"lat": -33.1333, "lng": -73.7167, "id": "217707", "name": "Lantern fish", "thumb": "tn_Naach_u0.jpg", "sprite": "sp-anchoviella_juruasanga.png", "group": "other", "rarity": 1, "waterType": "Saltwater"}, {"lat": -33.0773, "lng": -74.7717, "id": "1649789", "name": "Hansarsia megalops", "sprite": "sp-antarctic_krill.png", "group": "shrimp", "rarity": 1}, {"lat": -33.25, "lng": -75.0, "id": "421604", "name": "Primno brevidens", "sprite": "sp-american_lobster.png", "group": "crab_lobster", "rarity": 1}, {"lat": -33.28, "lng": -73.53, "id": "115082", "name": "Pontosphaera", "sprite": "sp-anchoviella_juruasanga.png", "group": "other", "rarity": 1}, {"lat": -33.5184, "lng": -74.7183, "id": "287467", "name": "Leptopenus hypocoelus", "sprite": "sp-actiniidae.png", "group": "coral", "rarity": 1}, {"lat": -33.639, "lng": -73.9667, "id": "354235", "name": "Paraeuchaeta weberi", "sprite": "sp-anchoviella_juruasanga.png", "group": "other", "rarity": 1}, {"lat": -32.95, "lng": -74.95, "id": "346143", "name": "Batheuchaeta enormis", "sprite": "sp-anchoviella_juruasanga.png", "group": "other", "rarity": 1}, {"lat": -33.25, "lng": -75.0, "id": "236558", "name": "Hyperietta luzoni", "sprite": "sp-american_lobster.png", "group": "crab_lobster", "rarity": 1}, {"lat": -33.21, "lng": -74.435, "id": "137202", "name": "Puffinus griseus", "sprite": "sp-anchoviella_juruasanga.png", "group": "other", "rarity": 1}, {"lat": -33.5184, "lng": -74.7183, "id": "581487", "name": "Epizoanthus thalamophilus", "sprite": "sp-actiniidae.png", "group": "coral", "rarity": 1}, {"lat": -33.25, "lng": -75.0, "id": "421612", "name": "Dairella californica", "sprite": "sp-american_lobster.png", "group": "crab_lobster", "rarity": 1}, {"lat": -33.52, "lng": -74.72, "id": "287088", "name": "Fungiacyathus (Bathyactis) symmetricus", "sprite": "sp-actiniidae.png", "group": "coral", "rarity": 1}, {"lat": -33.01, "lng": -75.0817, "id": "582421", "name": "Radiozoa", "sprite": "sp-anchoviella_juruasanga.png", "group": "other", "rarity": 1}, {"lat": -32.3667, "lng": -74.8083, "id": "325306", "name": "Todarodes filippovae", "sprite": "sp-giant_pacific_octopus.png", "group": "octopus_squid", "rarity": 1}, {"lat": -32.935, "lng": -73.59, "id": "178600", "name": "Coccolithus pelagicus", "sprite": "sp-anchoviella_juruasanga.png", "group": "other", "rarity": 1}, {"lat": -32.4533, "lng": -75.7417, "id": "234641", "name": "Rhombic lanternfish", "thumb": "tn_Krand_u1.gif", "sprite": "sp-anchoviella_juruasanga.png", "group": "other", "rarity": 1, "waterType": "Saltwater"}, {"lat": -32.6427, "lng": -73.952, "id": "225760", "name": "Thalassarche chrysostoma", "sprite": "sp-anchoviella_juruasanga.png", "group": "other", "rarity": 1}, {"lat": -33.25, "lng": -75.35, "id": "127798", "name": "Loricoecia loricata", "sprite": "sp-anchoviella_juruasanga.png", "group": "other", "rarity": 1}, {"lat": -33.5191, "lng": -74.7191, "id": "446819", "name": "Polyopis striata", "sprite": "sp-actiniidae.png", "group": "coral", "rarity": 1}, {"lat": -32.5233, "lng": -74.6114, "id": "126821", "name": "Blue jack mackerel", "thumb": "tn_Trpic_f0.jpg", "sprite": "sp-anchoviella_juruasanga.png", "group": "other", "rarity": 1, "waterType": "Saltwater"}, {"lat": -33.01, "lng": -75.0817, "id": "1128", "name": "Euphausiacea", "sprite": "sp-antarctic_krill.png", "group": "shrimp", "rarity": 1}, {"lat": -33.833, "lng": -74.0, "id": "272287", "name": "Anchoveta", "thumb": "tn_Enrin_u1.jpg", "sprite": "sp-anchoviella_juruasanga.png", "group": "anchovy", "rarity": 1, "waterType": "Saltwater"}, {"lat": -33.775, "lng": -73.483, "id": "955128", "name": "Elenacalanus princeps", "sprite": "sp-anchoviella_juruasanga.png", "group": "other", "rarity": 1}, {"lat": -33.07, "lng": -75.1529, "id": "1080", "name": "Copepoda", "sprite": "sp-anchoviella_juruasanga.png", "group": "other", "rarity": 1}, {"lat": -34.1083, "lng": -73.3083, "id": "280267", "name": "Chilean grenadier", "thumb": "tn_Cachi_u0.jpg", "sprite": "sp-anchoviella_juruasanga.png", "group": "other", "rarity": 1, "waterType": "Saltwater"}, {"lat": -33.1, "lng": -74.75, "id": "1314233", "name": "Lophuroecia lophura", "sprite": "sp-anchoviella_juruasanga.png", "group": "other", "rarity": 1}, {"lat": -33.7333, "lng": -75.2833, "id": "272694", "name": "California headlightfish", "thumb": "tn_Dithe_u0.jpg", "sprite": "sp-anchoviella_juruasanga.png", "group": "other", "rarity": 1, "waterType": "Saltwater"}, {"lat": -33.0417, "lng": -74.1, "id": "127854", "name": "Porroecia porrecta", "sprite": "sp-anchoviella_juruasanga.png", "group": "other", "rarity": 1}, {"lat": -33.025, "lng": -73.804, "id": "127338", "name": "Sloane's viperfish", "thumb": "tn_Chslo_u5.jpg", "sprite": "sp-anchoviella_juruasanga.png", "group": "other", "rarity": 1, "waterType": "Saltwater"}, {"lat": -33.5167, "lng": -74.7167, "id": "1340", "name": "Hexacorallia", "sprite": "sp-actiniidae.png", "group": "coral", "rarity": 1}, {"lat": -33.25, "lng": -75.0, "id": "421625", "name": "Streetsia steenstrupi", "sprite": "sp-american_lobster.png", "group": "crab_lobster", "rarity": 1}, {"lat": -33.7, "lng": -73.55, "id": "104690", "name": "Cornucalanus chelifer", "sprite": "sp-anchoviella_juruasanga.png", "group": "other", "rarity": 1}, {"lat": -32.4533, "lng": -75.7417, "id": "131568", "name": "Tomopteris septentrionalis", "sprite": "sp-anchoviella_juruasanga.png", "group": "other", "rarity": 1}, {"lat": -32.935, "lng": -73.59, "id": "235923", "name": "Calcidiscus leptoporus", "sprite": "sp-anchoviella_juruasanga.png", "group": "other", "rarity": 1}, {"lat": -33.0, "lng": -73.8, "id": "283164", "name": "Binocular fish", "thumb": "tn_Witel_u0.jpg", "sprite": "sp-anchoviella_juruasanga.png", "group": "other", "rarity": 1, "waterType": "Saltwater"}, {"lat": -32.935, "lng": -73.59, "id": "235952", "name": "Florisphaera profunda", "sprite": "sp-anchoviella_juruasanga.png", "group": "other", "rarity": 1}, {"lat": -33.0444, "lng": -74.1222, "id": "127794", "name": "Halocypris inflata", "sprite": "sp-anchoviella_juruasanga.png", "group": "other", "rarity": 1}, {"lat": -32.89, "lng": -74.9575, "id": "1135", "name": "Amphipoda", "sprite": "sp-american_lobster.png", "group": "crab_lobster", "rarity": 1}, {"lat": -33.5189, "lng": -74.7189, "id": "283832", "name": "Corallimorphus rigidus", "sprite": "sp-actiniidae.png", "group": "coral", "rarity": 1}, {"lat": -33.7, "lng": -73.55, "id": "104342", "name": "Undeuchaeta major", "sprite": "sp-anchoviella_juruasanga.png", "group": "other", "rarity": 1}, {"lat": -33.25, "lng": -75.35, "id": "127820", "name": "Mikroconchoecia curta", "sprite": "sp-anchoviella_juruasanga.png", "group": "other", "rarity": 1}, {"lat": -33.6085, "lng": -74.175, "id": "104562", "name": "Paraeuchaeta hansenii", "sprite": "sp-anchoviella_juruasanga.png", "group": "other", "rarity": 1}, {"lat": -34.1083, "lng": -73.3083, "id": "272425", "name": "Atacama grenadier", "thumb": "tn_Nepud_u0.gif", "sprite": "sp-anchoviella_juruasanga.png", "group": "other", "rarity": 1, "waterType": "Saltwater"}, {"lat": -32.95, "lng": -74.95, "id": "104608", "name": "Lucicutia maxima", "sprite": "sp-anchoviella_juruasanga.png", "group": "other", "rarity": 1}, {"lat": -32.935, "lng": -73.59, "id": "235857", "name": "Umbilicosphaera", "sprite": "sp-anchoviella_juruasanga.png", "group": "other", "rarity": 1}, {"lat": -33.767, "lng": -75.283, "id": "221286", "name": "Euchirella formosa", "sprite": "sp-anchoviella_juruasanga.png", "group": "other", "rarity": 1}, {"lat": -33.4333, "lng": -74.7168, "id": "173756", "name": "Anchinothria pycnobranchiata", "sprite": "sp-anchoviella_juruasanga.png", "group": "other", "rarity": 1}, {"lat": -33.25, "lng": -75.0, "id": "236579", "name": "Lycaeopsis themistoides", "sprite": "sp-american_lobster.png", "group": "crab_lobster", "rarity": 1}, {"lat": -33.25, "lng": -75.35, "id": "1360", "name": "Actiniaria", "sprite": "sp-actiniidae.png", "group": "coral", "rarity": 1}, {"lat": -33.465, "lng": -74.93, "id": "225975", "name": "Pterodroma magentae", "sprite": "sp-anchoviella_juruasanga.png", "group": "other", "rarity": 1}, {"lat": -33.01, "lng": -75.0817, "id": "1371", "name": "Siphonophorae", "sprite": "sp-anchoviella_juruasanga.png", "group": "other", "rarity": 1}, {"lat": -33.034, "lng": -74.6652, "id": "126392", "name": "Atlantic saury", "thumb": "tn_Scsau_u1.jpg", "sprite": "sp-anchoviella_juruasanga.png", "group": "other", "rarity": 1, "waterType": "Saltwater"}, {"lat": -32.935, "lng": -73.59, "id": "615435", "name": "Helicosphaera carteri", "sprite": "sp-anchoviella_juruasanga.png", "group": "other", "rarity": 1}, {"lat": -33.1167, "lng": -73.15, "id": "272730", "name": "Protomyctophum chilense", "sprite": "sp-anchoviella_juruasanga.png", "group": "other", "rarity": 1, "waterType": "Saltwater"}, {"lat": -33.0333, "lng": -73.8053, "id": "127374", "name": "Boa dragonfish", "thumb": "tn_Stboa_u1.jpg", "sprite": "sp-anchoviella_juruasanga.png", "group": "other", "rarity": 1, "waterType": "Saltwater"}, {"lat": -33.25, "lng": -75.0, "id": "421611", "name": "Themistella fusca", "sprite": "sp-american_lobster.png", "group": "crab_lobster", "rarity": 1}, {"lat": -33.025, "lng": -73.804, "id": "126187", "name": "Cyclothone", "sprite": "sp-anchoviella_juruasanga.png", "group": "other", "rarity": 1}, {"lat": -32.4, "lng": -75.7, "id": "125833", "name": "Symbolophorus", "sprite": "sp-anchoviella_juruasanga.png", "group": "other", "rarity": 1}, {"lat": -33.4903, "lng": -74.8463, "id": "237857", "name": "Euphausia mucronata", "sprite": "sp-antarctic_krill.png", "group": "shrimp", "rarity": 1}, {"lat": -33.25, "lng": -75.35, "id": "127814", "name": "Metaconchoecia skogsbergi", "sprite": "sp-anchoviella_juruasanga.png", "group": "other", "rarity": 1}, {"lat": -33.225, "lng": -73.6833, "id": "278566", "name": "Mexican lampfish", "sprite": "sp-anchoviella_juruasanga.png", "group": "other", "rarity": 1, "waterType": "Saltwater"}, {"lat": -33.1834, "lng": -74.7056, "id": "126721", "name": "Bigscale deepsea smelt", "thumb": "tn_Meber_u1.jpg", "sprite": "sp-anchoviella_juruasanga.png", "group": "other", "rarity": 1, "waterType": "Saltwater"}, {"lat": -33.0444, "lng": -74.1222, "id": "176560", "name": "Orthoconchoecia haddoni marchilensis", "sprite": "sp-anchoviella_juruasanga.png", "group": "other", "rarity": 1}, {"lat": -33.033, "lng": -74.617, "id": "135976", "name": "Echthrogaleus coleoptratus", "sprite": "sp-anchoviella_juruasanga.png", "group": "other", "rarity": 1}, {"lat": -33.25, "lng": -75.0, "id": "510207", "name": "Hyperioides sibaginis", "sprite": "sp-american_lobster.png", "group": "crab_lobster", "rarity": 1}, {"lat": -33.25, "lng": -75.0, "id": "103276", "name": "Paralycaea gracilis", "sprite": "sp-american_lobster.png", "group": "crab_lobster", "rarity": 1}, {"lat": -33.025, "lng": -73.804, "id": "127337", "name": "Dana viperfish", "thumb": "tn_Chdan_u0.gif", "sprite": "sp-anchoviella_juruasanga.png", "group": "other", "rarity": 1, "waterType": "Saltwater"}, {"lat": -33.25, "lng": -75.35, "id": "127861", "name": "Proceroecia procera", "sprite": "sp-anchoviella_juruasanga.png", "group": "other", "rarity": 1}, {"lat": -32.77, "lng": -74.8267, "id": "101", "name": "Gastropoda", "sprite": "sp-cowrie_shell.png", "group": "sea_snail", "rarity": 1}, {"lat": -33.5167, "lng": -74.55, "id": "235689", "name": "Magellania wyvillei", "sprite": "sp-anchoviella_juruasanga.png", "group": "other", "rarity": 1}, {"lat": -34.1667, "lng": -75.1, "id": "221047", "name": "Euphausia recurva", "sprite": "sp-antarctic_krill.png", "group": "shrimp", "rarity": 1}, {"lat": -33.25, "lng": -75.35, "id": "117856", "name": "Crossota rufobrunnea", "sprite": "sp-anchoviella_juruasanga.png", "group": "other", "rarity": 1}, {"lat": -33.25, "lng": -75.383, "id": "175039", "name": "Phascolion (Montuga) lutense", "sprite": "sp-anchoviella_juruasanga.png", "group": "other", "rarity": 1}, {"lat": -33.1333, "lng": -73.7167, "id": "217708", "name": "Southern lanternfish", "thumb": "tn_Laaus_u4.jpg", "sprite": "sp-anchoviella_juruasanga.png", "group": "other", "rarity": 1, "waterType": "Saltwater"}, {"lat": -33.2277, "lng": -74.4833, "id": "358534", "name": "Paraeuchaeta pavlovskii", "sprite": "sp-anchoviella_juruasanga.png", "group": "other", "rarity": 1}, {"lat": -33.158, "lng": -73.192, "id": "154230", "name": "Idiacanthinae", "sprite": "sp-anchoviella_juruasanga.png", "group": "other", "rarity": 1}, {"lat": -33.05, "lng": -74.1667, "id": "536010", "name": "Rotundoecia teretivalvata", "sprite": "sp-anchoviella_juruasanga.png", "group": "other", "rarity": 1}, {"lat": -32.935, "lng": -73.59, "id": "115104", "name": "Emiliania huxleyi", "sprite": "sp-anchoviella_juruasanga.png", "group": "other", "rarity": 1}, {"lat": -32.4533, "lng": -75.7417, "id": "226891", "name": "Boreomysis rostrata", "sprite": "sp-american_lobster.png", "group": "crab_lobster", "rarity": 1}, {"lat": -33.0417, "lng": -74.1, "id": "176580", "name": "Porroecia porrecta pacifica", "sprite": "sp-anchoviella_juruasanga.png", "group": "other", "rarity": 1}, {"lat": -32.8557, "lng": -74.1382, "id": "1248", "name": "Ctenophora", "sprite": "sp-anchoviella_juruasanga.png", "group": "other", "rarity": 1}, {"lat": -33.206, "lng": -75.338, "id": "1410", "name": "Foraminifera", "sprite": "sp-anchoviella_juruasanga.png", "group": "other", "rarity": 1}, {"lat": -33.7, "lng": -73.55, "id": "104174", "name": "Euchaeta", "sprite": "sp-anchoviella_juruasanga.png", "group": "other", "rarity": 1}, {"lat": -33.325, "lng": -74.25, "id": "730985", "name": "Megacalanus princeps princeps", "sprite": "sp-anchoviella_juruasanga.png", "group": "other", "rarity": 1}, {"lat": -33.25, "lng": -75.35, "id": "127782", "name": "Discoconchoecia elegans", "sprite": "sp-anchoviella_juruasanga.png", "group": "other", "rarity": 1}, {"lat": -33.5167, "lng": -74.7167, "id": "135205", "name": "Fungiacyathus (Bathyactis) marenzelleri", "sprite": "sp-actiniidae.png", "group": "coral", "rarity": 1}, {"lat": -33.03, "lng": -75.33, "id": "5", "name": "Protozoa", "sprite": "sp-anchoviella_juruasanga.png", "group": "other", "rarity": 1}, {"lat": -32.0333, "lng": -73.8, "id": "137222", "name": "Doliolum", "sprite": "sp-anchoviella_juruasanga.png", "group": "other", "rarity": 1}, {"lat": -32.935, "lng": -73.59, "id": "341588", "name": "Gephyrocapsa muellerae", "sprite": "sp-anchoviella_juruasanga.png", "group": "other", "rarity": 1}, {"lat": -33.25, "lng": -75.35, "id": "127780", "name": "Conchoecissa symmetrica", "sprite": "sp-anchoviella_juruasanga.png", "group": "other", "rarity": 1}, {"lat": -34.1167, "lng": -73.9333, "id": "342210", "name": "Cirroteuthis hoylei", "sprite": "sp-giant_pacific_octopus.png", "group": "octopus_squid", "rarity": 1}, {"lat": -33.25, "lng": -75.0, "id": "236576", "name": "Simorhynchotus antennarius", "sprite": "sp-american_lobster.png", "group": "crab_lobster", "rarity": 1}, {"lat": -33.7, "lng": -73.55, "id": "104696", "name": "Onchocalanus magnus", "sprite": "sp-anchoviella_juruasanga.png", "group": "other", "rarity": 1}, {"lat": -33.733, "lng": -73.883, "id": "104694", "name": "Onchocalanus cristatus", "sprite": "sp-anchoviella_juruasanga.png", "group": "other", "rarity": 1}, {"lat": -33.2112, "lng": -74.3025, "id": "137097", "name": "Globicephala melas", "sprite": "sp-bottlenose_dolphin.png", "group": "dolphin", "rarity": 1}, {"lat": -33.7, "lng": -73.55, "id": "345267", "name": "Pseudochirella mawsoni", "sprite": "sp-anchoviella_juruasanga.png", "group": "other", "rarity": 1}, {"lat": -33.52, "lng": -74.72, "id": "100790", "name": "Epizoanthus", "sprite": "sp-actiniidae.png", "group": "coral", "rarity": 1}, {"lat": -32.962, "lng": -75.032, "id": "883", "name": "Polychaeta", "sprite": "sp-anchoviella_juruasanga.png", "group": "other", "rarity": 1}, {"lat": -33.05, "lng": -74.1667, "id": "127533", "name": "Conchoecia", "sprite": "sp-anchoviella_juruasanga.png", "group": "other", "rarity": 1}, {"lat": -33.025, "lng": -73.804, "id": "126291", "name": "Narrownecked oceanic eel", "thumb": "tn_Deser_u1.gif", "sprite": "sp-electric_eel.png", "group": "eel", "rarity": 1, "waterType": "Saltwater"}, {"lat": -33.05, "lng": -74.167, "id": "176554", "name": "Obtusoecia antarctica", "sprite": "sp-anchoviella_juruasanga.png", "group": "other", "rarity": 1}, {"lat": -32.935, "lng": -73.59, "id": "235955", "name": "Gephyrocapsa oceanica", "sprite": "sp-anchoviella_juruasanga.png", "group": "other", "rarity": 1}, {"lat": -33.01, "lng": -75.0817, "id": "103357", "name": "Appendicularia", "sprite": "sp-anchoviella_juruasanga.png", "group": "other", "rarity": 1}, {"lat": -33.0958, "lng": -74.4292, "id": "127831", "name": "Orthoconchoecia haddoni", "sprite": "sp-anchoviella_juruasanga.png", "group": "other", "rarity": 1}, {"lat": -32.4533, "lng": -75.7417, "id": "110707", "name": "Thysanoessa gregaria", "sprite": "sp-antarctic_krill.png", "group": "shrimp", "rarity": 1}]}