{"zoom": 7, "x": 38, "y": 73, "points": [{"lat": -25.975, "lng": -70.8764, "id": "125795", "name": "Cryptopsaras", "sprite": "sp-deep_sea_anglerfish.png", "group": "anglerfish", "rarity": 1}, {"lat": -25.06, "lng": -70.66, "id": "116116", "name": "Microsetella rosea", "sprite": "sp-anchoviella_juruasanga.png", "group": "other", "rarity": 1}, {"lat": -26.008, "lng": -70.783, "id": "272316", "name": "Loosescale grenadier", "thumb": "tn_Coang_u1.gif", "sprite": "sp-anchoviella_juruasanga.png", "group": "other", "rarity": 1, "waterType": "Saltwater"}, {"lat": -25.72, "lng": -71.12, "id": "106674", "name": "Caridea", "sprite": "sp-american_lobster.png", "group": "crab_lobster", "rarity": 1}, {"lat": -25.4049, "lng": -70.4853, "id": "131436", "name": "Syllis hyalina", "sprite": "sp-anchoviella_juruasanga.png", "group": "other", "rarity": 1}, {"lat": -27.0088, "lng": -71.225, "id": "236596", "name": "Paraphronima crassipes", "sprite": "sp-american_lobster.png", "group": "crab_lobster", "rarity": 1}, {"lat": -25.9998, "lng": -70.9139, "id": "113452", "name": "Globorotalia scitula", "sprite": "sp-anchoviella_juruasanga.png", "group": "other", "rarity": 1}, {"lat": -25.4, "lng": -70.483, "id": "446840", "name": "Austrolittorina araucana", "sprite": "sp-cowrie_shell.png", "group": "sea_snail", "rarity": 1}, {"lat": -27.0, "lng": -71.104, "id": "510209", "name": "Lestrigonus shoemakeri", "sprite": "sp-american_lobster.png", "group": "crab_lobster", "rarity": 1}, {"lat": -25.06, "lng": -70.66, "id": "358326", "name": "Ditrichocorycaeus amazonicus", "sprite": "sp-anchoviella_juruasanga.png", "group": "other", "rarity": 1}, {"lat": -25.06, "lng": -70.66, "id": "345943", "name": "Acartia (Acanthacartia) tonsa", "sprite": "sp-anchoviella_juruasanga.png", "group": "other", "rarity": 1}, {"lat": -27.0, "lng": -71.21, "id": "236590", "name": "Rhabdosoma brevicaudatum", "sprite": "sp-american_lobster.png", "group": "crab_lobster", "rarity": 1}, {"lat": -25.433, "lng": -70.55, "id": "257061", "name": "Ischyromene tuberculata", "sprite": "sp-american_lobster.png", "group": "crab_lobster", "rarity": 1}, {"lat": -25.9998, "lng": -70.8403, "id": "113453", "name": "Globorotalia truncatulinoides", "sprite": "sp-anchoviella_juruasanga.png", "group": "other", "rarity": 1}, {"lat": -27.01, "lng": -71.8933, "id": "421629", "name": "Paratyphis promontori", "sprite": "sp-american_lobster.png", "group": "crab_lobster", "rarity": 1}, {"lat": -27.0, "lng": -71.03, "id": "103241", "name": "Brachyscelus crusculum", "sprite": "sp-american_lobster.png", "group": "crab_lobster", "rarity": 1}, {"lat": -27.0057, "lng": -71.46, "id": "550626", "name": "Parapronoe elongata", "sprite": "sp-american_lobster.png", "group": "crab_lobster", "rarity": 1}, {"lat": -24.6667, "lng": -70.87, "id": "110692", "name": "Nematobrachion flexipes", "sprite": "sp-antarctic_krill.png", "group": "shrimp", "rarity": 1}, {"lat": -27.0064, "lng": -71.5936, "id": "458663", "name": "Tryphana malmii", "sprite": "sp-american_lobster.png", "group": "crab_lobster", "rarity": 1}, {"lat": -24.6667, "lng": -70.863, "id": "110706", "name": "Stylocheiron suhmii", "sprite": "sp-antarctic_krill.png", "group": "shrimp", "rarity": 1}, {"lat": -26.3567, "lng": -70.6422, "id": "282673", "name": "Scartichthys crapulatus", "sprite": "sp-helcogramma_ascensionis.png", "group": "blenny", "rarity": 1, "waterType": "Saltwater"}, {"lat": -24.6667, "lng": -70.7617, "id": "221048", "name": "Euphausia similis", "sprite": "sp-antarctic_krill.png", "group": "shrimp", "rarity": 1}, {"lat": -27.0, "lng": -71.21, "id": "421617", "name": "Pronoe capito", "sprite": "sp-american_lobster.png", "group": "crab_lobster", "rarity": 1}, {"lat": -25.975, "lng": -70.8764, "id": "127282", "name": "Benttooth bristlemouth", "thumb": "tn_Cyacc_u0.jpg", "sprite": "sp-anchoviella_juruasanga.png", "group": "other", "rarity": 1, "waterType": "Saltwater"}, {"lat": -25.378, "lng": -70.451, "id": "332007", "name": "Sphaerosyllis dubiosa", "sprite": "sp-anchoviella_juruasanga.png", "group": "other", "rarity": 1}, {"lat": -24.6668, "lng": -70.9178, "id": "1649781", "name": "Hansarsia", "sprite": "sp-antarctic_krill.png", "group": "shrimp", "rarity": 1}, {"lat": -25.06, "lng": -70.66, "id": "344719", "name": "Oncaea curvata", "sprite": "sp-anchoviella_juruasanga.png", "group": "other", "rarity": 1}, {"lat": -25.9997, "lng": -70.8628, "id": "113458", "name": "Neogloboquadrina pachyderma", "sprite": "sp-anchoviella_juruasanga.png", "group": "other", "rarity": 1}, {"lat": -27.0079, "lng": -71.42, "id": "236632", "name": "Vibilia armata", "sprite": "sp-american_lobster.png", "group": "crab_lobster", "rarity": 1}, {"lat": -27.0, "lng": -71.21, "id": "236605", "name": "Schizoscelus ornatus", "sprite": "sp-american_lobster.png", "group": "crab_lobster", "rarity": 1}, {"lat": -25.72, "lng": -71.12, "id": "101", "name": "Gastropoda", "sprite": "sp-cowrie_shell.png", "group": "sea_snail", "rarity": 1}, {"lat": -27.0017, "lng": -71.065, "id": "421608", "name": "Hyperietta stephenseni", "sprite": "sp-american_lobster.png", "group": "crab_lobster", "rarity": 1}, {"lat": -27.0075, "lng": -71.265, "id": "220733", "name": "Rhabdosoma whitei", "sprite": "sp-american_lobster.png", "group": "crab_lobster", "rarity": 1}, {"lat": -25.06, "lng": -70.66, "id": "104275", "name": "Aetideus armatus", "sprite": "sp-anchoviella_juruasanga.png", "group": "other", "rarity": 1}, {"lat": -27.0088, "lng": -71.6487, "id": "236609", "name": "Phronima stebbingi", "sprite": "sp-american_lobster.png", "group": "crab_lobster", "rarity": 1}, {"lat": -25.975, "lng": -70.8764, "id": "125823", "name": "Hygophum", "sprite": "sp-anchoviella_juruasanga.png", "group": "other", "rarity": 1}, {"lat": -24.6668, "lng": -70.99, "id": "110688", "name": "Euphausia mutica", "sprite": "sp-antarctic_krill.png", "group": "shrimp", "rarity": 1}, {"lat": -24.6667, "lng": -70.9373, "id": "110678", "name": "Stylocheiron", "sprite": "sp-antarctic_krill.png", "group": "shrimp", "rarity": 1}, {"lat": -25.06, "lng": -70.66, "id": "110690", "name": "Meganyctiphanes norvegica", "sprite": "sp-antarctic_krill.png", "group": "shrimp", "rarity": 1}, {"lat": -25.06, "lng": -70.66, "id": "119818", "name": "Mormonilla phasma", "sprite": "sp-anchoviella_juruasanga.png", "group": "other", "rarity": 1}, {"lat": -25.06, "lng": -70.66, "id": "104476", "name": "Candacia curta", "sprite": "sp-anchoviella_juruasanga.png", "group": "other", "rarity": 1}, {"lat": -25.06, "lng": -70.66, "id": "106656", "name": "Oithona similis", "sprite": "sp-anchoviella_juruasanga.png", "group": "other", "rarity": 1}, {"lat": -25.9998, "lng": -70.8838, "id": "113474", "name": "Neogloboquadrina incompta", "sprite": "sp-anchoviella_juruasanga.png", "group": "other", "rarity": 1}, {"lat": -25.0, "lng": -70.667, "id": "1381349", "name": "Ergasilida", "sprite": "sp-anchoviella_juruasanga.png", "group": "other", "rarity": 1}, {"lat": -25.9999, "lng": -70.9506, "id": "1455327", "name": "Globorotalia (Truncorotalia) crassaformis", "sprite": "sp-anchoviella_juruasanga.png", "group": "other", "rarity": 1}, {"lat": -25.1611, "lng": -70.7556, "id": "137098", "name": "Grampus griseus", "sprite": "sp-bottlenose_dolphin.png", "group": "dolphin", "rarity": 1}, {"lat": -27.0087, "lng": -71.4367, "id": "236628", "name": "Eupronoe minuta", "sprite": "sp-american_lobster.png", "group": "crab_lobster", "rarity": 1}, {"lat": -25.06, "lng": -70.66, "id": "128938", "name": "Oncaea media", "sprite": "sp-anchoviella_juruasanga.png", "group": "other", "rarity": 1}, {"lat": -25.9995, "lng": -70.9015, "id": "580633", "name": "Globorotalia crassaformis subsp. imbricata", "sprite": "sp-anchoviella_juruasanga.png", "group": "other", "rarity": 1}, {"lat": -25.9998, "lng": -70.8838, "id": "235952", "name": "Florisphaera profunda", "sprite": "sp-anchoviella_juruasanga.png", "group": "other", "rarity": 1}, {"lat": -25.72, "lng": -71.12, "id": "13703", "name": "Thecosomata", "sprite": "sp-cowrie_shell.png", "group": "sea_snail", "rarity": 1}, {"lat": -25.72, "lng": -71.12, "id": "1410", "name": "Foraminifera", "sprite": "sp-anchoviella_juruasanga.png", "group": "other", "rarity": 1}, {"lat": -25.9997, "lng": -70.8709, "id": "1567956", "name": "Tenuitellita iota", "sprite": "sp-anchoviella_juruasanga.png", "group": "other", "rarity": 1}, {"lat": -27.0, "lng": -71.075, "id": "236589", "name": "Oxycephalus piscator", "sprite": "sp-american_lobster.png", "group": "crab_lobster", "rarity": 1}, {"lat": -25.9998, "lng": -70.8838, "id": "235857", "name": "Umbilicosphaera", "sprite": "sp-anchoviella_juruasanga.png", "group": "other", "rarity": 1}, {"lat": -25.9998, "lng": -70.8877, "id": "115082", "name": "Pontosphaera", "sprite": "sp-anchoviella_juruasanga.png", "group": "other", "rarity": 1}, {"lat": -25.0, "lng": -72.0, "id": "176562", "name": "Orthoconchoecia striola", "sprite": "sp-anchoviella_juruasanga.png", "group": "other", "rarity": 1}, {"lat": -24.6667, "lng": -70.7158, "id": "110707", "name": "Thysanoessa gregaria", "sprite": "sp-antarctic_krill.png", "group": "shrimp", "rarity": 1}, {"lat": -25.06, "lng": -70.66, "id": "734517", "name": "Oithona setigera setigera", "sprite": "sp-anchoviella_juruasanga.png", "group": "other", "rarity": 1}, {"lat": -25.9998, "lng": -70.8821, "id": "113434", "name": "Globigerina bulloides", "sprite": "sp-anchoviella_juruasanga.png", "group": "other", "rarity": 1}, {"lat": -25.4049, "lng": -70.4853, "id": "1039344", "name": "Erinaceusyllis subterranea", "sprite": "sp-anchoviella_juruasanga.png", "group": "other", "rarity": 1}, {"lat": -25.0, "lng": -70.667, "id": "123529", "name": "Benthodytes", "sprite": "sp-sea_cucumber.png", "group": "starfish", "rarity": 1}, {"lat": -27.0017, "lng": -71.065, "id": "421611", "name": "Themistella fusca", "sprite": "sp-american_lobster.png", "group": "crab_lobster", "rarity": 1}, {"lat": -25.9575, "lng": -70.8661, "id": "125825", "name": "Lampanyctus", "sprite": "sp-anchoviella_juruasanga.png", "group": "other", "rarity": 1}, {"lat": -25.975, "lng": -70.8764, "id": "125650", "name": "Serrivomer", "sprite": "sp-electric_eel.png", "group": "eel", "rarity": 1}, {"lat": -26.1722, "lng": -70.65, "id": "290764", "name": "Phymanthea pluvia", "sprite": "sp-actiniidae.png", "group": "coral", "rarity": 1}, {"lat": -25.3833, "lng": -70.5167, "id": "845781", "name": "Halecium humeriformis", "sprite": "sp-anchoviella_juruasanga.png", "group": "other", "rarity": 1}, {"lat": -25.5125, "lng": -70.8833, "id": "126392", "name": "Atlantic saury", "thumb": "tn_Scsau_u1.jpg", "sprite": "sp-anchoviella_juruasanga.png", "group": "other", "rarity": 1, "waterType": "Saltwater"}, {"lat": -27.0033, "lng": -71.6167, "id": "510207", "name": "Hyperioides sibaginis", "sprite": "sp-american_lobster.png", "group": "crab_lobster", "rarity": 1}, {"lat": -25.9998, "lng": -70.9035, "id": "235937", "name": "Umbellosphaera", "sprite": "sp-anchoviella_juruasanga.png", "group": "other", "rarity": 1}, {"lat": -24.6667, "lng": -70.7531, "id": "110701", "name": "Stylocheiron carinatum", "sprite": "sp-antarctic_krill.png", "group": "shrimp", "rarity": 1}, {"lat": -25.9997, "lng": -70.8709, "id": "906779", "name": "Globorotalia inflata", "sprite": "sp-anchoviella_juruasanga.png", "group": "other", "rarity": 1}, {"lat": -25.9997, "lng": -70.8709, "id": "113454", "name": "Globoturborotalita rubescens", "sprite": "sp-anchoviella_juruasanga.png", "group": "other", "rarity": 1}, {"lat": -25.7164, "lng": -71.1182, "id": "1078", "name": "Ostracoda", "sprite": "sp-anchoviella_juruasanga.png", "group": "other", "rarity": 1}, {"lat": -25.9997, "lng": -70.8709, "id": "1026410", "name": "Globoconella inflata", "sprite": "sp-anchoviella_juruasanga.png", "group": "other", "rarity": 1}, {"lat": -24.6667, "lng": -70.8137, "id": "1649789", "name": "Hansarsia megalops", "sprite": "sp-antarctic_krill.png", "group": "shrimp", "rarity": 1}, {"lat": -25.4049, "lng": -70.4853, "id": "1039360", "name": "Syllis luteoides", "sprite": "sp-anchoviella_juruasanga.png", "group": "other", "rarity": 1}, {"lat": -25.9998, "lng": -70.8967, "id": "221331", "name": "Pulleniatina obliquiloculata", "sprite": "sp-anchoviella_juruasanga.png", "group": "other", "rarity": 1}, {"lat": -26.0024, "lng": -70.9327, "id": "113473", "name": "Neogloboquadrina dutertrei", "sprite": "sp-anchoviella_juruasanga.png", "group": "other", "rarity": 1}, {"lat": -24.6667, "lng": -70.8343, "id": "237853", "name": "Euphausia eximia", "sprite": "sp-antarctic_krill.png", "group": "shrimp", "rarity": 1}, {"lat": -25.7567, "lng": -72.4383, "id": "126678", "name": "Pudgy cuskeel", "thumb": "tn_Spgra_u3.gif", "sprite": "sp-anchoviella_juruasanga.png", "group": "other", "rarity": 1, "waterType": "Saltwater"}, {"lat": -25.425, "lng": -70.7165, "id": "158765", "name": "Monomitopus agassizii", "thumb": "tn_Moaga_u0.jpg", "sprite": "sp-anchoviella_juruasanga.png", "group": "other", "rarity": 1, "waterType": "Saltwater"}, {"lat": -27.0033, "lng": -71.1683, "id": "158323", "name": "Lycaea pulex", "sprite": "sp-american_lobster.png", "group": "crab_lobster", "rarity": 1}, {"lat": -25.9711, "lng": -70.8797, "id": "234519", "name": "Liparidae", "sprite": "sp-anchoviella_juruasanga.png", "group": "other", "rarity": 1}, {"lat": -25.0, "lng": -70.6667, "id": "1637701", "name": "Columbarium tomicici", "sprite": "sp-cowrie_shell.png", "group": "sea_snail", "rarity": 1}, {"lat": -25.9998, "lng": -70.9035, "id": "1026605", "name": "Globorotaloides hexagonus", "sprite": "sp-anchoviella_juruasanga.png", "group": "other", "rarity": 1}, {"lat": -25.06, "lng": -70.66, "id": "104469", "name": "Nannocalanus minor", "sprite": "sp-anchoviella_juruasanga.png", "group": "other", "rarity": 1}, {"lat": -26.7333, "lng": -71.1167, "id": "827205", "name": "Caulophacus (Caulophacus) chilensis", "sprite": "sp-barrel_sponge.png", "group": "sponge", "rarity": 1}, {"lat": -25.72, "lng": -71.12, "id": "883", "name": "Polychaeta", "sprite": "sp-anchoviella_juruasanga.png", "group": "other", "rarity": 1}, {"lat": -27.02, "lng": -71.77, "id": "491886", "name": "Iulopis mirabilis", "sprite": "sp-american_lobster.png", "group": "crab_lobster", "rarity": 1}, {"lat": -27.0, "lng": -71.22, "id": "549260", "name": "Phronima dunbari", "sprite": "sp-american_lobster.png", "group": "crab_lobster", "rarity": 1}, {"lat": -27.005, "lng": -71.045, "id": "421626", "name": "Amphithyrus muratus", "sprite": "sp-american_lobster.png", "group": "crab_lobster", "rarity": 1}, {"lat": -24.667, "lng": -71.3117, "id": "221056", "name": "Euphausia diomedeae", "sprite": "sp-antarctic_krill.png", "group": "shrimp", "rarity": 1}, {"lat": -26.3738, "lng": -71.2546, "id": "225760", "name": "Thalassarche chrysostoma", "sprite": "sp-anchoviella_juruasanga.png", "group": "other", "rarity": 1}, {"lat": -25.717, "lng": -71.117, "id": "134640", "name": "Pantopipetta longituberculata", "sprite": "sp-anchoviella_juruasanga.png", "group": "other", "rarity": 1}, {"lat": -27.0133, "lng": -71.78, "id": "421602", "name": "Vibilia chuni", "sprite": "sp-american_lobster.png", "group": "crab_lobster", "rarity": 1}, {"lat": -27.01, "lng": -70.87, "id": "550624", "name": "Parapronoe campbelli", "sprite": "sp-american_lobster.png", "group": "crab_lobster", "rarity": 1}, {"lat": -27.0, "lng": -71.21, "id": "236552", "name": "Brachyscelus globiceps", "sprite": "sp-american_lobster.png", "group": "crab_lobster", "rarity": 1}, {"lat": -25.06, "lng": -70.66, "id": "1461626", "name": "Clausocalanus arcuicornis arcuicornis", "sprite": "sp-anchoviella_juruasanga.png", "group": "other", "rarity": 1}, {"lat": -25.9995, "lng": -70.9015, "id": "626382", "name": "Rhabdolithes claviger", "sprite": "sp-anchoviella_juruasanga.png", "group": "other", "rarity": 1}, {"lat": -24.667, "lng": -71.3117, "id": "110684", "name": "Euphausia gibboides", "sprite": "sp-antarctic_krill.png", "group": "shrimp", "rarity": 1}, {"lat": -27.01, "lng": -71.49, "id": "549259", "name": "Phronima bucephala", "sprite": "sp-american_lobster.png", "group": "crab_lobster", "rarity": 1}, {"lat": -27.01, "lng": -71.495, "id": "103272", "name": "Phronima sedentaria", "sprite": "sp-american_lobster.png", "group": "crab_lobster", "rarity": 1}, {"lat": -25.975, "lng": -70.8764, "id": "125820", "name": "Diogenichthys", "sprite": "sp-anchoviella_juruasanga.png", "group": "other", "rarity": 1}, {"lat": -27.02, "lng": -71.77, "id": "236608", "name": "Phronima pacifica", "sprite": "sp-american_lobster.png", "group": "crab_lobster", "rarity": 1}, {"lat": -25.0, "lng": -70.667, "id": "241954", "name": "Pannychia moseleyi", "sprite": "sp-sea_cucumber.png", "group": "starfish", "rarity": 1}, {"lat": -27.0057, "lng": -71.4186, "id": "236602", "name": "Parascelus edwardsi", "sprite": "sp-american_lobster.png", "group": "crab_lobster", "rarity": 1}, {"lat": -25.72, "lng": -71.12, "id": "137215", "name": "Doliolidae", "sprite": "sp-anchoviella_juruasanga.png", "group": "other", "rarity": 1}, {"lat": -27.0078, "lng": -71.2256, "id": "236630", "name": "Parapronoe parva", "sprite": "sp-american_lobster.png", "group": "crab_lobster", "rarity": 1}, {"lat": -25.72, "lng": -71.12, "id": "2", "name": "Animalia", "sprite": "sp-anchoviella_juruasanga.png", "group": "other", "rarity": 1}, {"lat": -24.9965, "lng": -71.2826, "id": "137092", "name": "Megaptera novaeangliae", "sprite": "sp-blue_whale.png", "group": "whale", "rarity": 1}, {"lat": -27.0, "lng": -71.21, "id": "236568", "name": "Lestrigonus bengalensis", "sprite": "sp-american_lobster.png", "group": "crab_lobster", "rarity": 1}, {"lat": -25.06, "lng": -70.66, "id": "128957", "name": "Triconia conifera", "sprite": "sp-anchoviella_juruasanga.png", "group": "other", "rarity": 1}, {"lat": -27.005, "lng": -71.045, "id": "236597", "name": "Paraphronima gracilis", "sprite": "sp-american_lobster.png", "group": "crab_lobster", "rarity": 1}, {"lat": -26.1833, "lng": -70.65, "id": "283318", "name": "Anemonia alicemartinae", "sprite": "sp-actiniidae.png", "group": "coral", "rarity": 1}, {"lat": -25.9999, "lng": -70.9506, "id": "178600", "name": "Coccolithus pelagicus", "sprite": "sp-anchoviella_juruasanga.png", "group": "other", "rarity": 1}, {"lat": -26.5, "lng": -70.75, "id": "269217", "name": "Girella", "sprite": "sp-anchoviella_juruasanga.png", "group": "other", "rarity": 1}, {"lat": -25.06, "lng": -70.66, "id": "104643", "name": "Pleuromamma xiphias", "sprite": "sp-anchoviella_juruasanga.png", "group": "other", "rarity": 1}, {"lat": -25.1406, "lng": -70.4617, "id": "1255484", "name": "Ensigeropus cachinalito", "sprite": "sp-american_lobster.png", "group": "crab_lobster", "rarity": 1}, {"lat": -25.06, "lng": -70.66, "id": "128797", "name": "Agetus typicus", "sprite": "sp-anchoviella_juruasanga.png", "group": "other", "rarity": 1}]}