{"zoom": 7, "x": 39, "y": 46, "points": [{"lat": 43.7921, "lng": -69.4856, "id": "110303", "name": "Prorocentrum micans", "sprite": "sp-anchoviella_juruasanga.png", "group": "other", "rarity": 1}, {"lat": 43.4527, "lng": -69.4333, "id": "158496", "name": "Leptasterias tenera", "sprite": "sp-sea_cucumber.png", "group": "starfish", "rarity": 1}, {"lat": 43.6268, "lng": -68.7681, "id": "11676", "name": "Pisces", "sprite": "sp-anchoviella_juruasanga.png", "group": "other", "rarity": 1}, {"lat": 43.2742, "lng": -69.3854, "id": "137065", "name": "Puffinus", "sprite": "sp-anchoviella_juruasanga.png", "group": "other", "rarity": 1}, {"lat": 44.4714, "lng": -69.1254, "id": "158707", "name": "White sucker", "thumb": "tn_Cacom_u7.jpg", "sprite": "sp-anchoviella_juruasanga.png", "group": "other", "rarity": 1, "waterType": "Brackish"}, {"lat": 43.7148, "lng": -68.4723, "id": "150534", "name": "Antalis entalis", "sprite": "sp-anchoviella_juruasanga.png", "group": "other", "rarity": 1}, {"lat": 43.7707, "lng": -69.4184, "id": "120113", "name": "Mysis mixta", "sprite": "sp-american_lobster.png", "group": "crab_lobster", "rarity": 1}, {"lat": 43.6009, "lng": -69.0667, "id": "107323", "name": "Hyas coarctatus", "sprite": "sp-american_lobster.png", "group": "crab_lobster", "rarity": 1}, {"lat": 44.2673, "lng": -68.7465, "id": "129984", "name": "Cossura longocirrata", "sprite": "sp-anchoviella_juruasanga.png", "group": "other", "rarity": 1}, {"lat": 44.3665, "lng": -68.223, "id": "157258", "name": "Dictyocha", "sprite": "sp-anchoviella_juruasanga.png", "group": "other", "rarity": 1}, {"lat": 44.0356, "lng": -69.2284, "id": "141", "name": "Calyptraeidae", "sprite": "sp-cowrie_shell.png", "group": "sea_snail", "rarity": 1}, {"lat": 43.9124, "lng": -68.8835, "id": "145", "name": "Naticidae", "sprite": "sp-cowrie_shell.png", "group": "sea_snail", "rarity": 1}, {"lat": 43.9728, "lng": -69.0578, "id": "137054", "name": "Phalacrocorax", "sprite": "sp-anchoviella_juruasanga.png", "group": "other", "rarity": 1}, {"lat": 43.4755, "lng": -68.5351, "id": "127405", "name": "Ocean sunfish", "thumb": "tn_Momol_ug.jpg", "sprite": "sp-ocean_sunfish_mola_mola.png", "group": "sunfish", "rarity": 1, "waterType": "Saltwater"}, {"lat": 43.4042, "lng": -69.1067, "id": "137194", "name": "Calonectris diomedea", "sprite": "sp-anchoviella_juruasanga.png", "group": "other", "rarity": 1}, {"lat": 44.261, "lng": -68.45, "id": "182702", "name": "Trombidiformes", "sprite": "sp-anchoviella_juruasanga.png", "group": "other", "rarity": 1}, {"lat": 43.8603, "lng": -69.7964, "id": "129425", "name": "Scoloplos", "sprite": "sp-anchoviella_juruasanga.png", "group": "other", "rarity": 1}, {"lat": 43.6581, "lng": -70.2092, "id": "158403", "name": "Pagurus longicarpus", "sprite": "sp-american_lobster.png", "group": "crab_lobster", "rarity": 1}, {"lat": 44.1269, "lng": -68.6032, "id": "137074", "name": "Somateria mollissima", "sprite": "sp-anchoviella_juruasanga.png", "group": "other", "rarity": 1}, {"lat": 43.5776, "lng": -69.8068, "id": "137056", "name": "Podiceps", "sprite": "sp-anchoviella_juruasanga.png", "group": "other", "rarity": 1}, {"lat": 43.7918, "lng": -69.7885, "id": "119039", "name": "Idotea balthica", "sprite": "sp-american_lobster.png", "group": "crab_lobster", "rarity": 1}, {"lat": 44.3063, "lng": -68.2561, "id": "470955", "name": "Tubulipora lobulata", "sprite": "sp-anchoviella_juruasanga.png", "group": "other", "rarity": 1}, {"lat": 44.4142, "lng": -68.1856, "id": "156447", "name": "Tachyrhynchus reticulatus", "sprite": "sp-cowrie_shell.png", "group": "sea_snail", "rarity": 1}, {"lat": 44.0999, "lng": -68.6048, "id": "159076", "name": "Larus philadelphia", "sprite": "sp-anchoviella_juruasanga.png", "group": "other", "rarity": 1}, {"lat": 43.7575, "lng": -70.0165, "id": "119822", "name": "Mysidae", "sprite": "sp-american_lobster.png", "group": "crab_lobster", "rarity": 1}, {"lat": 44.4644, "lng": -68.7117, "id": "181578", "name": "Ferrissia", "sprite": "sp-cowrie_shell.png", "group": "sea_snail", "rarity": 1}, {"lat": 43.7563, "lng": -69.3426, "id": "103902", "name": "Polycarpa fibrosa", "sprite": "sp-anchoviella_juruasanga.png", "group": "other", "rarity": 1}, {"lat": 43.4922, "lng": -69.6874, "id": "137142", "name": "Larus fuscus", "sprite": "sp-anchoviella_juruasanga.png", "group": "other", "rarity": 1}, {"lat": 44.0171, "lng": -69.2584, "id": "130613", "name": "Eteone flava", "sprite": "sp-anchoviella_juruasanga.png", "group": "other", "rarity": 1}, {"lat": 44.17, "lng": -68.36, "id": "101389", "name": "Ischyroceridae", "sprite": "sp-american_lobster.png", "group": "crab_lobster", "rarity": 1}, {"lat": 43.233, "lng": -67.983, "id": "158097", "name": "Haploops fundiensis", "sprite": "sp-american_lobster.png", "group": "crab_lobster", "rarity": 1}, {"lat": 44.333, "lng": -68.3, "id": "512667", "name": "Arachnoides", "sprite": "sp-sea_cucumber.png", "group": "starfish", "rarity": 1}, {"lat": 43.674, "lng": -70.25, "id": "131543", "name": "Thelepus cincinnatus", "sprite": "sp-anchoviella_juruasanga.png", "group": "other", "rarity": 1}, {"lat": 43.8736, "lng": -68.72, "id": "123117", "name": "Ophiurida", "sprite": "sp-sea_cucumber.png", "group": "starfish", "rarity": 1}, {"lat": 43.633, "lng": -70.05, "id": "740701", "name": "Obelia pyriformis", "sprite": "sp-anchoviella_juruasanga.png", "group": "other", "rarity": 1}, {"lat": 43.706, "lng": -70.1743, "id": "157411", "name": "Pione vastifica", "sprite": "sp-barrel_sponge.png", "group": "sponge", "rarity": 1}, {"lat": 44.3871, "lng": -68.6873, "id": "125899", "name": "Osmerus", "sprite": "sp-anchoviella_juruasanga.png", "group": "other", "rarity": 1}, {"lat": 43.936, "lng": -69.178, "id": "129625", "name": "Spio", "sprite": "sp-anchoviella_juruasanga.png", "group": "other", "rarity": 1}, {"lat": 43.611, "lng": -68.6667, "id": "101634", "name": "Orchomenella", "sprite": "sp-american_lobster.png", "group": "crab_lobster", "rarity": 1}, {"lat": 43.183, "lng": -68.25, "id": "110828", "name": "Pseudoflustra", "sprite": "sp-anchoviella_juruasanga.png", "group": "other", "rarity": 1}, {"lat": 43.8729, "lng": -68.8611, "id": "156134", "name": "Homarus americanus", "sprite": "sp-american_lobster.png", "group": "crab_lobster", "rarity": 1}, {"lat": 43.8, "lng": -69.5, "id": "158093", "name": "Gammarus lawrencianus", "sprite": "sp-american_lobster.png", "group": "crab_lobster", "rarity": 1}, {"lat": 43.6604, "lng": -69.0786, "id": "1839", "name": "Ascidiacea", "sprite": "sp-anchoviella_juruasanga.png", "group": "other", "rarity": 1}, {"lat": 43.8419, "lng": -69.6377, "id": "143807", "name": "Bangia", "sprite": "sp-anchoviella_juruasanga.png", "group": "other", "rarity": 1}, {"lat": 44.0071, "lng": -69.4527, "id": "130331", "name": "Rhodine loveni", "sprite": "sp-anchoviella_juruasanga.png", "group": "other", "rarity": 1}, {"lat": 43.5863, "lng": -68.7256, "id": "140596", "name": "Bathypolypus arcticus", "sprite": "sp-giant_pacific_octopus.png", "group": "octopus_squid", "rarity": 1}, {"lat": 43.8093, "lng": -68.692, "id": "107521", "name": "Lebbeus polaris", "sprite": "sp-american_lobster.png", "group": "crab_lobster", "rarity": 1}, {"lat": 43.9702, "lng": -68.5601, "id": "127138", "name": "Atlantic halibut", "thumb": "tn_Hihip_u3.jpg", "sprite": "sp-atlantic_halibut.png", "group": "flatfish", "rarity": 1, "waterType": "Saltwater"}, {"lat": 44.0535, "lng": -69.2002, "id": "106213", "name": "Balanus balanus", "sprite": "sp-anchoviella_juruasanga.png", "group": "other", "rarity": 1}, {"lat": 43.8443, "lng": -69.7399, "id": "107381", "name": "Carcinus maenas", "sprite": "sp-american_lobster.png", "group": "crab_lobster", "rarity": 1}, {"lat": 43.9075, "lng": -69.4478, "id": "111397", "name": "Celleporella hyalina", "sprite": "sp-anchoviella_juruasanga.png", "group": "other", "rarity": 1}, {"lat": 43.7448, "lng": -68.9197, "id": "169587", "name": "Tedania (Tedania) suctoria", "sprite": "sp-barrel_sponge.png", "group": "sponge", "rarity": 1}, {"lat": 44.8778, "lng": -67.72, "id": "136235", "name": "Leptochelia", "sprite": "sp-american_lobster.png", "group": "crab_lobster", "rarity": 1}, {"lat": 43.8844, "lng": -68.9808, "id": "506189", "name": "Solamen glandula", "sprite": "sp-blue_mussel.png", "group": "clam_mussel", "rarity": 1}, {"lat": 43.739, "lng": -67.6681, "id": "131673", "name": "Polymastiidae", "sprite": "sp-barrel_sponge.png", "group": "sponge", "rarity": 1}, {"lat": 43.8166, "lng": -69.8429, "id": "251739", "name": "Aplidium stellatum", "sprite": "sp-anchoviella_juruasanga.png", "group": "other", "rarity": 1}, {"lat": 43.8572, "lng": -68.8966, "id": "111230", "name": "Caberea ellisii", "sprite": "sp-anchoviella_juruasanga.png", "group": "other", "rarity": 1}, {"lat": 44.0268, "lng": -69.0987, "id": "421066", "name": "Scoletoma verrilli", "sprite": "sp-anchoviella_juruasanga.png", "group": "other", "rarity": 1}, {"lat": 44.0, "lng": -68.0, "id": "106115", "name": "Scalpellum", "sprite": "sp-anchoviella_juruasanga.png", "group": "other", "rarity": 1}, {"lat": 43.6496, "lng": -70.2309, "id": "142210", "name": "Microstomum", "sprite": "sp-anchoviella_juruasanga.png", "group": "other", "rarity": 1}, {"lat": 43.8235, "lng": -68.9083, "id": "138439", "name": "Alvania", "sprite": "sp-cowrie_shell.png", "group": "sea_snail", "rarity": 1}, {"lat": 43.4762, "lng": -67.7064, "id": "125311", "name": "Paramuricea", "sprite": "sp-actiniidae.png", "group": "coral", "rarity": 1}, {"lat": 43.9017, "lng": -67.9106, "id": "159382", "name": "Ardea herodias", "sprite": "sp-anchoviella_juruasanga.png", "group": "other", "rarity": 1}, {"lat": 43.7898, "lng": -69.9238, "id": "145771", "name": "Palmaria palmata", "sprite": "sp-anchoviella_juruasanga.png", "group": "other", "rarity": 1}, {"lat": 44.0058, "lng": -69.3526, "id": "130603", "name": "Pholoe minuta", "sprite": "sp-anchoviella_juruasanga.png", "group": "other", "rarity": 1}, {"lat": 43.7374, "lng": -69.2727, "id": "117368", "name": "Clytia hemisphaerica", "sprite": "sp-anchoviella_juruasanga.png", "group": "other", "rarity": 1}, {"lat": 43.9681, "lng": -69.6106, "id": "148604", "name": "Apocorophium acutum", "sprite": "sp-american_lobster.png", "group": "crab_lobster", "rarity": 1}, {"lat": 44.1565, "lng": -68.8032, "id": "159098", "name": "Mergus serrator", "sprite": "sp-anchoviella_juruasanga.png", "group": "other", "rarity": 1}, {"lat": 43.878, "lng": -69.8432, "id": "376877", "name": "Saccharina longicruris", "sprite": "sp-anchoviella_juruasanga.png", "group": "other", "rarity": 1}, {"lat": 43.233, "lng": -67.983, "id": "129400", "name": "Hyalinoecia", "sprite": "sp-anchoviella_juruasanga.png", "group": "other", "rarity": 1}, {"lat": 43.6708, "lng": -70.248, "id": "157318", "name": "Polysiphonia flexicaulis", "sprite": "sp-anchoviella_juruasanga.png", "group": "other", "rarity": 1}, {"lat": 44.1741, "lng": -69.0247, "id": "130326", "name": "Praxillella praetermissa", "sprite": "sp-anchoviella_juruasanga.png", "group": "other", "rarity": 1}, {"lat": 43.9106, "lng": -69.9384, "id": "110316", "name": "Prorocentrum triestinum", "sprite": "sp-anchoviella_juruasanga.png", "group": "other", "rarity": 1}, {"lat": 43.65, "lng": -70.183, "id": "181386", "name": "Cranchia scabra", "sprite": "sp-giant_pacific_octopus.png", "group": "octopus_squid", "rarity": 1}, {"lat": 44.3063, "lng": -68.2561, "id": "157402", "name": "Isodictya deichmannae", "sprite": "sp-barrel_sponge.png", "group": "sponge", "rarity": 1}, {"lat": 44.8778, "lng": -67.72, "id": "118388", "name": "Pleurogonium", "sprite": "sp-american_lobster.png", "group": "crab_lobster", "rarity": 1}, {"lat": 43.6941, "lng": -70.0872, "id": "423326", "name": "Deflexilodes tesselatus", "sprite": "sp-american_lobster.png", "group": "crab_lobster", "rarity": 1}, {"lat": 43.367, "lng": -70.3, "id": "103461", "name": "Trididemnum", "sprite": "sp-anchoviella_juruasanga.png", "group": "other", "rarity": 1}, {"lat": 43.706, "lng": -70.106, "id": "117332", "name": "Bougainvillia rugosa", "sprite": "sp-anchoviella_juruasanga.png", "group": "other", "rarity": 1}, {"lat": 43.974, "lng": -69.4177, "id": "156793", "name": "Lyonsia hyalina", "sprite": "sp-blue_mussel.png", "group": "clam_mussel", "rarity": 1}, {"lat": 43.6134, "lng": -68.7132, "id": "123479", "name": "Cucumaria", "sprite": "sp-sea_cucumber.png", "group": "starfish", "rarity": 1}, {"lat": 43.5316, "lng": -68.0789, "id": "104165", "name": "Pseudocalanus", "sprite": "sp-anchoviella_juruasanga.png", "group": "other", "rarity": 1}, {"lat": 43.6444, "lng": -69.4108, "id": "332212", "name": "Trochochaeta pettiboneae", "sprite": "sp-anchoviella_juruasanga.png", "group": "other", "rarity": 1}, {"lat": 43.7791, "lng": -69.2349, "id": "159095", "name": "Melanitta perspicillata", "sprite": "sp-anchoviella_juruasanga.png", "group": "other", "rarity": 1}, {"lat": 43.5262, "lng": -68.7322, "id": "136980", "name": "Delphinidae", "sprite": "sp-bottlenose_dolphin.png", "group": "dolphin", "rarity": 1}, {"lat": 43.8209, "lng": -70.1053, "id": "144302", "name": "Tribonema", "sprite": "sp-anchoviella_juruasanga.png", "group": "other", "rarity": 1}, {"lat": 43.5915, "lng": -68.5085, "id": "101567", "name": "Ericthonius", "sprite": "sp-american_lobster.png", "group": "crab_lobster", "rarity": 1}, {"lat": 44.0223, "lng": -69.169, "id": "931", "name": "Phyllodocidae", "sprite": "sp-anchoviella_juruasanga.png", "group": "other", "rarity": 1}, {"lat": 44.0404, "lng": -69.3546, "id": "141579", "name": "Macoma balthica", "sprite": "sp-blue_mussel.png", "group": "clam_mussel", "rarity": 1}, {"lat": 44.1849, "lng": -68.9626, "id": "130735", "name": "Bylgides sarsi", "sprite": "sp-anchoviella_juruasanga.png", "group": "other", "rarity": 1}, {"lat": 43.5903, "lng": -70.2154, "id": "101817", "name": "Aeginella spinosa", "sprite": "sp-american_lobster.png", "group": "crab_lobster", "rarity": 1}, {"lat": 43.8127, "lng": -69.9283, "id": "834044", "name": "Crisularia turrita", "sprite": "sp-anchoviella_juruasanga.png", "group": "other", "rarity": 1}, {"lat": 43.8186, "lng": -69.6032, "id": "103560", "name": "Didemnum albidum", "sprite": "sp-anchoviella_juruasanga.png", "group": "other", "rarity": 1}, {"lat": 43.8335, "lng": -67.95, "id": "1307", "name": "Insecta", "sprite": "sp-anchoviella_juruasanga.png", "group": "other", "rarity": 1}, {"lat": 43.833, "lng": -68.983, "id": "138474", "name": "Abra", "sprite": "sp-blue_mussel.png", "group": "clam_mussel", "rarity": 1}, {"lat": 43.8752, "lng": -68.9068, "id": "101958", "name": "Haploops tubicola", "sprite": "sp-american_lobster.png", "group": "crab_lobster", "rarity": 1}, {"lat": 43.5739, "lng": -68.3515, "id": "137134", "name": "Uria lomvia", "sprite": "sp-anchoviella_juruasanga.png", "group": "other", "rarity": 1}, {"lat": 43.616, "lng": -68.5881, "id": "125498", "name": "Myctophidae", "sprite": "sp-anchoviella_juruasanga.png", "group": "other", "rarity": 1}, {"lat": 44.0, "lng": -68.25, "id": "101592", "name": "Anonyx", "sprite": "sp-american_lobster.png", "group": "crab_lobster", "rarity": 1}, {"lat": 44.3157, "lng": -68.8728, "id": "125775", "name": "Gasterosteus", "sprite": "sp-anchoviella_juruasanga.png", "group": "other", "rarity": 1}, {"lat": 44.3527, "lng": -68.8475, "id": "118827", "name": "Aega psora", "sprite": "sp-american_lobster.png", "group": "crab_lobster", "rarity": 1}, {"lat": 43.3314, "lng": -69.7762, "id": "1484584", "name": "Spizella passerina", "sprite": "sp-anchoviella_juruasanga.png", "group": "other", "rarity": 1}, {"lat": 43.706, "lng": -70.106, "id": "238180", "name": "Epigamia alexandri", "sprite": "sp-anchoviella_juruasanga.png", "group": "other", "rarity": 1}, {"lat": 44.1048, "lng": -69.1021, "id": "145441", "name": "Hincksia secunda", "sprite": "sp-anchoviella_juruasanga.png", "group": "other", "rarity": 1}, {"lat": 43.8373, "lng": -69.8563, "id": "145075", "name": "Rhizoclonium riparium", "sprite": "sp-anchoviella_juruasanga.png", "group": "other", "rarity": 1}, {"lat": 44.47, "lng": -68.06, "id": "113070", "name": "Stainforthia fusiformis", "sprite": "sp-anchoviella_juruasanga.png", "group": "other", "rarity": 1}, {"lat": 43.9964, "lng": -69.1575, "id": "157503", "name": "Nereis grayi", "sprite": "sp-anchoviella_juruasanga.png", "group": "other", "rarity": 1}, {"lat": 44.3063, "lng": -68.2561, "id": "111496", "name": "Escharella ventricosa", "sprite": "sp-anchoviella_juruasanga.png", "group": "other", "rarity": 1}, {"lat": 43.6671, "lng": -70.1637, "id": "130290", "name": "Euclymene collaris", "sprite": "sp-anchoviella_juruasanga.png", "group": "other", "rarity": 1}, {"lat": 43.0902, "lng": -68.535, "id": "148967", "name": "Biddulphia", "sprite": "sp-anchoviella_juruasanga.png", "group": "other", "rarity": 1}, {"lat": 44.3063, "lng": -68.2561, "id": "111223", "name": "Tegella arctica", "sprite": "sp-anchoviella_juruasanga.png", "group": "other", "rarity": 1}, {"lat": 43.333, "lng": -69.6165, "id": "119856", "name": "Erythrops", "sprite": "sp-american_lobster.png", "group": "crab_lobster", "rarity": 1}, {"lat": 43.6593, "lng": -69.4544, "id": "106854", "name": "Pagurus", "sprite": "sp-american_lobster.png", "group": "crab_lobster", "rarity": 1}, {"lat": 43.7168, "lng": -68.8997, "id": "126503", "name": "Red hake", "thumb": "tn_Urchu_u0.jpg", "sprite": "sp-anchoviella_juruasanga.png", "group": "other", "rarity": 1, "waterType": "Saltwater"}, {"lat": 43.633, "lng": -70.033, "id": "218", "name": "Lucinidae", "sprite": "sp-blue_mussel.png", "group": "clam_mussel", "rarity": 1}, {"lat": 43.5255, "lng": -69.7257, "id": "103713", "name": "Ascidia obliqua", "sprite": "sp-anchoviella_juruasanga.png", "group": "other", "rarity": 1}, {"lat": 43.6643, "lng": -70.203, "id": "234851", "name": "Alitta virens", "sprite": "sp-anchoviella_juruasanga.png", "group": "other", "rarity": 1}, {"lat": 43.8865, "lng": -69.6177, "id": "157817", "name": "Diastylis sculpta", "sprite": "sp-american_lobster.png", "group": "crab_lobster", "rarity": 1}, {"lat": 43.8663, "lng": -69.6579, "id": "325665", "name": "Spirorbis (Spirorbis)", "sprite": "sp-anchoviella_juruasanga.png", "group": "other", "rarity": 1}, {"lat": 43.8014, "lng": -69.1652, "id": "159675", "name": "Wrymouth", "thumb": "tn_Crmac_u2.jpg", "sprite": "sp-anchoviella_juruasanga.png", "group": "other", "rarity": 1, "waterType": "Saltwater"}]}