{"zoom": 7, "x": 39, "y": 67, "points": [{"lat": -11.1539, "lng": -67.5617, "id": "270723", "name": "Rhamdia", "sprite": "sp-blue_catfish.png", "group": "catfish", "rarity": 1}, {"lat": -11.1415, "lng": -67.5591, "id": "281050", "name": "Banded cichlid", "thumb": "tn_Hesev_m0.jpg", "sprite": "sp-coptodon_louka.png", "group": "cichlid", "rarity": 1, "waterType": "Brackish"}, {"lat": -11.1272, "lng": -67.5581, "id": "1023031", "name": "Doras carinatus", "thumb": "tn_Docar_u0.jpg", "sprite": "sp-blue_catfish.png", "group": "catfish", "rarity": 1, "waterType": "Brackish"}, {"lat": -11.1517, "lng": -67.5614, "id": "282920", "name": "Marbled swamp eel", "thumb": "tn_Symar_u3.jpg", "sprite": "sp-anchoviella_juruasanga.png", "group": "other", "rarity": 1, "waterType": "Brackish"}, {"lat": -11.1286, "lng": -67.5578, "id": "268345", "name": "Apistogramma", "sprite": "sp-coptodon_louka.png", "group": "cichlid", "rarity": 1}, {"lat": -10.4, "lng": -69.583, "id": "419565", "name": "Littoraria angulifera", "sprite": "sp-cowrie_shell.png", "group": "sea_snail", "rarity": 1}, {"lat": -11.0175, "lng": -68.5652, "id": "269463", "name": "Hypostomus", "sprite": "sp-blue_catfish.png", "group": "catfish", "rarity": 1}, {"lat": -11.1528, "lng": -67.5616, "id": "268581", "name": "Brachyhypopomus", "sprite": "sp-anchoviella_juruasanga.png", "group": "other", "rarity": 1}, {"lat": -11.1164, "lng": -67.7017, "id": "282263", "name": "Bloch's catfish", "thumb": "tn_Piblo_u1.jpg", "sprite": "sp-blue_catfish.png", "group": "catfish", "rarity": 1, "waterType": "Brackish"}, {"lat": -11.0485, "lng": -68.364, "id": "270412", "name": "Pimelodus", "sprite": "sp-blue_catfish.png", "group": "catfish", "rarity": 1}, {"lat": -11.15, "lng": -67.5603, "id": "269449", "name": "Hyphessobrycon", "sprite": "sp-astyanax.png", "group": "piranha", "rarity": 1}, {"lat": -10.4, "lng": -69.583, "id": "446914", "name": "Littoraria flava", "sprite": "sp-cowrie_shell.png", "group": "sea_snail", "rarity": 1}, {"lat": -11.0333, "lng": -68.75, "id": "270410", "name": "Pimelodella", "sprite": "sp-blue_catfish.png", "group": "catfish", "rarity": 1}]}