{"zoom": 7, "x": 40, "y": 45, "points": [{"lat": 46.7936, "lng": -64.8931, "id": "370562", "name": "Codium fragile subsp. fragile", "sprite": "sp-anchoviella_juruasanga.png", "group": "other", "rarity": 1}, {"lat": 45.2335, "lng": -65.482, "id": "126503", "name": "Red hake", "thumb": "tn_Urchu_u0.jpg", "sprite": "sp-anchoviella_juruasanga.png", "group": "other", "rarity": 1, "waterType": "Saltwater"}, {"lat": 45.1359, "lng": -65.3971, "id": "126758", "name": "Atlantic wolffish", "thumb": "tn_Anlup_u8.jpg", "sprite": "sp-anchoviella_juruasanga.png", "group": "other", "rarity": 1, "waterType": "Saltwater"}, {"lat": 45.4195, "lng": -65.1601, "id": "2", "name": "Animalia", "sprite": "sp-anchoviella_juruasanga.png", "group": "other", "rarity": 1}, {"lat": 45.8275, "lng": -66.4757, "id": "158726", "name": "Lake whitefish", "thumb": "tn_Coclu_u0.jpg", "sprite": "sp-atlantic_salmon.png", "group": "salmon_trout", "rarity": 1, "waterType": "Brackish"}, {"lat": 45.1292, "lng": -66.0042, "id": "137043", "name": "Larus", "sprite": "sp-anchoviella_juruasanga.png", "group": "other", "rarity": 1}, {"lat": 46.7958, "lng": -65.0558, "id": "145935", "name": "Capsosiphon fulvescens", "sprite": "sp-anchoviella_juruasanga.png", "group": "other", "rarity": 1}, {"lat": 45.427, "lng": -65.3702, "id": "123084", "name": "Ophiuroidea", "sprite": "sp-sea_cucumber.png", "group": "starfish", "rarity": 1}, {"lat": 45.1547, "lng": -66.2416, "id": "138262", "name": "Nucula", "sprite": "sp-blue_mussel.png", "group": "clam_mussel", "rarity": 1}, {"lat": 45.1833, "lng": -67.0333, "id": "156323", "name": "Zygonemertes virescens", "sprite": "sp-anchoviella_juruasanga.png", "group": "other", "rarity": 1}, {"lat": 46.5333, "lng": -64.6992, "id": "137169", "name": "Phalaropus lobatus", "sprite": "sp-anchoviella_juruasanga.png", "group": "other", "rarity": 1}, {"lat": 46.8281, "lng": -64.7212, "id": "146420", "name": "Tunicata", "sprite": "sp-anchoviella_juruasanga.png", "group": "other", "rarity": 1}, {"lat": 45.1297, "lng": -65.4314, "id": "124160", "name": "Solaster endeca", "sprite": "sp-sea_cucumber.png", "group": "starfish", "rarity": 1}, {"lat": 45.5176, "lng": -66.0642, "id": "137047", "name": "Sterna", "sprite": "sp-anchoviella_juruasanga.png", "group": "other", "rarity": 1}, {"lat": 45.2048, "lng": -65.8213, "id": "239867", "name": "Pycnogonum litorale", "sprite": "sp-anchoviella_juruasanga.png", "group": "other", "rarity": 1}, {"lat": 45.0939, "lng": -66.9217, "id": "159784", "name": "Tautogolabrus", "sprite": "sp-cleaner_wrasse.png", "group": "wrasse", "rarity": 1}, {"lat": 45.8891, "lng": -66.1833, "id": "158707", "name": "White sucker", "thumb": "tn_Cacom_u7.jpg", "sprite": "sp-anchoviella_juruasanga.png", "group": "other", "rarity": 1, "waterType": "Brackish"}, {"lat": 45.2508, "lng": -66.3269, "id": "131135", "name": "Marenzelleria viridis", "sprite": "sp-anchoviella_juruasanga.png", "group": "other", "rarity": 1}, {"lat": 45.2471, "lng": -65.3411, "id": "146142", "name": "Bryozoa", "sprite": "sp-anchoviella_juruasanga.png", "group": "other", "rarity": 1}, {"lat": 46.6688, "lng": -64.9685, "id": "305774", "name": "American smooth flounder", "sprite": "sp-atlantic_halibut.png", "group": "flatfish", "rarity": 1, "waterType": "Brackish"}, {"lat": 45.7333, "lng": -65.7778, "id": "156908", "name": "Psectrocladius", "sprite": "sp-anchoviella_juruasanga.png", "group": "other", "rarity": 1}, {"lat": 45.2593, "lng": -65.9446, "id": "137138", "name": "Larus argentatus", "sprite": "sp-anchoviella_juruasanga.png", "group": "other", "rarity": 1}, {"lat": 45.3836, "lng": -65.2643, "id": "883", "name": "Polychaeta", "sprite": "sp-anchoviella_juruasanga.png", "group": "other", "rarity": 1}, {"lat": 45.1583, "lng": -67.0958, "id": "127252", "name": "Acadian redfish", "thumb": "tn_Sefas_u0.jpg", "sprite": "sp-anchoviella_juruasanga.png", "group": "other", "rarity": 1, "waterType": "Saltwater"}, {"lat": 45.5833, "lng": -66.1355, "id": "138439", "name": "Alvania", "sprite": "sp-cowrie_shell.png", "group": "sea_snail", "rarity": 1}, {"lat": 46.95, "lng": -66.8667, "id": "159198", "name": "Bucephala islandica", "sprite": "sp-anchoviella_juruasanga.png", "group": "other", "rarity": 1}, {"lat": 45.219, "lng": -65.3159, "id": "105766", "name": "Raja", "sprite": "sp-himantura_australis.png", "group": "ray", "rarity": 1}, {"lat": 45.169, "lng": -66.2397, "id": "129535", "name": "Manayunkia", "sprite": "sp-anchoviella_juruasanga.png", "group": "other", "rarity": 1}, {"lat": 45.3412, "lng": -65.3837, "id": "376877", "name": "Saccharina longicruris", "sprite": "sp-anchoviella_juruasanga.png", "group": "other", "rarity": 1}, {"lat": 45.1655, "lng": -66.4545, "id": "127205", "name": "Moustache sculpin", "thumb": "tn_Trmur_u3.jpg", "sprite": "sp-anchoviella_juruasanga.png", "group": "other", "rarity": 1, "waterType": "Saltwater"}, {"lat": 46.8514, "lng": -64.9181, "id": "880874", "name": "Chondrochelia savignyi", "sprite": "sp-american_lobster.png", "group": "crab_lobster", "rarity": 1}, {"lat": 45.6578, "lng": -65.7695, "id": "2036", "name": "Oligochaeta", "sprite": "sp-anchoviella_juruasanga.png", "group": "other", "rarity": 1}, {"lat": 46.6645, "lng": -65.1126, "id": "140264", "name": "Littorina saxatilis", "sprite": "sp-cowrie_shell.png", "group": "sea_snail", "rarity": 1}, {"lat": 45.1505, "lng": -67.151, "id": "101820", "name": "Aeginina longicornis", "sprite": "sp-american_lobster.png", "group": "crab_lobster", "rarity": 1}, {"lat": 45.1906, "lng": -66.4777, "id": "129710", "name": "Polycirrus", "sprite": "sp-anchoviella_juruasanga.png", "group": "other", "rarity": 1}, {"lat": 45.2618, "lng": -66.3275, "id": "882", "name": "Annelida", "sprite": "sp-anchoviella_juruasanga.png", "group": "other", "rarity": 1}, {"lat": 45.2817, "lng": -65.2788, "id": "144296", "name": "Ulva", "sprite": "sp-anchoviella_juruasanga.png", "group": "other", "rarity": 1}, {"lat": 45.4571, "lng": -65.7676, "id": "105", "name": "Bivalvia", "sprite": "sp-blue_mussel.png", "group": "clam_mussel", "rarity": 1}, {"lat": 45.3988, "lng": -66.0656, "id": "226994", "name": "Mysis stenolepis", "sprite": "sp-american_lobster.png", "group": "crab_lobster", "rarity": 1}, {"lat": 46.0032, "lng": -65.5742, "id": "333453", "name": "Exogone dispar", "sprite": "sp-anchoviella_juruasanga.png", "group": "other", "rarity": 1}, {"lat": 46.8515, "lng": -64.9181, "id": "574096", "name": "Ecrobia truncata", "sprite": "sp-cowrie_shell.png", "group": "sea_snail", "rarity": 1}, {"lat": 45.103, "lng": -66.388, "id": "145654", "name": "Coccotylus truncatus", "sprite": "sp-anchoviella_juruasanga.png", "group": "other", "rarity": 1}, {"lat": 45.1831, "lng": -66.5748, "id": "158156", "name": "Unciola irrorata", "sprite": "sp-american_lobster.png", "group": "crab_lobster", "rarity": 1}, {"lat": 46.0162, "lng": -65.5585, "id": "130355", "name": "Nephtys caeca", "sprite": "sp-anchoviella_juruasanga.png", "group": "other", "rarity": 1}, {"lat": 45.2088, "lng": -65.5115, "id": "129194", "name": "Aphrodita", "sprite": "sp-anchoviella_juruasanga.png", "group": "other", "rarity": 1}, {"lat": 45.2013, "lng": -65.969, "id": "160082", "name": "Turbonilla interrupta", "sprite": "sp-cowrie_shell.png", "group": "sea_snail", "rarity": 1}, {"lat": 45.4595, "lng": -65.9103, "id": "130356", "name": "Nephtys ciliata", "sprite": "sp-anchoviella_juruasanga.png", "group": "other", "rarity": 1}, {"lat": 45.2613, "lng": -66.0556, "id": "157501", "name": "Nephtys picta", "sprite": "sp-anchoviella_juruasanga.png", "group": "other", "rarity": 1}, {"lat": 45.5234, "lng": -66.0199, "id": "137080", "name": "Halichoerus grypus", "sprite": "sp-elephant_seal.png", "group": "seal", "rarity": 1}, {"lat": 46.249, "lng": -65.6721, "id": "137149", "name": "Larus ridibundus", "sprite": "sp-anchoviella_juruasanga.png", "group": "other", "rarity": 1}, {"lat": 45.2087, "lng": -66.1868, "id": "101364", "name": "Ampeliscidae", "sprite": "sp-american_lobster.png", "group": "crab_lobster", "rarity": 1}, {"lat": 45.7167, "lng": -65.5667, "id": "1489693", "name": "Berosus", "sprite": "sp-anchoviella_juruasanga.png", "group": "other", "rarity": 1}, {"lat": 45.1977, "lng": -66.2128, "id": "129876", "name": "Capitella capitata", "sprite": "sp-anchoviella_juruasanga.png", "group": "other", "rarity": 1}, {"lat": 45.15, "lng": -67.15, "id": "129340", "name": "Scoletoma", "sprite": "sp-anchoviella_juruasanga.png", "group": "other", "rarity": 1}, {"lat": 46.9386, "lng": -65.8289, "id": "127182", "name": "Pink salmon", "thumb": "tn_Ongor_f5.jpg", "sprite": "sp-atlantic_salmon.png", "group": "salmon_trout", "rarity": 1, "waterType": "Brackish"}, {"lat": 45.2257, "lng": -65.31, "id": "157670", "name": "Eurytemora herdmani", "sprite": "sp-anchoviella_juruasanga.png", "group": "other", "rarity": 1}, {"lat": 45.2144, "lng": -65.3511, "id": "104159", "name": "Centropages", "sprite": "sp-anchoviella_juruasanga.png", "group": "other", "rarity": 1}, {"lat": 46.8514, "lng": -64.9181, "id": "878476", "name": "Ameritella agilis", "sprite": "sp-blue_mussel.png", "group": "clam_mussel", "rarity": 1}, {"lat": 45.2489, "lng": -65.2923, "id": "1130", "name": "Decapoda", "sprite": "sp-american_lobster.png", "group": "crab_lobster", "rarity": 1}, {"lat": 45.1167, "lng": -65.7333, "id": "107044", "name": "Pandalus", "sprite": "sp-american_lobster.png", "group": "crab_lobster", "rarity": 1}, {"lat": 45.1312, "lng": -67.1028, "id": "410749", "name": "Phascolion (Phascolion) strombus strombus", "sprite": "sp-anchoviella_juruasanga.png", "group": "other", "rarity": 1}, {"lat": 45.1828, "lng": -66.4875, "id": "181343", "name": "Parvicardium pinnulatum", "sprite": "sp-blue_mussel.png", "group": "clam_mussel", "rarity": 1}, {"lat": 45.4361, "lng": -65.6444, "id": "102276", "name": "Gammarus duebeni", "sprite": "sp-american_lobster.png", "group": "crab_lobster", "rarity": 1}, {"lat": 45.17, "lng": -65.55, "id": "334946", "name": "Tomopteris (Johnstonella) helgolandica", "sprite": "sp-anchoviella_juruasanga.png", "group": "other", "rarity": 1}, {"lat": 45.205, "lng": -65.5388, "id": "105923", "name": "Picked dogfish", "thumb": "tn_Sqaca_u6.jpg", "sprite": "sp-great_white_shark.png", "group": "shark", "rarity": 1, "waterType": "Brackish"}, {"lat": 45.1368, "lng": -67.1328, "id": "151324", "name": "Golden redfish", "thumb": "tn_Semar_ub.jpg", "sprite": "sp-anchoviella_juruasanga.png", "group": "other", "rarity": 1, "waterType": "Saltwater"}, {"lat": 46.3509, "lng": -65.5033, "id": "159296", "name": "Banded killifish", "thumb": "tn_Fudia_u1.jpg", "sprite": "sp-anchoviella_juruasanga.png", "group": "other", "rarity": 1, "waterType": "Brackish"}, {"lat": 45.1687, "lng": -65.4243, "id": "140467", "name": "Modiolus modiolus", "sprite": "sp-blue_mussel.png", "group": "clam_mussel", "rarity": 1}, {"lat": 45.217, "lng": -66.1257, "id": "129249", "name": "Tharyx", "sprite": "sp-anchoviella_juruasanga.png", "group": "other", "rarity": 1}, {"lat": 46.96, "lng": -64.83, "id": "156261", "name": "Nemalion multifidum", "sprite": "sp-anchoviella_juruasanga.png", "group": "other", "rarity": 1}, {"lat": 45.2294, "lng": -65.4605, "id": "105763", "name": "Leucoraja", "sprite": "sp-himantura_australis.png", "group": "ray", "rarity": 1}, {"lat": 45.2199, "lng": -65.5831, "id": "127193", "name": "Atlantic hookear sculpin", "thumb": "tn_Aratl_m0.jpg", "sprite": "sp-anchoviella_juruasanga.png", "group": "other", "rarity": 1, "waterType": "Saltwater"}, {"lat": 46.8512, "lng": -64.9182, "id": "156454", "name": "Thracia septentrionalis", "sprite": "sp-blue_mussel.png", "group": "clam_mussel", "rarity": 1}, {"lat": 45.4834, "lng": -66.0, "id": "158706", "name": "Longnose sucker", "thumb": "tn_Cacat_u3.jpg", "sprite": "sp-anchoviella_juruasanga.png", "group": "other", "rarity": 1, "waterType": "Brackish"}, {"lat": 45.1434, "lng": -65.3796, "id": "127104", "name": "Doubleline eelpout", "thumb": "tn_Lyeud_u0.jpg", "sprite": "sp-anchoviella_juruasanga.png", "group": "other", "rarity": 1, "waterType": "Saltwater"}, {"lat": 45.1203, "lng": -67.0142, "id": "232069", "name": "Mesodinium rubrum", "sprite": "sp-anchoviella_juruasanga.png", "group": "other", "rarity": 1}, {"lat": 45.1333, "lng": -67.0667, "id": "151482", "name": "Bluefish", "thumb": "tn_Posal_u9.jpg", "sprite": "sp-anchoviella_juruasanga.png", "group": "other", "rarity": 1, "waterType": "Brackish"}, {"lat": 45.1567, "lng": -66.2525, "id": "157815", "name": "Diastylis polita", "sprite": "sp-american_lobster.png", "group": "crab_lobster", "rarity": 1}, {"lat": 45.1093, "lng": -66.4817, "id": "707691", "name": "Porphyra corallicola", "sprite": "sp-anchoviella_juruasanga.png", "group": "other", "rarity": 1}, {"lat": 45.3204, "lng": -66.0419, "id": "129370", "name": "Nephtys", "sprite": "sp-anchoviella_juruasanga.png", "group": "other", "rarity": 1}, {"lat": 45.1495, "lng": -66.7215, "id": "130113", "name": "Pherusa plumosa", "sprite": "sp-anchoviella_juruasanga.png", "group": "other", "rarity": 1}, {"lat": 45.1374, "lng": -66.0031, "id": "137202", "name": "Puffinus griseus", "sprite": "sp-anchoviella_juruasanga.png", "group": "other", "rarity": 1}, {"lat": 45.182, "lng": -66.3189, "id": "157816", "name": "Diastylis quadrispinosa", "sprite": "sp-american_lobster.png", "group": "crab_lobster", "rarity": 1}, {"lat": 45.15, "lng": -65.3667, "id": "157225", "name": "Autolytus emertoni", "sprite": "sp-anchoviella_juruasanga.png", "group": "other", "rarity": 1}, {"lat": 45.1417, "lng": -65.6625, "id": "159258", "name": "Wolf eelpout", "thumb": "tn_Lyver_u0.jpg", "sprite": "sp-anchoviella_juruasanga.png", "group": "other", "rarity": 1, "waterType": "Saltwater"}, {"lat": 45.1856, "lng": -67.0333, "id": "1436202", "name": "Frigidoalvania carinata", "sprite": "sp-cowrie_shell.png", "group": "sea_snail", "rarity": 1}, {"lat": 45.2223, "lng": -66.8439, "id": "137091", "name": "Balaenoptera physalus", "sprite": "sp-blue_whale.png", "group": "whale", "rarity": 1}, {"lat": 45.151, "lng": -67.152, "id": "177535", "name": "Lumbriculidae", "sprite": "sp-anchoviella_juruasanga.png", "group": "other", "rarity": 1}, {"lat": 45.23, "lng": -66.04, "id": "868065", "name": "Pista maculata", "sprite": "sp-anchoviella_juruasanga.png", "group": "other", "rarity": 1}, {"lat": 45.149, "lng": -65.8666, "id": "1128", "name": "Euphausiacea", "sprite": "sp-antarctic_krill.png", "group": "shrimp", "rarity": 1}, {"lat": 45.0961, "lng": -66.1158, "id": "143650", "name": "Foviella affinis", "sprite": "sp-anchoviella_juruasanga.png", "group": "other", "rarity": 1}, {"lat": 45.1274, "lng": -66.6068, "id": "158077", "name": "Casco bigelowi", "sprite": "sp-american_lobster.png", "group": "crab_lobster", "rarity": 1}, {"lat": 45.1744, "lng": -66.1722, "id": "158112", "name": "Leptocheirus pinguis", "sprite": "sp-american_lobster.png", "group": "crab_lobster", "rarity": 1}, {"lat": 45.2431, "lng": -65.2429, "id": "156996", "name": "Spisula solidissima", "sprite": "sp-blue_mussel.png", "group": "clam_mussel", "rarity": 1}, {"lat": 46.8511, "lng": -64.9181, "id": "159", "name": "Cylichnidae", "sprite": "sp-cowrie_shell.png", "group": "sea_snail", "rarity": 1}, {"lat": 46.8601, "lng": -64.7726, "id": "125469", "name": "Gadidae", "sprite": "sp-gadidae.png", "group": "cod", "rarity": 1}, {"lat": 45.1828, "lng": -66.2479, "id": "158024", "name": "Amphiporeia", "sprite": "sp-american_lobster.png", "group": "crab_lobster", "rarity": 1}, {"lat": 45.3733, "lng": -65.5667, "id": "101679", "name": "Melita", "sprite": "sp-american_lobster.png", "group": "crab_lobster", "rarity": 1}, {"lat": 45.1167, "lng": -66.2417, "id": "158518", "name": "Dusky smooth-hound", "thumb": "tn_Mucan_u0.jpg", "sprite": "sp-great_white_shark.png", "group": "shark", "rarity": 1, "waterType": "Brackish"}, {"lat": 45.1505, "lng": -66.2083, "id": "159675", "name": "Wrymouth", "thumb": "tn_Crmac_u2.jpg", "sprite": "sp-anchoviella_juruasanga.png", "group": "other", "rarity": 1, "waterType": "Saltwater"}, {"lat": 46.7958, "lng": -65.0558, "id": "163922", "name": "Ctenophora pulchella", "sprite": "sp-anchoviella_juruasanga.png", "group": "other", "rarity": 1}, {"lat": 45.1548, "lng": -66.2304, "id": "283816", "name": "Pachycerianthus borealis", "sprite": "sp-actiniidae.png", "group": "coral", "rarity": 1}, {"lat": 45.6496, "lng": -66.408, "id": "122348", "name": "Cerebratulus", "sprite": "sp-anchoviella_juruasanga.png", "group": "other", "rarity": 1}, {"lat": 45.2599, "lng": -66.324, "id": "103862", "name": "Botryllus schlosseri", "sprite": "sp-anchoviella_juruasanga.png", "group": "other", "rarity": 1}, {"lat": 46.0109, "lng": -65.2341, "id": "1135", "name": "Amphipoda", "sprite": "sp-american_lobster.png", "group": "crab_lobster", "rarity": 1}, {"lat": 46.8512, "lng": -64.9181, "id": "119039", "name": "Idotea balthica", "sprite": "sp-american_lobster.png", "group": "crab_lobster", "rarity": 1}, {"lat": 45.2371, "lng": -66.0374, "id": "131077", "name": "Sthenelais limicola", "sprite": "sp-anchoviella_juruasanga.png", "group": "other", "rarity": 1}, {"lat": 45.9562, "lng": -65.8598, "id": "160214", "name": "Colus pygmaeus", "sprite": "sp-cowrie_shell.png", "group": "sea_snail", "rarity": 1}, {"lat": 45.2206, "lng": -65.799, "id": "131531", "name": "Polycirrus medusa", "sprite": "sp-anchoviella_juruasanga.png", "group": "other", "rarity": 1}, {"lat": 45.1584, "lng": -66.0146, "id": "148793", "name": "Gaviiformes", "sprite": "sp-anchoviella_juruasanga.png", "group": "other", "rarity": 1}, {"lat": 45.6797, "lng": -66.0718, "id": "130603", "name": "Pholoe minuta", "sprite": "sp-anchoviella_juruasanga.png", "group": "other", "rarity": 1}, {"lat": 46.8515, "lng": -64.9181, "id": "129884", "name": "Heteromastus filiformis", "sprite": "sp-anchoviella_juruasanga.png", "group": "other", "rarity": 1}, {"lat": 45.2747, "lng": -65.4696, "id": "10194", "name": "Actinopterygii", "sprite": "sp-anchoviella_juruasanga.png", "group": "other", "rarity": 1}, {"lat": 45.2, "lng": -65.31, "id": "117034", "name": "Obelia", "sprite": "sp-anchoviella_juruasanga.png", "group": "other", "rarity": 1}, {"lat": 45.1667, "lng": -66.0167, "id": "136993", "name": "Phalacrocoracidae", "sprite": "sp-anchoviella_juruasanga.png", "group": "other", "rarity": 1}, {"lat": 45.2013, "lng": -65.969, "id": "129959", "name": "Cirratulus cirratus", "sprite": "sp-anchoviella_juruasanga.png", "group": "other", "rarity": 1}, {"lat": 45.2158, "lng": -65.3342, "id": "105408", "name": "Parasagitta", "sprite": "sp-anchoviella_juruasanga.png", "group": "other", "rarity": 1}, {"lat": 45.2539, "lng": -66.25, "id": "158235", "name": "Edwardsia elegans", "sprite": "sp-actiniidae.png", "group": "coral", "rarity": 1}, {"lat": 45.1505, "lng": -67.151, "id": "948", "name": "Syllidae", "sprite": "sp-anchoviella_juruasanga.png", "group": "other", "rarity": 1}, {"lat": 45.0939, "lng": -66.9217, "id": "126447", "name": "Cusk", "thumb": "tn_Brbro_u2.jpg", "sprite": "sp-anchoviella_juruasanga.png", "group": "other", "rarity": 1, "waterType": "Saltwater"}]}