{"zoom": 7, "x": 40, "y": 59, "points": [{"lat": 11.8294, "lng": -66.6777, "id": "288889", "name": "Porites astreoides", "sprite": "sp-actiniidae.png", "group": "coral", "rarity": 1}, {"lat": 11.73, "lng": -66.83, "id": "221331", "name": "Pulleniatina obliquiloculata", "sprite": "sp-anchoviella_juruasanga.png", "group": "other", "rarity": 1}, {"lat": 11.8216, "lng": -66.8231, "id": "373288", "name": "Penicillus pyriformis", "sprite": "sp-anchoviella_juruasanga.png", "group": "other", "rarity": 1}, {"lat": 11.8909, "lng": -66.7921, "id": "550813", "name": "Ceramium brevizonatum var. caraibicum", "sprite": "sp-anchoviella_juruasanga.png", "group": "other", "rarity": 1}, {"lat": 11.8644, "lng": -66.716, "id": "275722", "name": "Black grunt", "thumb": "tn_Habon_u2.jpg", "sprite": "sp-anchoviella_juruasanga.png", "group": "other", "rarity": 1, "waterType": "Saltwater"}, {"lat": 11.6519, "lng": -66.8861, "id": "102805", "name": "Elasmopus rapax", "sprite": "sp-american_lobster.png", "group": "crab_lobster", "rarity": 1}, {"lat": 11.73, "lng": -66.83, "id": "112720", "name": "Spiroloculina communis", "sprite": "sp-anchoviella_juruasanga.png", "group": "other", "rarity": 1}, {"lat": 11.9171, "lng": -66.6355, "id": "105793", "name": "Blacktip shark", "thumb": "tn_Calim_f0.jpg", "sprite": "sp-great_white_shark.png", "group": "shark", "rarity": 1, "waterType": "Brackish"}, {"lat": 11.9377, "lng": -66.6614, "id": "421523", "name": "Quadrimaera quadrimana", "sprite": "sp-american_lobster.png", "group": "crab_lobster", "rarity": 1}, {"lat": 11.8921, "lng": -66.5902, "id": "281260", "name": "Hairy blenny", "thumb": "tn_Lanuc_u0.jpg", "sprite": "sp-helcogramma_ascensionis.png", "group": "blenny", "rarity": 1, "waterType": "Saltwater"}, {"lat": 11.75, "lng": -66.9333, "id": "104743", "name": "Pontellina plumata", "sprite": "sp-anchoviella_juruasanga.png", "group": "other", "rarity": 1}, {"lat": 11.2659, "lng": -65.763, "id": "104545", "name": "Subeucalanus monachus", "sprite": "sp-anchoviella_juruasanga.png", "group": "other", "rarity": 1}, {"lat": 11.8108, "lng": -66.5024, "id": "145376", "name": "Dictyota mertensii", "sprite": "sp-anchoviella_juruasanga.png", "group": "other", "rarity": 1}, {"lat": 11.83, "lng": -66.5, "id": "270076", "name": "Odontoscion", "sprite": "sp-anchoviella_juruasanga.png", "group": "other", "rarity": 1}, {"lat": 11.8035, "lng": -66.7926, "id": "212256", "name": "Bonefish", "thumb": "tn_Alvul_u0.jpg", "sprite": "sp-anchoviella_juruasanga.png", "group": "other", "rarity": 1, "waterType": "Brackish"}, {"lat": 11.7967, "lng": -66.1133, "id": "159188", "name": "Dibranchus tremendus", "sprite": "sp-deep_sea_anglerfish.png", "group": "anglerfish", "rarity": 1, "waterType": "Saltwater"}, {"lat": 11.955, "lng": -66.644, "id": "332771", "name": "Dorvillea sociabilis", "sprite": "sp-anchoviella_juruasanga.png", "group": "other", "rarity": 1}, {"lat": 11.8155, "lng": -66.6981, "id": "276488", "name": "Dash goby", "thumb": "tn_Ctsae_u0.jpg", "sprite": "sp-eviota_bipunctata.png", "group": "goby", "rarity": 1, "waterType": "Saltwater"}, {"lat": 13.033, "lng": -65.467, "id": "104689", "name": "Cephalophanes refulgens", "sprite": "sp-anchoviella_juruasanga.png", "group": "other", "rarity": 1}, {"lat": 11.8081, "lng": -66.7893, "id": "159793", "name": "Schoolmaster snapper", "thumb": "tn_Luapo_u4.jpg", "sprite": "sp-mutton_snapper.png", "group": "snapper", "rarity": 1, "waterType": "Brackish"}, {"lat": 11.83, "lng": -66.5, "id": "126955", "name": "Yellow sea chub", "thumb": "tn_Kyinc_u0.jpg", "sprite": "sp-anchoviella_juruasanga.png", "group": "other", "rarity": 1, "waterType": "Saltwater"}, {"lat": 11.3194, "lng": -65.3222, "id": "104208", "name": "Labidocera", "sprite": "sp-anchoviella_juruasanga.png", "group": "other", "rarity": 1}, {"lat": 11.8435, "lng": -66.6954, "id": "278080", "name": "Trumpetfish", "thumb": "tn_Aumac_u0.jpg", "sprite": "sp-anchoviella_juruasanga.png", "group": "other", "rarity": 1, "waterType": "Saltwater"}, {"lat": 11.8682, "lng": -66.8596, "id": "373067", "name": "Griffithsia caribaea", "sprite": "sp-anchoviella_juruasanga.png", "group": "other", "rarity": 1}, {"lat": 11.75, "lng": -66.9333, "id": "104669", "name": "Calocalanus pavo", "sprite": "sp-anchoviella_juruasanga.png", "group": "other", "rarity": 1}, {"lat": 11.4432, "lng": -65.7854, "id": "106485", "name": "Oithona", "sprite": "sp-anchoviella_juruasanga.png", "group": "other", "rarity": 1}, {"lat": 11.8, "lng": -66.9, "id": "166612", "name": "Haliclona (Reniera) implexiformis", "sprite": "sp-barrel_sponge.png", "group": "sponge", "rarity": 1}, {"lat": 11.8002, "lng": -66.8842, "id": "234107", "name": "Reef butterflyfish", "thumb": "tn_Chsed_u1.jpg", "sprite": "sp-chaetodon.png", "group": "butterflyfish", "rarity": 1, "waterType": "Saltwater"}, {"lat": 11.9528, "lng": -66.6222, "id": "144546", "name": "Ceramium diaphanum", "sprite": "sp-anchoviella_juruasanga.png", "group": "other", "rarity": 1}, {"lat": 11.9501, "lng": -66.6772, "id": "371201", "name": "Gracilaria textorii", "sprite": "sp-anchoviella_juruasanga.png", "group": "other", "rarity": 1}, {"lat": 11.8695, "lng": -66.7772, "id": "145634", "name": "Hypnea musciformis", "sprite": "sp-anchoviella_juruasanga.png", "group": "other", "rarity": 1}, {"lat": 11.8, "lng": -66.1933, "id": "287853", "name": "Scolymia lacera", "sprite": "sp-actiniidae.png", "group": "coral", "rarity": 1}, {"lat": 11.7953, "lng": -66.8959, "id": "420126", "name": "Oliva reticularis", "sprite": "sp-cowrie_shell.png", "group": "sea_snail", "rarity": 1}, {"lat": 11.73, "lng": -66.83, "id": "112877", "name": "Cibicides refulgens", "sprite": "sp-anchoviella_juruasanga.png", "group": "other", "rarity": 1}, {"lat": 11.799, "lng": -66.902, "id": "130067", "name": "Eunice vittata", "sprite": "sp-anchoviella_juruasanga.png", "group": "other", "rarity": 1}, {"lat": 11.7967, "lng": -66.1133, "id": "126471", "name": "Treadfin grenadier", "thumb": "tn_Galon_u1.jpg", "sprite": "sp-anchoviella_juruasanga.png", "group": "other", "rarity": 1, "waterType": "Saltwater"}, {"lat": 11.8488, "lng": -66.767, "id": "144481", "name": "Halimeda discoidea", "sprite": "sp-anchoviella_juruasanga.png", "group": "other", "rarity": 1}, {"lat": 11.8488, "lng": -66.767, "id": "146242", "name": "Phyllodictyon anastomosans", "sprite": "sp-anchoviella_juruasanga.png", "group": "other", "rarity": 1}, {"lat": 11.8841, "lng": -66.7895, "id": "145883", "name": "Valonia macrophysa", "sprite": "sp-anchoviella_juruasanga.png", "group": "other", "rarity": 1}, {"lat": 13.033, "lng": -65.467, "id": "104139", "name": "Euaugaptilus", "sprite": "sp-anchoviella_juruasanga.png", "group": "other", "rarity": 1}, {"lat": 11.793, "lng": -66.764, "id": "273774", "name": "Redtail parrotfish", "thumb": "tn_Spchr_m0.jpg", "sprite": "sp-sparisoma.png", "group": "parrotfish", "rarity": 1, "waterType": "Saltwater"}, {"lat": 11.37, "lng": -65.07, "id": "466082", "name": "Triloculina insignis", "sprite": "sp-anchoviella_juruasanga.png", "group": "other", "rarity": 1}, {"lat": 12.0, "lng": -66.67, "id": "466454", "name": "Planoglabratella opercularis", "sprite": "sp-anchoviella_juruasanga.png", "group": "other", "rarity": 1}, {"lat": 11.6767, "lng": -65.4667, "id": "1540274", "name": "Rutherfordoides mexicanus", "sprite": "sp-anchoviella_juruasanga.png", "group": "other", "rarity": 1}, {"lat": 11.75, "lng": -66.9333, "id": "345251", "name": "Pseudoamallothrix ovata", "sprite": "sp-anchoviella_juruasanga.png", "group": "other", "rarity": 1}, {"lat": 11.4056, "lng": -65.6444, "id": "224185", "name": "Pleuromamma quadrungulata quadrungulata", "sprite": "sp-anchoviella_juruasanga.png", "group": "other", "rarity": 1}, {"lat": 11.578, "lng": -65.3667, "id": "1056519", "name": "Robustosergia regalis", "sprite": "sp-american_lobster.png", "group": "crab_lobster", "rarity": 1}, {"lat": 11.8914, "lng": -66.7082, "id": "258423", "name": "Bopyrella harmopleon", "sprite": "sp-american_lobster.png", "group": "crab_lobster", "rarity": 1}, {"lat": 11.9712, "lng": -67.4756, "id": "549282", "name": "Tiburonella viscana", "sprite": "sp-american_lobster.png", "group": "crab_lobster", "rarity": 1}, {"lat": 11.8143, "lng": -66.8151, "id": "144567", "name": "Ceramium tenerrimum", "sprite": "sp-anchoviella_juruasanga.png", "group": "other", "rarity": 1}, {"lat": 11.2333, "lng": -65.0, "id": "104126", "name": "Pseudochirella", "sprite": "sp-anchoviella_juruasanga.png", "group": "other", "rarity": 1}, {"lat": 12.1725, "lng": -67.032, "id": "2", "name": "Animalia", "sprite": "sp-anchoviella_juruasanga.png", "group": "other", "rarity": 1}, {"lat": 11.8138, "lng": -66.7462, "id": "420787", "name": "Codakia orbicularis", "sprite": "sp-blue_mussel.png", "group": "clam_mussel", "rarity": 1}, {"lat": 11.8488, "lng": -66.767, "id": "221177", "name": "Avrainvillea nigricans", "sprite": "sp-anchoviella_juruasanga.png", "group": "other", "rarity": 1}, {"lat": 11.9074, "lng": -66.6205, "id": "105817", "name": "Great hammerhead", "thumb": "tn_Spmok_u7.jpg", "sprite": "sp-great_white_shark.png", "group": "shark", "rarity": 1, "waterType": "Brackish"}, {"lat": 11.9501, "lng": -66.6772, "id": "239301", "name": "Laurencia filiformis", "sprite": "sp-anchoviella_juruasanga.png", "group": "other", "rarity": 1}, {"lat": 11.8922, "lng": -66.6518, "id": "416983", "name": "Ganonema megagynum", "sprite": "sp-anchoviella_juruasanga.png", "group": "other", "rarity": 1}, {"lat": 11.8456, "lng": -66.8675, "id": "375468", "name": "Lithothamnion occidentale", "sprite": "sp-anchoviella_juruasanga.png", "group": "other", "rarity": 1}, {"lat": 11.965, "lng": -66.8333, "id": "125316", "name": "Villogorgia", "sprite": "sp-actiniidae.png", "group": "coral", "rarity": 1}, {"lat": 11.2333, "lng": -65.0, "id": "104485", "name": "Candacia tenuimana", "sprite": "sp-anchoviella_juruasanga.png", "group": "other", "rarity": 1}, {"lat": 11.75, "lng": -66.933, "id": "127775", "name": "Conchoecia subarcuata", "sprite": "sp-anchoviella_juruasanga.png", "group": "other", "rarity": 1}, {"lat": 11.4271, "lng": -65.725, "id": "104173", "name": "Subeucalanus", "sprite": "sp-anchoviella_juruasanga.png", "group": "other", "rarity": 1}, {"lat": 11.766, "lng": -66.8072, "id": "291119", "name": "Stephanocoenia intersepta", "sprite": "sp-actiniidae.png", "group": "coral", "rarity": 1}, {"lat": 11.8567, "lng": -66.6902, "id": "159497", "name": "Fringed filefish", "thumb": "tn_Mocil_u2.jpg", "sprite": "sp-anchoviella_juruasanga.png", "group": "other", "rarity": 1, "waterType": "Saltwater"}, {"lat": 11.8155, "lng": -66.6981, "id": "159259", "name": "Hound needlefish", "thumb": "tn_Tycro_u1.jpg", "sprite": "sp-anchoviella_juruasanga.png", "group": "other", "rarity": 1, "waterType": "Saltwater"}, {"lat": 11.7635, "lng": -66.7191, "id": "375779", "name": "Crouanophycus latiaxis", "sprite": "sp-anchoviella_juruasanga.png", "group": "other", "rarity": 1}, {"lat": 11.83, "lng": -66.5, "id": "280214", "name": "Creole wrasse", "thumb": "tn_Clpar_u3.jpg", "sprite": "sp-cleaner_wrasse.png", "group": "wrasse", "rarity": 1, "waterType": "Saltwater"}, {"lat": 11.876, "lng": -66.62, "id": "129877", "name": "Capitella giardi", "sprite": "sp-anchoviella_juruasanga.png", "group": "other", "rarity": 1}, {"lat": 13.5, "lng": -64.75, "id": "181304", "name": "Hyalopecten pudicus", "sprite": "sp-blue_mussel.png", "group": "clam_mussel", "rarity": 1}, {"lat": 11.6, "lng": -65.7, "id": "417991", "name": "Anomalinoides io", "sprite": "sp-anchoviella_juruasanga.png", "group": "other", "rarity": 1}, {"lat": 11.8138, "lng": -66.7462, "id": "419449", "name": "Cittarium pica", "sprite": "sp-cowrie_shell.png", "group": "sea_snail", "rarity": 1}, {"lat": 11.829, "lng": -66.8118, "id": "276318", "name": "Orangespotted blenny", "thumb": "tn_Hypse_u0.jpg", "sprite": "sp-helcogramma_ascensionis.png", "group": "blenny", "rarity": 1, "waterType": "Saltwater"}, {"lat": 11.825, "lng": -66.6, "id": "113279", "name": "Elphidium margaritaceum", "sprite": "sp-anchoviella_juruasanga.png", "group": "other", "rarity": 1}, {"lat": 11.8922, "lng": -66.6518, "id": "144716", "name": "Dasya corymbifera", "sprite": "sp-anchoviella_juruasanga.png", "group": "other", "rarity": 1}, {"lat": 11.7767, "lng": -66.7678, "id": "125159", "name": "Cheiraster (Cheiraster) sepitus", "sprite": "sp-sea_cucumber.png", "group": "starfish", "rarity": 1}, {"lat": 11.8841, "lng": -66.7895, "id": "371256", "name": "Amphiroa brasiliana", "sprite": "sp-anchoviella_juruasanga.png", "group": "other", "rarity": 1}, {"lat": 11.8273, "lng": -66.825, "id": "277722", "name": "Reef silverside", "thumb": "tn_Hyhar_u2.jpg", "sprite": "sp-anchoviella_juruasanga.png", "group": "other", "rarity": 1, "waterType": "Saltwater"}, {"lat": 11.8698, "lng": -66.887, "id": "145130", "name": "Jania rubens", "sprite": "sp-anchoviella_juruasanga.png", "group": "other", "rarity": 1}, {"lat": 11.9333, "lng": -67.4333, "id": "144", "name": "Triviidae", "sprite": "sp-cowrie_shell.png", "group": "sea_snail", "rarity": 1}, {"lat": 11.81, "lng": -66.7661, "id": "280601", "name": "Sharknose goby", "thumb": "tn_Eleve_u4.jpg", "sprite": "sp-eviota_bipunctata.png", "group": "goby", "rarity": 1, "waterType": "Saltwater"}, {"lat": 11.8321, "lng": -66.7822, "id": "275963", "name": "Greater soapfish", "thumb": "tn_Rysap_u0.jpg", "sprite": "sp-chelidoperca_santosi.png", "group": "grouper", "rarity": 1, "waterType": "Saltwater"}, {"lat": 13.9, "lng": -67.0, "id": "126385", "name": "Tropical two-wing flyingfish", "thumb": "tn_Exvol_u2.gif", "sprite": "sp-flying_fish.png", "group": "flying_fish", "rarity": 1, "waterType": "Saltwater"}, {"lat": 11.75, "lng": -66.9333, "id": "116381", "name": "Distioculus minor", "sprite": "sp-anchoviella_juruasanga.png", "group": "other", "rarity": 1}, {"lat": 11.8506, "lng": -66.7508, "id": "377238", "name": "Gayliella womersleyi", "sprite": "sp-anchoviella_juruasanga.png", "group": "other", "rarity": 1}, {"lat": 11.8058, "lng": -66.7615, "id": "279625", "name": "Porkfish", "thumb": "tn_Anvir_uc.jpg", "sprite": "sp-anchoviella_juruasanga.png", "group": "other", "rarity": 1, "waterType": "Saltwater"}, {"lat": 11.83, "lng": -66.5, "id": "276596", "name": "Littlescale threadfin", "thumb": "tn_Pooli_u6.jpg", "sprite": "sp-anchoviella_juruasanga.png", "group": "other", "rarity": 1, "waterType": "Brackish"}, {"lat": 11.8768, "lng": -66.7639, "id": "382517", "name": "Herposiphonia secunda f. tenella", "sprite": "sp-anchoviella_juruasanga.png", "group": "other", "rarity": 1}, {"lat": 11.73, "lng": -66.83, "id": "480187", "name": "Sahulia barkeri", "sprite": "sp-anchoviella_juruasanga.png", "group": "other", "rarity": 1}, {"lat": 11.8333, "lng": -66.75, "id": "534573", "name": "Maeracoota galani", "sprite": "sp-american_lobster.png", "group": "crab_lobster", "rarity": 1}, {"lat": 12.0, "lng": -67.42, "id": "288235", "name": "Acropora prolifera", "sprite": "sp-actiniidae.png", "group": "coral", "rarity": 1}, {"lat": 11.4917, "lng": -65.9667, "id": "128795", "name": "Agetus flaccus", "sprite": "sp-anchoviella_juruasanga.png", "group": "other", "rarity": 1}, {"lat": 11.3625, "lng": -65.4833, "id": "116162", "name": "Euterpina acutifrons", "sprite": "sp-anchoviella_juruasanga.png", "group": "other", "rarity": 1}, {"lat": 11.6733, "lng": -66.09, "id": "418051", "name": "Nonionoides grateloupii", "sprite": "sp-anchoviella_juruasanga.png", "group": "other", "rarity": 1}, {"lat": 11.33, "lng": -67.2333, "id": "220834", "name": "Canthocalanus pauper", "sprite": "sp-anchoviella_juruasanga.png", "group": "other", "rarity": 1}, {"lat": 12.0467, "lng": -66.623, "id": "137111", "name": "Tursiops truncatus", "sprite": "sp-bottlenose_dolphin.png", "group": "dolphin", "rarity": 1}, {"lat": 11.8102, "lng": -66.8652, "id": "275772", "name": "Clown wrasse", "thumb": "tn_Hapoe_u1.jpg", "sprite": "sp-cleaner_wrasse.png", "group": "wrasse", "rarity": 1, "waterType": "Saltwater"}, {"lat": 11.7901, "lng": -66.8775, "id": "758262", "name": "Orbicella franksi", "sprite": "sp-actiniidae.png", "group": "coral", "rarity": 1}, {"lat": 11.69, "lng": -65.77, "id": "113030", "name": "Bulimina aculeata", "sprite": "sp-anchoviella_juruasanga.png", "group": "other", "rarity": 1}, {"lat": 12.3278, "lng": -65.7778, "id": "125523", "name": "Carangidae", "sprite": "sp-anchoviella_juruasanga.png", "group": "other", "rarity": 1}, {"lat": 11.965, "lng": -66.8333, "id": "290487", "name": "Nidalia occidentalis", "sprite": "sp-actiniidae.png", "group": "coral", "rarity": 1}, {"lat": 11.8897, "lng": -66.8011, "id": "273072", "name": "Pale cardinalfish", "thumb": "tn_Appla_l0.jpg", "sprite": "sp-anchoviella_juruasanga.png", "group": "other", "rarity": 1, "waterType": "Saltwater"}, {"lat": 11.8242, "lng": -66.8599, "id": "276666", "name": "Longfin damselfish", "thumb": "tn_Stdie_u0.jpg", "sprite": "sp-chrysiptera_caesifrons.png", "group": "clownfish", "rarity": 1, "waterType": "Saltwater"}, {"lat": 11.7851, "lng": -66.6021, "id": "287107", "name": "Madracis decactis", "sprite": "sp-actiniidae.png", "group": "coral", "rarity": 1}, {"lat": 11.37, "lng": -65.07, "id": "113207", "name": "Fissurina marginata", "sprite": "sp-anchoviella_juruasanga.png", "group": "other", "rarity": 1}, {"lat": 11.9461, "lng": -66.6807, "id": "1577312", "name": "Acanthostracion polygonium", "sprite": "sp-anchoviella_juruasanga.png", "group": "other", "rarity": 1}, {"lat": 11.8435, "lng": -66.7158, "id": "373298", "name": "Udotea caribaea", "sprite": "sp-anchoviella_juruasanga.png", "group": "other", "rarity": 1}, {"lat": 11.8362, "lng": -66.8092, "id": "981", "name": "Ampharetidae", "sprite": "sp-anchoviella_juruasanga.png", "group": "other", "rarity": 1}, {"lat": 11.2333, "lng": -65.0, "id": "104558", "name": "Paraeuchaeta bisinuata", "sprite": "sp-anchoviella_juruasanga.png", "group": "other", "rarity": 1}, {"lat": 11.73, "lng": -66.83, "id": "113626", "name": "Patellina corrugata", "sprite": "sp-anchoviella_juruasanga.png", "group": "other", "rarity": 1}, {"lat": 11.8123, "lng": -66.6951, "id": "159646", "name": "Bigeye scad", "thumb": "tn_Secru_u7.jpg", "sprite": "sp-anchoviella_juruasanga.png", "group": "other", "rarity": 1, "waterType": "Saltwater"}, {"lat": 11.8499, "lng": -66.7207, "id": "144456", "name": "Bryopsis pennata", "sprite": "sp-anchoviella_juruasanga.png", "group": "other", "rarity": 1}, {"lat": 11.8932, "lng": -66.7452, "id": "144439", "name": "Asparagopsis taxiformis", "sprite": "sp-anchoviella_juruasanga.png", "group": "other", "rarity": 1}, {"lat": 11.73, "lng": -66.83, "id": "113624", "name": "Heterostegina depressa", "sprite": "sp-anchoviella_juruasanga.png", "group": "other", "rarity": 1}, {"lat": 11.896, "lng": -66.852, "id": "1013785", "name": "Leopard goby", "thumb": "tn_Tisau_u0.jpg", "sprite": "sp-eviota_bipunctata.png", "group": "goby", "rarity": 1, "waterType": "Saltwater"}, {"lat": 11.8518, "lng": -66.9927, "id": "136988", "name": "Laridae", "sprite": "sp-anchoviella_juruasanga.png", "group": "other", "rarity": 1}, {"lat": 11.7946, "lng": -66.8902, "id": "276357", "name": "Maracaibo leatherjacket", "thumb": "tn_Olpal_j0.jpg", "sprite": "sp-anchoviella_juruasanga.png", "group": "other", "rarity": 1, "waterType": "Brackish"}, {"lat": 11.7994, "lng": -66.7778, "id": "159799", "name": "Mahogany snapper", "thumb": "tn_Lumah_u4.jpg", "sprite": "sp-mutton_snapper.png", "group": "snapper", "rarity": 1, "waterType": "Saltwater"}, {"lat": 11.8246, "lng": -66.7051, "id": "124332", "name": "Diadema antillarum", "sprite": "sp-sea_cucumber.png", "group": "starfish", "rarity": 1}, {"lat": 11.7953, "lng": -66.8959, "id": "419504", "name": "Nerita peloronta", "sprite": "sp-cowrie_shell.png", "group": "sea_snail", "rarity": 1}, {"lat": 11.8052, "lng": -66.7942, "id": "126804", "name": "Horse-eye jack", "thumb": "tn_Calat_u9.jpg", "sprite": "sp-anchoviella_juruasanga.png", "group": "other", "rarity": 1, "waterType": "Brackish"}]}