{"zoom": 7, "x": 40, "y": 93, "points": [{"lat": -64.15, "lng": -65.4, "id": "171285", "name": "Cinachyra antarctica", "sprite": "sp-barrel_sponge.png", "group": "sponge", "rarity": 1}, {"lat": -64.1167, "lng": -65.185, "id": "536012", "name": "Austrinoecia isocheira", "sprite": "sp-anchoviella_juruasanga.png", "group": "other", "rarity": 1}, {"lat": -63.5774, "lng": -65.8327, "id": "11676", "name": "Pisces", "sprite": "sp-anchoviella_juruasanga.png", "group": "other", "rarity": 1}, {"lat": -63.3333, "lng": -66.45, "id": "227091", "name": "Euchaetomera zurstrasseni", "sprite": "sp-american_lobster.png", "group": "crab_lobster", "rarity": 1}, {"lat": -63.3833, "lng": -66.0, "id": "344000", "name": "Diomedea epomophora", "sprite": "sp-anchoviella_juruasanga.png", "group": "other", "rarity": 1}, {"lat": -64.1267, "lng": -65.23, "id": "337548", "name": "Eulalia picta", "sprite": "sp-anchoviella_juruasanga.png", "group": "other", "rarity": 1}, {"lat": -63.9414, "lng": -65.5856, "id": "113458", "name": "Neogloboquadrina pachyderma", "sprite": "sp-anchoviella_juruasanga.png", "group": "other", "rarity": 1}, {"lat": -63.709, "lng": -65.591, "id": "1080", "name": "Copepoda", "sprite": "sp-anchoviella_juruasanga.png", "group": "other", "rarity": 1}, {"lat": -63.709, "lng": -65.591, "id": "1078", "name": "Ostracoda", "sprite": "sp-anchoviella_juruasanga.png", "group": "other", "rarity": 1}, {"lat": -64.0, "lng": -65.0, "id": "160828", "name": "Sterechinus antarcticus", "sprite": "sp-sea_cucumber.png", "group": "starfish", "rarity": 1}, {"lat": -63.8839, "lng": -64.7336, "id": "212639", "name": "Thalassoica antarctica", "sprite": "sp-anchoviella_juruasanga.png", "group": "other", "rarity": 1}, {"lat": -64.0, "lng": -65.0, "id": "341654", "name": "Tintinnopsis bacillaria", "sprite": "sp-anchoviella_juruasanga.png", "group": "other", "rarity": 1}, {"lat": -64.15, "lng": -65.4, "id": "173128", "name": "Isosicyonis alba", "sprite": "sp-actiniidae.png", "group": "coral", "rarity": 1}, {"lat": -63.7065, "lng": -65.8773, "id": "137092", "name": "Megaptera novaeangliae", "sprite": "sp-blue_whale.png", "group": "whale", "rarity": 1}, {"lat": -64.112, "lng": -65.987, "id": "344008", "name": "Lobodon carcinophagus", "sprite": "sp-elephant_seal.png", "group": "seal", "rarity": 1}, {"lat": -63.6833, "lng": -66.05, "id": "212648", "name": "Pachyptila turtur", "sprite": "sp-anchoviella_juruasanga.png", "group": "other", "rarity": 1}, {"lat": -63.1917, "lng": -66.315, "id": "325379", "name": "Hyperiella antarctica", "sprite": "sp-american_lobster.png", "group": "crab_lobster", "rarity": 1}, {"lat": -63.709, "lng": -65.591, "id": "139178", "name": "Clione limacina", "sprite": "sp-cowrie_shell.png", "group": "sea_snail", "rarity": 1}, {"lat": -63.875, "lng": -65.5133, "id": "835690", "name": "Algidasphaeridium minutum", "sprite": "sp-anchoviella_juruasanga.png", "group": "other", "rarity": 1}, {"lat": -63.58, "lng": -67.5, "id": "2688", "name": "Cetacea", "sprite": "sp-anchoviella_juruasanga.png", "group": "other", "rarity": 1}, {"lat": -63.465, "lng": -66.1441, "id": "343995", "name": "Thalassarche melanophris", "sprite": "sp-anchoviella_juruasanga.png", "group": "other", "rarity": 1}, {"lat": -63.2858, "lng": -65.9662, "id": "225783", "name": "Pygoscelis antarcticus", "sprite": "sp-anchoviella_juruasanga.png", "group": "other", "rarity": 1}, {"lat": -63.0148, "lng": -65.0086, "id": "106656", "name": "Oithona similis", "sprite": "sp-anchoviella_juruasanga.png", "group": "other", "rarity": 1}, {"lat": -64.07, "lng": -65.13, "id": "123082", "name": "Echinoidea", "sprite": "sp-sea_cucumber.png", "group": "starfish", "rarity": 1}, {"lat": -63.4255, "lng": -65.5854, "id": "212640", "name": "Daption capense", "sprite": "sp-anchoviella_juruasanga.png", "group": "other", "rarity": 1}, {"lat": -64.0, "lng": -65.0, "id": "160830", "name": "Sterechinus diadema", "sprite": "sp-sea_cucumber.png", "group": "starfish", "rarity": 1}, {"lat": -63.4259, "lng": -65.6824, "id": "137190", "name": "Oceanites oceanicus", "sprite": "sp-anchoviella_juruasanga.png", "group": "other", "rarity": 1}, {"lat": -63.71, "lng": -65.575, "id": "103357", "name": "Appendicularia", "sprite": "sp-anchoviella_juruasanga.png", "group": "other", "rarity": 1}, {"lat": -63.709, "lng": -65.591, "id": "135333", "name": "Calycophorae", "sprite": "sp-anchoviella_juruasanga.png", "group": "other", "rarity": 1}, {"lat": -64.1269, "lng": -65.23, "id": "754649", "name": "Abyssoninoe orensanzi", "sprite": "sp-anchoviella_juruasanga.png", "group": "other", "rarity": 1}, {"lat": -63.75, "lng": -65.7, "id": "137090", "name": "Balaenoptera musculus", "sprite": "sp-blue_whale.png", "group": "whale", "rarity": 1}, {"lat": -64.092, "lng": -65.175, "id": "13551", "name": "Anthoathecata", "sprite": "sp-anchoviella_juruasanga.png", "group": "other", "rarity": 1}, {"lat": -63.5107, "lng": -65.953, "id": "136998", "name": "Procellariidae", "sprite": "sp-anchoviella_juruasanga.png", "group": "other", "rarity": 1}, {"lat": -64.07, "lng": -65.13, "id": "411", "name": "Aplacophora", "sprite": "sp-anchoviella_juruasanga.png", "group": "other", "rarity": 1}, {"lat": -63.328, "lng": -65.975, "id": "101806", "name": "Primno", "sprite": "sp-american_lobster.png", "group": "crab_lobster", "rarity": 1}, {"lat": -63.709, "lng": -65.591, "id": "325383", "name": "Hyperiella dilatata", "sprite": "sp-american_lobster.png", "group": "crab_lobster", "rarity": 1}, {"lat": -63.9995, "lng": -65.4653, "id": "112230", "name": "Melonis", "sprite": "sp-anchoviella_juruasanga.png", "group": "other", "rarity": 1}, {"lat": -63.925, "lng": -65.3842, "id": "172456", "name": "Alacia hettacra", "sprite": "sp-anchoviella_juruasanga.png", "group": "other", "rarity": 1}, {"lat": -63.6202, "lng": -65.9028, "id": "236219", "name": "Thysanoessa macrura", "sprite": "sp-antarctic_krill.png", "group": "shrimp", "rarity": 1}, {"lat": -63.6357, "lng": -65.8274, "id": "236218", "name": "Euphausia frigida", "sprite": "sp-antarctic_krill.png", "group": "shrimp", "rarity": 1}, {"lat": -63.7917, "lng": -65.9761, "id": "212583", "name": "Diomedea exulans", "sprite": "sp-anchoviella_juruasanga.png", "group": "other", "rarity": 1}, {"lat": -63.8834, "lng": -65.7059, "id": "113118", "name": "Lobatula lobatula", "sprite": "sp-anchoviella_juruasanga.png", "group": "other", "rarity": 1}, {"lat": -63.9995, "lng": -65.4653, "id": "113091", "name": "Globocassidulina subglobosa", "sprite": "sp-anchoviella_juruasanga.png", "group": "other", "rarity": 1}, {"lat": -63.1594, "lng": -65.8359, "id": "212645", "name": "Halobaena caerulea", "sprite": "sp-anchoviella_juruasanga.png", "group": "other", "rarity": 1}, {"lat": -64.15, "lng": -65.4, "id": "173095", "name": "Hormathia lacunifera", "sprite": "sp-actiniidae.png", "group": "coral", "rarity": 1}, {"lat": -63.0148, "lng": -65.0086, "id": "1100", "name": "Calanoida", "sprite": "sp-anchoviella_juruasanga.png", "group": "other", "rarity": 1}, {"lat": -63.709, "lng": -65.591, "id": "129715", "name": "Tomopteris", "sprite": "sp-anchoviella_juruasanga.png", "group": "other", "rarity": 1}, {"lat": -63.6633, "lng": -65.38, "id": "172467", "name": "Boroecia antipoda", "sprite": "sp-anchoviella_juruasanga.png", "group": "other", "rarity": 1}, {"lat": -64.1267, "lng": -65.23, "id": "173693", "name": "Aglaophamus trissophyllus", "sprite": "sp-anchoviella_juruasanga.png", "group": "other", "rarity": 1}, {"lat": -63.05, "lng": -65.93, "id": "136984", "name": "Phocoenidae", "sprite": "sp-bottlenose_dolphin.png", "group": "dolphin", "rarity": 1}, {"lat": -63.2452, "lng": -65.8724, "id": "204680", "name": "Pachyptila", "sprite": "sp-anchoviella_juruasanga.png", "group": "other", "rarity": 1}, {"lat": -63.834, "lng": -67.1307, "id": "390203", "name": "Bouillonia denhartogi", "sprite": "sp-anchoviella_juruasanga.png", "group": "other", "rarity": 1}, {"lat": -63.3706, "lng": -65.3519, "id": "212631", "name": "Phoebetria palpebrata", "sprite": "sp-anchoviella_juruasanga.png", "group": "other", "rarity": 1}, {"lat": -64.07, "lng": -65.13, "id": "101", "name": "Gastropoda", "sprite": "sp-cowrie_shell.png", "group": "sea_snail", "rarity": 1}, {"lat": -63.707, "lng": -65.623, "id": "106827", "name": "Lucifer", "sprite": "sp-american_lobster.png", "group": "crab_lobster", "rarity": 1}, {"lat": -63.9995, "lng": -65.4653, "id": "850325", "name": "Cassidulinoides porrecta", "sprite": "sp-anchoviella_juruasanga.png", "group": "other", "rarity": 1}, {"lat": -63.75, "lng": -65.5, "id": "137091", "name": "Balaenoptera physalus", "sprite": "sp-blue_whale.png", "group": "whale", "rarity": 1}, {"lat": -63.6687, "lng": -65.5796, "id": "231413", "name": "Mirounga leonina", "sprite": "sp-elephant_seal.png", "group": "seal", "rarity": 1}, {"lat": -63.328, "lng": -65.975, "id": "1128", "name": "Euphausiacea", "sprite": "sp-antarctic_krill.png", "group": "shrimp", "rarity": 1}, {"lat": -63.709, "lng": -65.591, "id": "2", "name": "Animalia", "sprite": "sp-anchoviella_juruasanga.png", "group": "other", "rarity": 1}, {"lat": -64.0, "lng": -65.0, "id": "341686", "name": "Amphorides laackmanni", "sprite": "sp-anchoviella_juruasanga.png", "group": "other", "rarity": 1}, {"lat": -63.7783, "lng": -66.1184, "id": "173050", "name": "Flabellum (Flabellum) impensum", "sprite": "sp-actiniidae.png", "group": "coral", "rarity": 1}, {"lat": -64.07, "lng": -65.13, "id": "883", "name": "Polychaeta", "sprite": "sp-anchoviella_juruasanga.png", "group": "other", "rarity": 1}, {"lat": -64.1267, "lng": -65.23, "id": "173369", "name": "Glycera kerguelensis", "sprite": "sp-anchoviella_juruasanga.png", "group": "other", "rarity": 1}, {"lat": -63.7134, "lng": -65.2711, "id": "212638", "name": "Fulmarus glacialoides", "sprite": "sp-anchoviella_juruasanga.png", "group": "other", "rarity": 1}, {"lat": -63.925, "lng": -65.3842, "id": "172453", "name": "Alacia belgicae", "sprite": "sp-anchoviella_juruasanga.png", "group": "other", "rarity": 1}, {"lat": -63.709, "lng": -65.591, "id": "140223", "name": "Limacina helicina", "sprite": "sp-cowrie_shell.png", "group": "sea_snail", "rarity": 1}, {"lat": -63.3333, "lng": -66.45, "id": "226680", "name": "Antarctomysis maxima", "sprite": "sp-american_lobster.png", "group": "crab_lobster", "rarity": 1}, {"lat": -63.5594, "lng": -66.1267, "id": "225760", "name": "Thalassarche chrysostoma", "sprite": "sp-anchoviella_juruasanga.png", "group": "other", "rarity": 1}, {"lat": -63.875, "lng": -65.5133, "id": "603684", "name": "Brigantedinium", "sprite": "sp-anchoviella_juruasanga.png", "group": "other", "rarity": 1}, {"lat": -64.1269, "lng": -65.23, "id": "173687", "name": "Aglaophamus paramalmgreni", "sprite": "sp-anchoviella_juruasanga.png", "group": "other", "rarity": 1}, {"lat": -64.14, "lng": -65.1767, "id": "567471", "name": "Stercorarius antarcticus", "sprite": "sp-anchoviella_juruasanga.png", "group": "other", "rarity": 1}, {"lat": -63.8843, "lng": -65.617, "id": "225747", "name": "Pygoscelis", "sprite": "sp-anchoviella_juruasanga.png", "group": "other", "rarity": 1}, {"lat": -63.7675, "lng": -66.1167, "id": "235336", "name": "Aneboconcha", "sprite": "sp-anchoviella_juruasanga.png", "group": "other", "rarity": 1}, {"lat": -63.9415, "lng": -65.5856, "id": "412825", "name": "Globocassidulina biora", "sprite": "sp-anchoviella_juruasanga.png", "group": "other", "rarity": 1}, {"lat": -64.1286, "lng": -65.23, "id": "391242", "name": "Copytus elongatus", "sprite": "sp-anchoviella_juruasanga.png", "group": "other", "rarity": 1}, {"lat": -63.5254, "lng": -65.9304, "id": "137217", "name": "Salpidae", "sprite": "sp-anchoviella_juruasanga.png", "group": "other", "rarity": 1}, {"lat": -63.9995, "lng": -65.4653, "id": "413877", "name": "Cassidulinoides parkeriana", "sprite": "sp-anchoviella_juruasanga.png", "group": "other", "rarity": 1}, {"lat": -63.6841, "lng": -65.9469, "id": "231404", "name": "Arctocephalus gazella", "sprite": "sp-elephant_seal.png", "group": "seal", "rarity": 1}, {"lat": -64.0, "lng": -65.0, "id": "160796", "name": "Ctenocidaris perrieri", "sprite": "sp-sea_cucumber.png", "group": "starfish", "rarity": 1}, {"lat": -63.3095, "lng": -65.7137, "id": "212696", "name": "Fregetta tropica", "sprite": "sp-anchoviella_juruasanga.png", "group": "other", "rarity": 1}, {"lat": -64.0067, "lng": -64.75, "id": "127857", "name": "Proceroecia brachyaskos", "sprite": "sp-anchoviella_juruasanga.png", "group": "other", "rarity": 1}, {"lat": -63.7294, "lng": -65.8387, "id": "212637", "name": "Macronectes halli", "sprite": "sp-anchoviella_juruasanga.png", "group": "other", "rarity": 1}, {"lat": -63.5151, "lng": -65.6942, "id": "205273", "name": "Diomedea", "sprite": "sp-anchoviella_juruasanga.png", "group": "other", "rarity": 1}, {"lat": -63.9995, "lng": -65.4653, "id": "397206", "name": "Ehrenbergina glabra", "sprite": "sp-anchoviella_juruasanga.png", "group": "other", "rarity": 1}, {"lat": -63.7244, "lng": -65.7381, "id": "236217", "name": "Euphausia superba", "sprite": "sp-antarctic_krill.png", "group": "shrimp", "rarity": 1}, {"lat": -63.709, "lng": -65.591, "id": "266258", "name": "Pseudosagitta gazellae", "sprite": "sp-anchoviella_juruasanga.png", "group": "other", "rarity": 1}, {"lat": -63.5325, "lng": -65.3203, "id": "212651", "name": "Procellaria aequinoctialis", "sprite": "sp-anchoviella_juruasanga.png", "group": "other", "rarity": 1}, {"lat": -64.1267, "lng": -65.23, "id": "736484", "name": "Paradiopatra antarctica", "sprite": "sp-anchoviella_juruasanga.png", "group": "other", "rarity": 1}, {"lat": -63.709, "lng": -65.591, "id": "137233", "name": "Salpa", "sprite": "sp-anchoviella_juruasanga.png", "group": "other", "rarity": 1}, {"lat": -63.7167, "lng": -66.6667, "id": "237520", "name": "Cyamus catodontis", "sprite": "sp-american_lobster.png", "group": "crab_lobster", "rarity": 1}, {"lat": -63.7993, "lng": -65.4757, "id": "1135", "name": "Amphipoda", "sprite": "sp-american_lobster.png", "group": "crab_lobster", "rarity": 1}, {"lat": -63.875, "lng": -65.5133, "id": "657391", "name": "Impagidinium pallidum", "sprite": "sp-anchoviella_juruasanga.png", "group": "other", "rarity": 1}, {"lat": -63.775, "lng": -66.1167, "id": "235669", "name": "Aneboconcha obscura", "sprite": "sp-anchoviella_juruasanga.png", "group": "other", "rarity": 1}, {"lat": -63.6259, "lng": -65.679, "id": "212636", "name": "Macronectes giganteus", "sprite": "sp-anchoviella_juruasanga.png", "group": "other", "rarity": 1}, {"lat": -63.709, "lng": -65.591, "id": "105416", "name": "Eukrohnia hamata", "sprite": "sp-anchoviella_juruasanga.png", "group": "other", "rarity": 1}, {"lat": -63.1245, "lng": -65.3116, "id": "212649", "name": "Pachyptila desolata", "sprite": "sp-anchoviella_juruasanga.png", "group": "other", "rarity": 1}, {"lat": -63.6305, "lng": -65.804, "id": "236220", "name": "Euphausia triacantha", "sprite": "sp-antarctic_krill.png", "group": "shrimp", "rarity": 1}, {"lat": -64.0333, "lng": -66.4333, "id": "102557", "name": "Cyphocaris richardi", "sprite": "sp-american_lobster.png", "group": "crab_lobster", "rarity": 1}]}