{"zoom": 7, "x": 41, "y": 49, "points": [{"lat": 37.6065, "lng": -62.98, "id": "13703", "name": "Thecosomata", "sprite": "sp-cowrie_shell.png", "group": "sea_snail", "rarity": 1}, {"lat": 37.433, "lng": -63.967, "id": "136064", "name": "Onchnesoma magnibathum", "sprite": "sp-anchoviella_juruasanga.png", "group": "other", "rarity": 1}, {"lat": 36.7683, "lng": -64.54, "id": "306769", "name": "Stomias ferox", "sprite": "sp-anchoviella_juruasanga.png", "group": "other", "rarity": 1, "waterType": "Saltwater"}, {"lat": 38.6, "lng": -63.3165, "id": "280135", "name": "Chaunacops roseus", "sprite": "sp-deep_sea_anglerfish.png", "group": "anglerfish", "rarity": 1, "waterType": "Saltwater"}, {"lat": 37.942, "lng": -62.872, "id": "149093", "name": "Thalassionema nitzschioides", "sprite": "sp-anchoviella_juruasanga.png", "group": "other", "rarity": 1}, {"lat": 38.6023, "lng": -63.3224, "id": "234519", "name": "Liparidae", "sprite": "sp-anchoviella_juruasanga.png", "group": "other", "rarity": 1}, {"lat": 37.1028, "lng": -62.85, "id": "368409", "name": "Batoidea", "sprite": "sp-anchoviella_juruasanga.png", "group": "other", "rarity": 1}, {"lat": 38.3005, "lng": -62.5141, "id": "267770", "name": "Pseudoanthomastus", "sprite": "sp-actiniidae.png", "group": "coral", "rarity": 1}, {"lat": 37.85, "lng": -62.48, "id": "104137", "name": "Augaptilus", "sprite": "sp-anchoviella_juruasanga.png", "group": "other", "rarity": 1}, {"lat": 36.7683, "lng": -64.54, "id": "127333", "name": "Bathophilus vaillanti", "sprite": "sp-anchoviella_juruasanga.png", "group": "other", "rarity": 1, "waterType": "Saltwater"}, {"lat": 36.7683, "lng": -64.54, "id": "127283", "name": "Bristlemouth", "thumb": "tn_Cyalb_u2.gif", "sprite": "sp-anchoviella_juruasanga.png", "group": "other", "rarity": 1, "waterType": "Saltwater"}, {"lat": 38.5006, "lng": -63.4589, "id": "127402", "name": "Longspined porcupinefish", "thumb": "tn_Dihol_u3.jpg", "sprite": "sp-fahaka_pufferfish.png", "group": "pufferfish", "rarity": 1, "waterType": "Saltwater"}, {"lat": 37.85, "lng": -62.48, "id": "104208", "name": "Labidocera", "sprite": "sp-anchoviella_juruasanga.png", "group": "other", "rarity": 1}, {"lat": 38.3007, "lng": -62.5134, "id": "132107", "name": "Farrea", "sprite": "sp-barrel_sponge.png", "group": "sponge", "rarity": 1}, {"lat": 38.3016, "lng": -62.5118, "id": "131688", "name": "Euretidae", "sprite": "sp-barrel_sponge.png", "group": "sponge", "rarity": 1}, {"lat": 37.54, "lng": -62.24, "id": "146142", "name": "Bryozoa", "sprite": "sp-anchoviella_juruasanga.png", "group": "other", "rarity": 1}, {"lat": 36.7683, "lng": -64.54, "id": "126306", "name": "Slender snipe eel", "thumb": "tn_Nesco_u3.jpg", "sprite": "sp-electric_eel.png", "group": "eel", "rarity": 1, "waterType": "Saltwater"}, {"lat": 38.0, "lng": -63.0, "id": "126384", "name": "Oceanic two-wing flyingfish", "thumb": "tn_Exobt_u0.gif", "sprite": "sp-flying_fish.png", "group": "flying_fish", "rarity": 1, "waterType": "Saltwater"}, {"lat": 37.85, "lng": -62.48, "id": "19494", "name": "Hydroidolina", "sprite": "sp-anchoviella_juruasanga.png", "group": "other", "rarity": 1}, {"lat": 38.384, "lng": -63.4775, "id": "220914", "name": "Candacia simplex", "sprite": "sp-anchoviella_juruasanga.png", "group": "other", "rarity": 1}, {"lat": 37.9762, "lng": -63.2252, "id": "137930", "name": "Abralia", "sprite": "sp-giant_pacific_octopus.png", "group": "octopus_squid", "rarity": 1}, {"lat": 37.4583, "lng": -64.1125, "id": "506503", "name": "Yoldiella americana", "sprite": "sp-blue_mussel.png", "group": "clam_mussel", "rarity": 1}, {"lat": 37.482, "lng": -62.655, "id": "104643", "name": "Pleuromamma xiphias", "sprite": "sp-anchoviella_juruasanga.png", "group": "other", "rarity": 1}, {"lat": 38.6015, "lng": -63.3208, "id": "146420", "name": "Tunicata", "sprite": "sp-anchoviella_juruasanga.png", "group": "other", "rarity": 1}, {"lat": 37.7, "lng": -62.2833, "id": "126867", "name": "Oilfish", "thumb": "tn_Rupre_f0.jpg", "sprite": "sp-anchoviella_juruasanga.png", "group": "other", "rarity": 1, "waterType": "Saltwater"}, {"lat": 38.1853, "lng": -63.1098, "id": "128639", "name": "Urocorycaeus", "sprite": "sp-anchoviella_juruasanga.png", "group": "other", "rarity": 1}, {"lat": 38.302, "lng": -62.5114, "id": "126638", "name": "Hawaiian halosaurid fish", "thumb": "tn_Alpha_u0.jpg", "sprite": "sp-anchoviella_juruasanga.png", "group": "other", "rarity": 1, "waterType": "Saltwater"}, {"lat": 38.3, "lng": -62.5148, "id": "125293", "name": "Acanthogorgia", "sprite": "sp-actiniidae.png", "group": "coral", "rarity": 1}, {"lat": 38.0864, "lng": -63.169, "id": "2081", "name": "Chaetognatha", "sprite": "sp-anchoviella_juruasanga.png", "group": "other", "rarity": 1}, {"lat": 38.7683, "lng": -61.92, "id": "341846", "name": "Abraliopsis atlantica", "sprite": "sp-giant_pacific_octopus.png", "group": "octopus_squid", "rarity": 1}, {"lat": 38.8, "lng": -64.0, "id": "159288", "name": "Sergeant-major", "thumb": "tn_Absax_u7.jpg", "sprite": "sp-chrysiptera_caesifrons.png", "group": "clownfish", "rarity": 1, "waterType": "Saltwater"}, {"lat": 37.92, "lng": -63.9333, "id": "137192", "name": "Oceanodroma leucorhoa", "sprite": "sp-anchoviella_juruasanga.png", "group": "other", "rarity": 1}, {"lat": 37.238, "lng": -64.303, "id": "106087", "name": "Lepas", "sprite": "sp-anchoviella_juruasanga.png", "group": "other", "rarity": 1}, {"lat": 37.9833, "lng": -62.0, "id": "138849", "name": "Japetella diaphana", "sprite": "sp-giant_pacific_octopus.png", "group": "octopus_squid", "rarity": 1}, {"lat": 38.2999, "lng": -62.5154, "id": "1116761", "name": "Trachythela rudis", "sprite": "sp-actiniidae.png", "group": "coral", "rarity": 1}, {"lat": 37.85, "lng": -62.48, "id": "128569", "name": "Corycaeidae", "sprite": "sp-anchoviella_juruasanga.png", "group": "other", "rarity": 1}, {"lat": 37.4833, "lng": -64.2333, "id": "139389", "name": "Theta lyronuclea", "sprite": "sp-cowrie_shell.png", "group": "sea_snail", "rarity": 1}, {"lat": 38.5999, "lng": -63.3166, "id": "134023", "name": "Geodia barretti", "sprite": "sp-barrel_sponge.png", "group": "sponge", "rarity": 1}, {"lat": 36.7683, "lng": -64.54, "id": "126604", "name": "Reinhardt's lantern fish", "thumb": "tn_Larei_u1.gif", "sprite": "sp-anchoviella_juruasanga.png", "group": "other", "rarity": 1, "waterType": "Saltwater"}, {"lat": 38.5826, "lng": -63.2692, "id": "559", "name": "Calcarea", "sprite": "sp-barrel_sponge.png", "group": "sponge", "rarity": 1}, {"lat": 38.7683, "lng": -61.92, "id": "341781", "name": "Haliphron atlanticus", "sprite": "sp-giant_pacific_octopus.png", "group": "octopus_squid", "rarity": 1}, {"lat": 36.7683, "lng": -64.54, "id": "126619", "name": "Pygmy lanternfish", "thumb": "tn_Lapus_u0.jpg", "sprite": "sp-anchoviella_juruasanga.png", "group": "other", "rarity": 1, "waterType": "Saltwater"}, {"lat": 38.5775, "lng": -62.8633, "id": "225573", "name": "Ornithoteuthis antillarum", "sprite": "sp-giant_pacific_octopus.png", "group": "octopus_squid", "rarity": 1}, {"lat": 36.7683, "lng": -64.54, "id": "126631", "name": "Deepwater lanternfish", "thumb": "tn_Tabat_u0.jpg", "sprite": "sp-anchoviella_juruasanga.png", "group": "other", "rarity": 1, "waterType": "Saltwater"}, {"lat": 37.85, "lng": -62.48, "id": "104202", "name": "Phaenna", "sprite": "sp-anchoviella_juruasanga.png", "group": "other", "rarity": 1}, {"lat": 38.2052, "lng": -63.7801, "id": "137194", "name": "Calonectris diomedea", "sprite": "sp-anchoviella_juruasanga.png", "group": "other", "rarity": 1}, {"lat": 37.2521, "lng": -62.7083, "id": "105839", "name": "Shortfin mako", "thumb": "tn_Isoxy_u0.jpg", "sprite": "sp-great_white_shark.png", "group": "shark", "rarity": 1, "waterType": "Saltwater"}, {"lat": 36.7683, "lng": -64.54, "id": "127302", "name": "Slender lightfish", "thumb": "tn_Viatt_u1.gif", "sprite": "sp-anchoviella_juruasanga.png", "group": "other", "rarity": 1, "waterType": "Saltwater"}, {"lat": 38.6017, "lng": -63.3207, "id": "171849", "name": "Amphidiscella", "sprite": "sp-barrel_sponge.png", "group": "sponge", "rarity": 1}, {"lat": 38.2769, "lng": -62.8813, "id": "558", "name": "Porifera", "sprite": "sp-barrel_sponge.png", "group": "sponge", "rarity": 1}, {"lat": 36.7683, "lng": -64.54, "id": "280152", "name": "Seagrass eel", "sprite": "sp-electric_eel.png", "group": "eel", "rarity": 1, "waterType": "Saltwater"}, {"lat": 38.358, "lng": -63.6735, "id": "104483", "name": "Candacia pachydactyla", "sprite": "sp-anchoviella_juruasanga.png", "group": "other", "rarity": 1}, {"lat": 36.7683, "lng": -64.54, "id": "127298", "name": "Lightfish", "thumb": "tn_Icova_u0.jpg", "sprite": "sp-anchoviella_juruasanga.png", "group": "other", "rarity": 1, "waterType": "Saltwater"}, {"lat": 38.788, "lng": -64.1317, "id": "183316", "name": "Ophioplinthaca abyssalis", "sprite": "sp-sea_cucumber.png", "group": "starfish", "rarity": 1}, {"lat": 37.4833, "lng": -64.2333, "id": "506244", "name": "Neilonella erebus", "sprite": "sp-blue_mussel.png", "group": "clam_mussel", "rarity": 1}, {"lat": 38.4932, "lng": -62.7491, "id": "135159", "name": "Desmophyllum dianthus", "sprite": "sp-actiniidae.png", "group": "coral", "rarity": 1}, {"lat": 38.275, "lng": -63.8665, "id": "135982", "name": "Pandarus cranchii", "sprite": "sp-anchoviella_juruasanga.png", "group": "other", "rarity": 1}, {"lat": 38.601, "lng": -63.3187, "id": "22612", "name": "Hexactinellida", "sprite": "sp-barrel_sponge.png", "group": "sponge", "rarity": 1}, {"lat": 37.29, "lng": -64.52, "id": "263526", "name": "Thylakogaster lobotourus", "sprite": "sp-american_lobster.png", "group": "crab_lobster", "rarity": 1}, {"lat": 38.6011, "lng": -63.3205, "id": "1609360", "name": "Pennatuloidea", "sprite": "sp-actiniidae.png", "group": "coral", "rarity": 1}, {"lat": 38.3062, "lng": -62.5297, "id": "132115", "name": "Hertwigia", "sprite": "sp-barrel_sponge.png", "group": "sponge", "rarity": 1}, {"lat": 37.8605, "lng": -63.572, "id": "370366", "name": "Chaetoceros (Hyalochaete)", "sprite": "sp-anchoviella_juruasanga.png", "group": "other", "rarity": 1}, {"lat": 37.4583, "lng": -64.1125, "id": "506210", "name": "Katadesmia polita", "sprite": "sp-blue_mussel.png", "group": "clam_mussel", "rarity": 1}, {"lat": 38.5999, "lng": -63.3152, "id": "269094", "name": "Eretmichthys", "sprite": "sp-anchoviella_juruasanga.png", "group": "other", "rarity": 1}, {"lat": 37.5194, "lng": -62.375, "id": "105841", "name": "Porbeagle", "thumb": "tn_Lanas_u2.jpg", "sprite": "sp-great_white_shark.png", "group": "shark", "rarity": 1, "waterType": "Saltwater"}, {"lat": 38.6175, "lng": -62.7083, "id": "840627", "name": "Tripos furca", "sprite": "sp-anchoviella_juruasanga.png", "group": "other", "rarity": 1}, {"lat": 38.788, "lng": -64.132, "id": "124956", "name": "Ophiocreas oedipus", "sprite": "sp-sea_cucumber.png", "group": "starfish", "rarity": 1}, {"lat": 38.4606, "lng": -63.0816, "id": "163030", "name": "Phaeoceros", "sprite": "sp-anchoviella_juruasanga.png", "group": "other", "rarity": 1}, {"lat": 38.7859, "lng": -64.0471, "id": "125307", "name": "Lepidisis", "sprite": "sp-actiniidae.png", "group": "coral", "rarity": 1}, {"lat": 38.2996, "lng": -62.5159, "id": "158993", "name": "Diplacanthopoma", "sprite": "sp-anchoviella_juruasanga.png", "group": "other", "rarity": 1}, {"lat": 37.85, "lng": -62.48, "id": "137217", "name": "Salpidae", "sprite": "sp-anchoviella_juruasanga.png", "group": "other", "rarity": 1}, {"lat": 38.4081, "lng": -63.1958, "id": "136998", "name": "Procellariidae", "sprite": "sp-anchoviella_juruasanga.png", "group": "other", "rarity": 1}, {"lat": 37.4833, "lng": -64.2333, "id": "140847", "name": "Pristigloma nitens", "sprite": "sp-blue_mussel.png", "group": "clam_mussel", "rarity": 1}, {"lat": 38.6013, "lng": -63.3213, "id": "131694", "name": "Rossellidae", "sprite": "sp-barrel_sponge.png", "group": "sponge", "rarity": 1}, {"lat": 37.85, "lng": -62.48, "id": "387338", "name": "Pterotracheoidea", "sprite": "sp-cowrie_shell.png", "group": "sea_snail", "rarity": 1}, {"lat": 37.85, "lng": -62.48, "id": "104230", "name": "Scolecithrix", "sprite": "sp-anchoviella_juruasanga.png", "group": "other", "rarity": 1}, {"lat": 37.4833, "lng": -64.2333, "id": "182795", "name": "Ledella", "sprite": "sp-blue_mussel.png", "group": "clam_mussel", "rarity": 1}, {"lat": 37.9804, "lng": -63.2298, "id": "148912", "name": "Thalassiosira", "sprite": "sp-anchoviella_juruasanga.png", "group": "other", "rarity": 1}, {"lat": 38.5533, "lng": -63.1925, "id": "169507", "name": "Stelodoryx", "sprite": "sp-barrel_sponge.png", "group": "sponge", "rarity": 1}, {"lat": 36.7683, "lng": -64.54, "id": "127375", "name": "Stomias brevibarbatus", "thumb": "tn_Stbre_u0.gif", "sprite": "sp-anchoviella_juruasanga.png", "group": "other", "rarity": 1, "waterType": "Saltwater"}, {"lat": 38.133, "lng": -63.983, "id": "225818", "name": "Megalocranchia oceanica", "sprite": "sp-giant_pacific_octopus.png", "group": "octopus_squid", "rarity": 1}, {"lat": 37.425, "lng": -63.9792, "id": "140880", "name": "Benthobia tryonii", "sprite": "sp-cowrie_shell.png", "group": "sea_snail", "rarity": 1}, {"lat": 37.85, "lng": -62.48, "id": "128595", "name": "Sapphirinidae", "sprite": "sp-anchoviella_juruasanga.png", "group": "other", "rarity": 1}, {"lat": 38.4626, "lng": -62.9524, "id": "22549", "name": "Antipatharia", "sprite": "sp-actiniidae.png", "group": "coral", "rarity": 1}, {"lat": 38.242, "lng": -63.2326, "id": "1100", "name": "Calanoida", "sprite": "sp-anchoviella_juruasanga.png", "group": "other", "rarity": 1}, {"lat": 36.7683, "lng": -64.54, "id": "127338", "name": "Sloane's viperfish", "thumb": "tn_Chslo_u5.jpg", "sprite": "sp-anchoviella_juruasanga.png", "group": "other", "rarity": 1, "waterType": "Saltwater"}, {"lat": 36.7683, "lng": -64.54, "id": "126359", "name": "Duckbill barracudina", "thumb": "tn_Maatl_u0.jpg", "sprite": "sp-anchoviella_juruasanga.png", "group": "other", "rarity": 1, "waterType": "Saltwater"}, {"lat": 38.2977, "lng": -62.5182, "id": "125748", "name": "Coryphaenoides", "sprite": "sp-anchoviella_juruasanga.png", "group": "other", "rarity": 1}, {"lat": 36.7683, "lng": -64.54, "id": "127278", "name": "Bean's bigscale", "thumb": "tn_Scbea_u0.gif", "sprite": "sp-anchoviella_juruasanga.png", "group": "other", "rarity": 1, "waterType": "Saltwater"}, {"lat": 38.0083, "lng": -61.9933, "id": "141446", "name": "Heteroteuthis dispar", "sprite": "sp-giant_pacific_octopus.png", "group": "octopus_squid", "rarity": 1}, {"lat": 38.0093, "lng": -63.4923, "id": "1205", "name": "Hyperiidea", "sprite": "sp-american_lobster.png", "group": "crab_lobster", "rarity": 1}, {"lat": 38.3004, "lng": -62.5141, "id": "134402", "name": "Hertwigia falcifera", "sprite": "sp-barrel_sponge.png", "group": "sponge", "rarity": 1}, {"lat": 38.2976, "lng": -62.5185, "id": "125474", "name": "Moridae", "sprite": "sp-anchoviella_juruasanga.png", "group": "other", "rarity": 1}, {"lat": 37.9283, "lng": -63.6964, "id": "137190", "name": "Oceanites oceanicus", "sprite": "sp-anchoviella_juruasanga.png", "group": "other", "rarity": 1}, {"lat": 38.2915, "lng": -64.1585, "id": "137024", "name": "Stenella", "sprite": "sp-bottlenose_dolphin.png", "group": "dolphin", "rarity": 1}, {"lat": 36.7683, "lng": -64.54, "id": "126282", "name": "Bicolor eel", "thumb": "tn_Chbic_u0.jpg", "sprite": "sp-electric_eel.png", "group": "eel", "rarity": 1, "waterType": "Saltwater"}, {"lat": 37.85, "lng": -62.48, "id": "958", "name": "Tomopteridae", "sprite": "sp-anchoviella_juruasanga.png", "group": "other", "rarity": 1}, {"lat": 37.9055, "lng": -63.0919, "id": "1128", "name": "Euphausiacea", "sprite": "sp-antarctic_krill.png", "group": "shrimp", "rarity": 1}, {"lat": 38.123, "lng": -62.8428, "id": "104157", "name": "Candacia", "sprite": "sp-anchoviella_juruasanga.png", "group": "other", "rarity": 1}, {"lat": 37.85, "lng": -62.48, "id": "1818", "name": "Hemichordata", "sprite": "sp-anchoviella_juruasanga.png", "group": "other", "rarity": 1}, {"lat": 38.2993, "lng": -62.5161, "id": "125277", "name": "Plexauridae", "sprite": "sp-actiniidae.png", "group": "coral", "rarity": 1}, {"lat": 36.7683, "lng": -64.54, "id": "158902", "name": "Metallic lantern fish", "thumb": "tn_Myaff_u0.jpg", "sprite": "sp-anchoviella_juruasanga.png", "group": "other", "rarity": 1, "waterType": "Brackish"}, {"lat": 36.7683, "lng": -64.54, "id": "126320", "name": "Bronze sawtooth eel", "thumb": "tn_Selan_u0.gif", "sprite": "sp-electric_eel.png", "group": "eel", "rarity": 1, "waterType": "Saltwater"}, {"lat": 38.6024, "lng": -63.3223, "id": "134391", "name": "Farrea occa", "sprite": "sp-barrel_sponge.png", "group": "sponge", "rarity": 1}, {"lat": 37.4583, "lng": -64.1125, "id": "506205", "name": "Clencharia abyssorum", "sprite": "sp-blue_mussel.png", "group": "clam_mussel", "rarity": 1}, {"lat": 38.7683, "lng": -61.92, "id": "138747", "name": "Ancistrocheirus lesueurii", "sprite": "sp-giant_pacific_octopus.png", "group": "octopus_squid", "rarity": 1}, {"lat": 37.4333, "lng": -63.9833, "id": "182240", "name": "Mesolamprops abyssalis", "sprite": "sp-american_lobster.png", "group": "crab_lobster", "rarity": 1}, {"lat": 37.5325, "lng": -63.3895, "id": "125620", "name": "Anguilla", "sprite": "sp-electric_eel.png", "group": "eel", "rarity": 1}, {"lat": 37.85, "lng": -62.48, "id": "104112", "name": "Aetideus", "sprite": "sp-anchoviella_juruasanga.png", "group": "other", "rarity": 1}, {"lat": 38.601, "lng": -63.3191, "id": "286310", "name": "Isidella trichotoma", "sprite": "sp-actiniidae.png", "group": "coral", "rarity": 1}, {"lat": 37.85, "lng": -62.48, "id": "104106", "name": "Temoridae", "sprite": "sp-anchoviella_juruasanga.png", "group": "other", "rarity": 1}, {"lat": 38.377, "lng": -62.7143, "id": "125471", "name": "Macrouridae", "sprite": "sp-anchoviella_juruasanga.png", "group": "other", "rarity": 1}, {"lat": 38.0248, "lng": -63.3046, "id": "104161", "name": "Clausocalanus", "sprite": "sp-anchoviella_juruasanga.png", "group": "other", "rarity": 1}, {"lat": 37.425, "lng": -63.9792, "id": "101410", "name": "Synopiidae", "sprite": "sp-american_lobster.png", "group": "crab_lobster", "rarity": 1}, {"lat": 38.3016, "lng": -62.5123, "id": "125303", "name": "Acanella", "sprite": "sp-actiniidae.png", "group": "coral", "rarity": 1}, {"lat": 36.7683, "lng": -64.54, "id": "126319", "name": "Stout sawpalate", "thumb": "tn_Sebea_u2.jpg", "sprite": "sp-electric_eel.png", "group": "eel", "rarity": 1, "waterType": "Saltwater"}, {"lat": 38.3007, "lng": -62.5131, "id": "125418", "name": "Paragorgia arborea", "sprite": "sp-actiniidae.png", "group": "coral", "rarity": 1}, {"lat": 36.7683, "lng": -64.54, "id": "126606", "name": "Anomalous lanternfish", "thumb": "tn_Laano_m0.gif", "sprite": "sp-anchoviella_juruasanga.png", "group": "other", "rarity": 1, "waterType": "Saltwater"}, {"lat": 38.58, "lng": -63.5, "id": "159343", "name": "Blackfin tuna", "thumb": "tn_Thatl_u4.jpg", "sprite": "sp-bluefin_tuna.png", "group": "tuna_mackerel", "rarity": 1, "waterType": "Saltwater"}, {"lat": 36.7683, "lng": -64.54, "id": "126613", "name": "Lampanyctus cuprarius", "sprite": "sp-anchoviella_juruasanga.png", "group": "other", "rarity": 1, "waterType": "Saltwater"}]}