{"zoom": 7, "x": 41, "y": 65, "points": [{"lat": -3.3098, "lng": -64.5815, "id": "154427", "name": "Pimelodidae", "sprite": "sp-blue_catfish.png", "group": "catfish", "rarity": 1}, {"lat": -4.133, "lng": -63.116, "id": "1821", "name": "Chordata", "sprite": "sp-anchoviella_juruasanga.png", "group": "other", "rarity": 1}, {"lat": -3.8333, "lng": -62.0833, "id": "255026", "name": "Trichechus inunguis", "sprite": "sp-giant_river_otter.png", "group": "sea_otter", "rarity": 1}, {"lat": -3.3256, "lng": -64.5383, "id": "270412", "name": "Pimelodus", "sprite": "sp-blue_catfish.png", "group": "catfish", "rarity": 1}, {"lat": -3.325, "lng": -64.6744, "id": "282263", "name": "Bloch's catfish", "thumb": "tn_Piblo_u1.jpg", "sprite": "sp-blue_catfish.png", "group": "catfish", "rarity": 1, "waterType": "Brackish"}]}