{"zoom": 7, "x": 42, "y": 51, "points": [{"lat": 32.4058, "lng": -60.38, "id": "110691", "name": "Nematobrachion boopis", "sprite": "sp-antarctic_krill.png", "group": "shrimp", "rarity": 1}, {"lat": 32.4058, "lng": -60.38, "id": "110712", "name": "Thysanopoda acutifrons", "sprite": "sp-antarctic_krill.png", "group": "shrimp", "rarity": 1}, {"lat": 32.4058, "lng": -60.38, "id": "135448", "name": "Sulculeolaria turgida", "sprite": "sp-anchoviella_juruasanga.png", "group": "other", "rarity": 1}, {"lat": 32.4058, "lng": -60.38, "id": "127286", "name": "Veiled anglemouth", "thumb": "tn_Cymic_u5.jpg", "sprite": "sp-anchoviella_juruasanga.png", "group": "other", "rarity": 1, "waterType": "Saltwater"}, {"lat": 32.3444, "lng": -60.065, "id": "107597", "name": "Meningodora vesca", "sprite": "sp-american_lobster.png", "group": "crab_lobster", "rarity": 1}, {"lat": 32.3833, "lng": -59.45, "id": "125960", "name": "Coryphaena", "sprite": "sp-anchoviella_juruasanga.png", "group": "other", "rarity": 1}, {"lat": 32.3839, "lng": -60.3865, "id": "127861", "name": "Proceroecia procera", "sprite": "sp-anchoviella_juruasanga.png", "group": "other", "rarity": 1}, {"lat": 32.4058, "lng": -60.38, "id": "126595", "name": "Soft lanternfish", "thumb": "tn_Dimol_u0.jpg", "sprite": "sp-anchoviella_juruasanga.png", "group": "other", "rarity": 1, "waterType": "Saltwater"}, {"lat": 32.4058, "lng": -60.38, "id": "126603", "name": "Bermuda lantern fish", "thumb": "tn_Hyhyg_u1.jpg", "sprite": "sp-anchoviella_juruasanga.png", "group": "other", "rarity": 1, "waterType": "Saltwater"}, {"lat": 32.4058, "lng": -60.38, "id": "135449", "name": "Hippopodius hippopus", "sprite": "sp-anchoviella_juruasanga.png", "group": "other", "rarity": 1}, {"lat": 32.4058, "lng": -60.38, "id": "363803", "name": "Oncaea venusta typica", "sprite": "sp-anchoviella_juruasanga.png", "group": "other", "rarity": 1}, {"lat": 34.0, "lng": -60.333, "id": "2688", "name": "Cetacea", "sprite": "sp-anchoviella_juruasanga.png", "group": "other", "rarity": 1}, {"lat": 32.4058, "lng": -60.38, "id": "127358", "name": "Stoplight loosejaw", "thumb": "tn_Manig_u6.jpg", "sprite": "sp-anchoviella_juruasanga.png", "group": "other", "rarity": 1, "waterType": "Saltwater"}, {"lat": 32.3839, "lng": -60.3865, "id": "127776", "name": "Conchoecilla daphnoides", "sprite": "sp-anchoviella_juruasanga.png", "group": "other", "rarity": 1}, {"lat": 32.3668, "lng": -59.9811, "id": "514117", "name": "Deosergestes corniculum", "sprite": "sp-american_lobster.png", "group": "crab_lobster", "rarity": 1}, {"lat": 32.4058, "lng": -60.38, "id": "135351", "name": "Abyla", "sprite": "sp-anchoviella_juruasanga.png", "group": "other", "rarity": 1}, {"lat": 32.4058, "lng": -60.38, "id": "110706", "name": "Stylocheiron suhmii", "sprite": "sp-antarctic_krill.png", "group": "shrimp", "rarity": 1}, {"lat": 32.4058, "lng": -60.38, "id": "126586", "name": "Warming's lantern fish", "thumb": "tn_Cewar_u0.jpg", "sprite": "sp-anchoviella_juruasanga.png", "group": "other", "rarity": 1, "waterType": "Saltwater"}, {"lat": 32.3839, "lng": -60.3865, "id": "127841", "name": "Paraconchoecia inermis", "sprite": "sp-anchoviella_juruasanga.png", "group": "other", "rarity": 1}, {"lat": 32.7733, "lng": -59.195, "id": "1026283", "name": "Sphaeroidinellopsis seminulina", "sprite": "sp-anchoviella_juruasanga.png", "group": "other", "rarity": 1}, {"lat": 32.283, "lng": -59.75, "id": "107086", "name": "Bentheogennema intermedia", "sprite": "sp-american_lobster.png", "group": "crab_lobster", "rarity": 1}, {"lat": 32.4058, "lng": -60.38, "id": "125447", "name": "Paralepididae", "sprite": "sp-anchoviella_juruasanga.png", "group": "other", "rarity": 1}, {"lat": 32.4058, "lng": -60.38, "id": "126613", "name": "Lampanyctus cuprarius", "sprite": "sp-anchoviella_juruasanga.png", "group": "other", "rarity": 1, "waterType": "Saltwater"}, {"lat": 32.3839, "lng": -60.3865, "id": "127777", "name": "Conchoecissa ametra", "sprite": "sp-anchoviella_juruasanga.png", "group": "other", "rarity": 1}, {"lat": 32.362, "lng": -60.393, "id": "127811", "name": "Metaconchoecia obtusa", "sprite": "sp-anchoviella_juruasanga.png", "group": "other", "rarity": 1}, {"lat": 32.4, "lng": -60.393, "id": "2", "name": "Animalia", "sprite": "sp-anchoviella_juruasanga.png", "group": "other", "rarity": 1}, {"lat": 32.4058, "lng": -60.38, "id": "110686", "name": "Euphausia hemigibba", "sprite": "sp-antarctic_krill.png", "group": "shrimp", "rarity": 1}, {"lat": 32.4058, "lng": -60.38, "id": "126602", "name": "Benoit's lanternfish", "thumb": "tn_Hyben_m0.jpg", "sprite": "sp-anchoviella_juruasanga.png", "group": "other", "rarity": 1, "waterType": "Saltwater"}, {"lat": 32.4058, "lng": -60.38, "id": "110719", "name": "Thysanopoda obtusifrons", "sprite": "sp-antarctic_krill.png", "group": "shrimp", "rarity": 1}, {"lat": 32.4058, "lng": -60.38, "id": "127272", "name": "Poromitra capito", "thumb": "tn_Pocap_u0.gif", "sprite": "sp-anchoviella_juruasanga.png", "group": "other", "rarity": 1, "waterType": "Saltwater"}, {"lat": 32.7733, "lng": -59.195, "id": "1455327", "name": "Globorotalia (Truncorotalia) crassaformis", "sprite": "sp-anchoviella_juruasanga.png", "group": "other", "rarity": 1}, {"lat": 32.4058, "lng": -60.38, "id": "125672", "name": "Scopelosaurus", "sprite": "sp-anchoviella_juruasanga.png", "group": "other", "rarity": 1}, {"lat": 32.4058, "lng": -60.38, "id": "135456", "name": "Amphicaryon peltifera", "sprite": "sp-anchoviella_juruasanga.png", "group": "other", "rarity": 1}, {"lat": 32.4058, "lng": -60.38, "id": "135490", "name": "Halistemma rubrum", "sprite": "sp-anchoviella_juruasanga.png", "group": "other", "rarity": 1}, {"lat": 32.4058, "lng": -60.38, "id": "135461", "name": "Nectadamas diomedeae", "sprite": "sp-anchoviella_juruasanga.png", "group": "other", "rarity": 1}, {"lat": 32.3839, "lng": -60.3865, "id": "127716", "name": "Macrocypridina castanea", "sprite": "sp-anchoviella_juruasanga.png", "group": "other", "rarity": 1}, {"lat": 32.3617, "lng": -60.3933, "id": "175691", "name": "Archiconchoecissa", "sprite": "sp-anchoviella_juruasanga.png", "group": "other", "rarity": 1}, {"lat": 32.4058, "lng": -60.38, "id": "363588", "name": "Oncaea venusta venella", "sprite": "sp-anchoviella_juruasanga.png", "group": "other", "rarity": 1}, {"lat": 32.4058, "lng": -60.38, "id": "1649781", "name": "Hansarsia", "sprite": "sp-antarctic_krill.png", "group": "shrimp", "rarity": 1}, {"lat": 32.7733, "lng": -59.195, "id": "221331", "name": "Pulleniatina obliquiloculata", "sprite": "sp-anchoviella_juruasanga.png", "group": "other", "rarity": 1}, {"lat": 32.4058, "lng": -60.38, "id": "221052", "name": "Euphausia tenera", "sprite": "sp-antarctic_krill.png", "group": "shrimp", "rarity": 1}, {"lat": 32.3963, "lng": -60.21, "id": "1056517", "name": "Robustosergia robusta", "sprite": "sp-american_lobster.png", "group": "crab_lobster", "rarity": 1}, {"lat": 32.4058, "lng": -60.38, "id": "126398", "name": "Silver spinyfin", "thumb": "tn_Diarg_u5.jpg", "sprite": "sp-anchoviella_juruasanga.png", "group": "other", "rarity": 1, "waterType": "Saltwater"}, {"lat": 32.4058, "lng": -60.38, "id": "135412", "name": "Clausophyes moserae", "sprite": "sp-anchoviella_juruasanga.png", "group": "other", "rarity": 1}, {"lat": 32.4058, "lng": -60.38, "id": "135436", "name": "Lensia multicristata", "sprite": "sp-anchoviella_juruasanga.png", "group": "other", "rarity": 1}, {"lat": 32.6688, "lng": -60.3583, "id": "125620", "name": "Anguilla", "sprite": "sp-electric_eel.png", "group": "eel", "rarity": 1}, {"lat": 32.4058, "lng": -60.38, "id": "125830", "name": "Notolychnus", "sprite": "sp-anchoviella_juruasanga.png", "group": "other", "rarity": 1}, {"lat": 32.4058, "lng": -60.38, "id": "126594", "name": "Spothead lantern fish", "thumb": "tn_Dimet_u0.jpg", "sprite": "sp-anchoviella_juruasanga.png", "group": "other", "rarity": 1, "waterType": "Saltwater"}, {"lat": 32.9833, "lng": -59.6083, "id": "105840", "name": "Longfin mako", "thumb": "tn_Ispau_u2.jpg", "sprite": "sp-great_white_shark.png", "group": "shark", "rarity": 1, "waterType": "Saltwater"}, {"lat": 32.4058, "lng": -60.38, "id": "107595", "name": "Meningodora miccyla", "sprite": "sp-american_lobster.png", "group": "crab_lobster", "rarity": 1}, {"lat": 33.575, "lng": -59.6833, "id": "126954", "name": "Longbill spearfish", "thumb": "tn_Tepfl_u1.jpg", "sprite": "sp-blue_marlin.png", "group": "swordfish", "rarity": 1, "waterType": "Saltwater"}, {"lat": 32.3839, "lng": -60.3865, "id": "127825", "name": "Mollicia kampta", "sprite": "sp-anchoviella_juruasanga.png", "group": "other", "rarity": 1}, {"lat": 32.362, "lng": -60.393, "id": "175693", "name": "Archiconchoecissa cucullata", "sprite": "sp-anchoviella_juruasanga.png", "group": "other", "rarity": 1}, {"lat": 32.4058, "lng": -60.38, "id": "127794", "name": "Halocypris inflata", "sprite": "sp-anchoviella_juruasanga.png", "group": "other", "rarity": 1}, {"lat": 33.0333, "lng": -59.7333, "id": "127354", "name": "Ribbon sawtail fish", "thumb": "tn_Idfas_u1.jpg", "sprite": "sp-anchoviella_juruasanga.png", "group": "other", "rarity": 1, "waterType": "Saltwater"}, {"lat": 32.3912, "lng": -60.3843, "id": "127845", "name": "Paraconchoecia oblonga", "sprite": "sp-anchoviella_juruasanga.png", "group": "other", "rarity": 1}, {"lat": 33.9142, "lng": -59.7321, "id": "126852", "name": "Marlin sucker", "thumb": "tn_Reost_u3.jpg", "sprite": "sp-anchoviella_juruasanga.png", "group": "other", "rarity": 1, "waterType": "Saltwater"}, {"lat": 32.4058, "lng": -60.38, "id": "126201", "name": "Aristostomias", "sprite": "sp-anchoviella_juruasanga.png", "group": "other", "rarity": 1}, {"lat": 32.362, "lng": -60.393, "id": "127800", "name": "Macroconchoecia reticulata", "sprite": "sp-anchoviella_juruasanga.png", "group": "other", "rarity": 1}, {"lat": 32.4058, "lng": -60.38, "id": "127304", "name": "Power's deep-water bristle-mouth fish", "thumb": "tn_Vipow_u0.gif", "sprite": "sp-anchoviella_juruasanga.png", "group": "other", "rarity": 1, "waterType": "Saltwater"}, {"lat": 33.7, "lng": -59.7, "id": "126861", "name": "Striped escolar", "thumb": "tn_Dimul_u1.jpg", "sprite": "sp-anchoviella_juruasanga.png", "group": "other", "rarity": 1, "waterType": "Saltwater"}, {"lat": 32.3839, "lng": -60.3865, "id": "127813", "name": "Metaconchoecia rotundata", "sprite": "sp-anchoviella_juruasanga.png", "group": "other", "rarity": 1}, {"lat": 32.4058, "lng": -60.38, "id": "135465", "name": "Nectopyramis thetis", "sprite": "sp-anchoviella_juruasanga.png", "group": "other", "rarity": 1}, {"lat": 32.8683, "lng": -59.5717, "id": "126867", "name": "Oilfish", "thumb": "tn_Rupre_f0.jpg", "sprite": "sp-anchoviella_juruasanga.png", "group": "other", "rarity": 1, "waterType": "Saltwater"}, {"lat": 32.4058, "lng": -60.38, "id": "110702", "name": "Stylocheiron elongatum", "sprite": "sp-antarctic_krill.png", "group": "shrimp", "rarity": 1}, {"lat": 32.3428, "lng": -60.0368, "id": "1056510", "name": "Phorcosergia grandis", "sprite": "sp-american_lobster.png", "group": "crab_lobster", "rarity": 1}, {"lat": 32.7733, "lng": -59.195, "id": "113453", "name": "Globorotalia truncatulinoides", "sprite": "sp-anchoviella_juruasanga.png", "group": "other", "rarity": 1}, {"lat": 32.4058, "lng": -60.38, "id": "196656", "name": "Abylopsis eschscholtzii", "sprite": "sp-anchoviella_juruasanga.png", "group": "other", "rarity": 1}, {"lat": 32.3202, "lng": -60.0133, "id": "107605", "name": "Systellaspis debilis", "sprite": "sp-american_lobster.png", "group": "crab_lobster", "rarity": 1}, {"lat": 32.4058, "lng": -60.38, "id": "135420", "name": "Diphyes dispar", "sprite": "sp-anchoviella_juruasanga.png", "group": "other", "rarity": 1}, {"lat": 32.4251, "lng": -60.0, "id": "273823", "name": "Pacific bluefin tuna", "thumb": "tn_Thori_u1.gif", "sprite": "sp-bluefin_tuna.png", "group": "tuna_mackerel", "rarity": 1, "waterType": "Brackish"}, {"lat": 32.4058, "lng": -60.38, "id": "110721", "name": "Thysanopoda tricuspidata", "sprite": "sp-antarctic_krill.png", "group": "shrimp", "rarity": 1}, {"lat": 32.4058, "lng": -60.38, "id": "135429", "name": "Lensia fowleri", "sprite": "sp-anchoviella_juruasanga.png", "group": "other", "rarity": 1}, {"lat": 32.362, "lng": -60.393, "id": "127807", "name": "Metaconchoecia inflata", "sprite": "sp-anchoviella_juruasanga.png", "group": "other", "rarity": 1}, {"lat": 32.3, "lng": -59.875, "id": "107100", "name": "Funchalia villosa", "sprite": "sp-american_lobster.png", "group": "crab_lobster", "rarity": 1}, {"lat": 32.4058, "lng": -60.38, "id": "110717", "name": "Thysanopoda microphthalma", "sprite": "sp-antarctic_krill.png", "group": "shrimp", "rarity": 1}, {"lat": 32.3839, "lng": -60.3865, "id": "127830", "name": "Orthoconchoecia bispinosa", "sprite": "sp-anchoviella_juruasanga.png", "group": "other", "rarity": 1}, {"lat": 32.4058, "lng": -60.38, "id": "120065", "name": "Longithorax nouveli", "sprite": "sp-american_lobster.png", "group": "crab_lobster", "rarity": 1}, {"lat": 32.4058, "lng": -60.38, "id": "387273", "name": "Kephyes ovata", "sprite": "sp-anchoviella_juruasanga.png", "group": "other", "rarity": 1}, {"lat": 32.7733, "lng": -59.195, "id": "1026407", "name": "Globorotalia plesiotumida", "sprite": "sp-anchoviella_juruasanga.png", "group": "other", "rarity": 1}, {"lat": 32.3254, "lng": -60.0445, "id": "107582", "name": "Acanthephyra purpurea", "sprite": "sp-american_lobster.png", "group": "crab_lobster", "rarity": 1}, {"lat": 32.4058, "lng": -60.38, "id": "236221", "name": "Thysanoessa vicina", "sprite": "sp-antarctic_krill.png", "group": "shrimp", "rarity": 1}, {"lat": 32.4058, "lng": -60.38, "id": "135393", "name": "Apolemia", "sprite": "sp-anchoviella_juruasanga.png", "group": "other", "rarity": 1}, {"lat": 32.3963, "lng": -60.21, "id": "107138", "name": "Sergia tenuiremis", "sprite": "sp-american_lobster.png", "group": "crab_lobster", "rarity": 1}, {"lat": 32.3839, "lng": -60.3865, "id": "127793", "name": "Halocypria globosa", "sprite": "sp-anchoviella_juruasanga.png", "group": "other", "rarity": 1}, {"lat": 32.075, "lng": -59.475, "id": "712906", "name": "Atlantic white marlin", "thumb": "tn_Tealb_u1.jpg", "sprite": "sp-blue_marlin.png", "group": "swordfish", "rarity": 1, "waterType": "Saltwater"}, {"lat": 32.4058, "lng": -60.38, "id": "125650", "name": "Serrivomer", "sprite": "sp-electric_eel.png", "group": "eel", "rarity": 1}, {"lat": 32.4058, "lng": -60.38, "id": "126618", "name": "Lampanyctus photonotus", "thumb": "tn_Lapho_u0.gif", "sprite": "sp-anchoviella_juruasanga.png", "group": "other", "rarity": 1, "waterType": "Saltwater"}, {"lat": 32.3839, "lng": -60.3865, "id": "127773", "name": "Conchoecia magna", "sprite": "sp-anchoviella_juruasanga.png", "group": "other", "rarity": 1}, {"lat": 32.4058, "lng": -60.38, "id": "125567", "name": "Stromateidae", "sprite": "sp-anchoviella_juruasanga.png", "group": "other", "rarity": 1}, {"lat": 32.4058, "lng": -60.38, "id": "127325", "name": "Astronesthes macropogon", "thumb": "tn_Asmac_u2.jpg", "sprite": "sp-anchoviella_juruasanga.png", "group": "other", "rarity": 1, "waterType": "Saltwater"}, {"lat": 32.7733, "lng": -59.195, "id": "235923", "name": "Calcidiscus leptoporus", "sprite": "sp-anchoviella_juruasanga.png", "group": "other", "rarity": 1}, {"lat": 33.7881, "lng": -59.4983, "id": "126629", "name": "Topside lampfish", "thumb": "tn_Noval_m0.gif", "sprite": "sp-anchoviella_juruasanga.png", "group": "other", "rarity": 1, "waterType": "Saltwater"}, {"lat": 32.4058, "lng": -60.38, "id": "135439", "name": "Lensia subtilis", "sprite": "sp-anchoviella_juruasanga.png", "group": "other", "rarity": 1}, {"lat": 32.6917, "lng": -59.425, "id": "126953", "name": "Roundscale spearfish", "thumb": "tn_Tegeo_u0.gif", "sprite": "sp-blue_marlin.png", "group": "swordfish", "rarity": 1, "waterType": "Saltwater"}, {"lat": 32.4058, "lng": -60.38, "id": "110713", "name": "Thysanopoda aequalis", "sprite": "sp-antarctic_krill.png", "group": "shrimp", "rarity": 1}, {"lat": 32.3536, "lng": -60.0315, "id": "514114", "name": "Allosergestes sargassi", "sprite": "sp-american_lobster.png", "group": "crab_lobster", "rarity": 1}, {"lat": 32.3131, "lng": -60.0191, "id": "107097", "name": "Gennadas tinayrei", "sprite": "sp-american_lobster.png", "group": "crab_lobster", "rarity": 1}, {"lat": 32.161, "lng": -59.8277, "id": "107098", "name": "Gennadas valens", "sprite": "sp-american_lobster.png", "group": "crab_lobster", "rarity": 1}, {"lat": 32.4058, "lng": -60.38, "id": "125683", "name": "Scopelarchus", "sprite": "sp-anchoviella_juruasanga.png", "group": "other", "rarity": 1}, {"lat": 32.4058, "lng": -60.38, "id": "127165", "name": "Pelican eel", "thumb": "tn_Eupel_u4.jpg", "sprite": "sp-anchoviella_juruasanga.png", "group": "other", "rarity": 1, "waterType": "Saltwater"}, {"lat": 32.4058, "lng": -60.38, "id": "126581", "name": "Smallfin lanternfish", "thumb": "tn_Besub_u1.gif", "sprite": "sp-anchoviella_juruasanga.png", "group": "other", "rarity": 1, "waterType": "Saltwater"}, {"lat": 32.4058, "lng": -60.38, "id": "127288", "name": "Tan bristlemouth", "thumb": "tn_Cypal_u0.gif", "sprite": "sp-anchoviella_juruasanga.png", "group": "other", "rarity": 1, "waterType": "Saltwater"}, {"lat": 33.3767, "lng": -60.3467, "id": "137205", "name": "Caretta caretta", "sprite": "sp-green_sea_turtle.png", "group": "sea_turtle", "rarity": 1}, {"lat": 32.3963, "lng": -60.21, "id": "107673", "name": "Parapasiphae sulcatifrons", "sprite": "sp-american_lobster.png", "group": "crab_lobster", "rarity": 1}, {"lat": 32.35, "lng": -60.07, "id": "303486", "name": "Bermuda sea chub", "thumb": "tn_Kysec_u0.jpg", "sprite": "sp-anchoviella_juruasanga.png", "group": "other", "rarity": 1, "waterType": "Saltwater"}, {"lat": 32.4058, "lng": -60.38, "id": "126994", "name": "Pelagic basslet", "thumb": "tn_Hobro_u2.jpg", "sprite": "sp-anchoviella_juruasanga.png", "group": "other", "rarity": 1, "waterType": "Saltwater"}, {"lat": 32.4058, "lng": -60.38, "id": "110700", "name": "Stylocheiron affine", "sprite": "sp-antarctic_krill.png", "group": "shrimp", "rarity": 1}, {"lat": 32.4058, "lng": -60.38, "id": "126720", "name": "Longsnout blacksmelt", "thumb": "tn_Balon_u0.jpg", "sprite": "sp-anchoviella_juruasanga.png", "group": "other", "rarity": 1, "waterType": "Saltwater"}, {"lat": 32.6901, "lng": -59.7792, "id": "127026", "name": "Albacore", "thumb": "tn_Thala_u4.jpg", "sprite": "sp-bluefin_tuna.png", "group": "tuna_mackerel", "rarity": 1, "waterType": "Saltwater"}, {"lat": 32.45, "lng": -60.125, "id": "514123", "name": "Deosergestes paraseminudus", "sprite": "sp-american_lobster.png", "group": "crab_lobster", "rarity": 1}, {"lat": 32.4058, "lng": -60.38, "id": "127785", "name": "Euconchoecia chierchiae", "sprite": "sp-anchoviella_juruasanga.png", "group": "other", "rarity": 1}, {"lat": 32.4058, "lng": -60.38, "id": "135454", "name": "Amphicaryon acaule", "sprite": "sp-anchoviella_juruasanga.png", "group": "other", "rarity": 1}, {"lat": 32.4058, "lng": -60.38, "id": "110716", "name": "Thysanopoda egregia", "sprite": "sp-antarctic_krill.png", "group": "shrimp", "rarity": 1}, {"lat": 32.3839, "lng": -60.3865, "id": "127860", "name": "Proceroecia microprocera", "sprite": "sp-anchoviella_juruasanga.png", "group": "other", "rarity": 1}, {"lat": 32.3915, "lng": -60.125, "id": "107583", "name": "Acanthephyra stylorostratis", "sprite": "sp-american_lobster.png", "group": "crab_lobster", "rarity": 1}, {"lat": 33.311, "lng": -59.3941, "id": "105801", "name": "Blue shark", "thumb": "tn_Prgla_j1.jpg", "sprite": "sp-great_white_shark.png", "group": "shark", "rarity": 1, "waterType": "Brackish"}, {"lat": 32.4058, "lng": -60.38, "id": "128939", "name": "Oncaea mediterranea", "sprite": "sp-anchoviella_juruasanga.png", "group": "other", "rarity": 1}, {"lat": 32.4058, "lng": -60.38, "id": "135432", "name": "Lensia hostile", "sprite": "sp-anchoviella_juruasanga.png", "group": "other", "rarity": 1}, {"lat": 32.4058, "lng": -60.38, "id": "127289", "name": "Slender bristlemouth", "thumb": "tn_Cypse_u1.gif", "sprite": "sp-anchoviella_juruasanga.png", "group": "other", "rarity": 1, "waterType": "Saltwater"}]}