{"zoom": 7, "x": 43, "y": 65, "points": [{"lat": -4.85, "lng": -58.3538, "id": "733456", "name": "Vertebroscalpellum chuni", "sprite": "sp-anchoviella_juruasanga.png", "group": "other", "rarity": 1}, {"lat": -3.5464, "lng": -58.9106, "id": "279609", "name": "Surinam anchovy", "thumb": "tn_Ansur_u4.jpg", "sprite": "sp-anchoviella_juruasanga.png", "group": "anchovy", "rarity": 1, "waterType": "Brackish"}, {"lat": -5.4167, "lng": -58.3538, "id": "1423136", "name": "Regioscalpellum regium", "sprite": "sp-anchoviella_juruasanga.png", "group": "other", "rarity": 1}, {"lat": -3.0266, "lng": -56.3251, "id": "1135", "name": "Amphipoda", "sprite": "sp-american_lobster.png", "group": "crab_lobster", "rarity": 1}, {"lat": -3.2617, "lng": -58.5996, "id": "277286", "name": "Yellowfin river pellona", "thumb": "tn_Pefla_u1.gif", "sprite": "sp-anchoviella_juruasanga.png", "group": "other", "rarity": 1, "waterType": "Brackish"}, {"lat": -3.3833, "lng": -58.3786, "id": "106193", "name": "Trianguloscalpellum gigas", "sprite": "sp-anchoviella_juruasanga.png", "group": "other", "rarity": 1}, {"lat": -4.7833, "lng": -58.2406, "id": "212552", "name": "Neoscalpellum crosnieri", "sprite": "sp-anchoviella_juruasanga.png", "group": "other", "rarity": 1}, {"lat": -4.6527, "lng": -57.2586, "id": "268424", "name": "Astyanax", "sprite": "sp-astyanax.png", "group": "piranha", "rarity": 1}, {"lat": -3.2617, "lng": -58.5996, "id": "268817", "name": "Colomesus", "sprite": "sp-fahaka_pufferfish.png", "group": "pufferfish", "rarity": 1}, {"lat": -3.412, "lng": -58.8459, "id": "270424", "name": "Plagioscion", "sprite": "sp-anchoviella_juruasanga.png", "group": "other", "rarity": 1}, {"lat": -3.3043, "lng": -58.8342, "id": "154427", "name": "Pimelodidae", "sprite": "sp-blue_catfish.png", "group": "catfish", "rarity": 1}, {"lat": -4.1333, "lng": -58.4238, "id": "564909", "name": "Acanthephyra eximia", "sprite": "sp-american_lobster.png", "group": "crab_lobster", "rarity": 1}, {"lat": -3.5408, "lng": -58.9092, "id": "125464", "name": "Clupeidae", "sprite": "sp-atlantic_herring.png", "group": "herring", "rarity": 1}, {"lat": -3.4174, "lng": -58.7366, "id": "270412", "name": "Pimelodus", "sprite": "sp-blue_catfish.png", "group": "catfish", "rarity": 1}, {"lat": -3.9333, "lng": -58.3954, "id": "535182", "name": "Gymnoscalpellum kurchatovi", "sprite": "sp-anchoviella_juruasanga.png", "group": "other", "rarity": 1}, {"lat": -5.4167, "lng": -58.4297, "id": "535093", "name": "Catherinum raccidium", "sprite": "sp-anchoviella_juruasanga.png", "group": "other", "rarity": 1}, {"lat": -3.4289, "lng": -58.7424, "id": "282263", "name": "Bloch's catfish", "thumb": "tn_Piblo_u1.jpg", "sprite": "sp-blue_catfish.png", "group": "catfish", "rarity": 1, "waterType": "Brackish"}]}