{"zoom": 7, "x": 43, "y": 84, "points": [{"lat": -50.4344, "lng": -58.3208, "id": "140103", "name": "Hiatella arctica", "sprite": "sp-blue_mussel.png", "group": "clam_mussel", "rarity": 1}, {"lat": -50.5, "lng": -58.8333, "id": "146780", "name": "Osthimosia bicornis", "sprite": "sp-anchoviella_juruasanga.png", "group": "other", "rarity": 1}, {"lat": -50.1667, "lng": -58.7, "id": "471083", "name": "Arachnopusia globosa", "sprite": "sp-anchoviella_juruasanga.png", "group": "other", "rarity": 1}, {"lat": -50.15, "lng": -57.5819, "id": "212658", "name": "Eudyptes chrysolophus", "sprite": "sp-anchoviella_juruasanga.png", "group": "other", "rarity": 1}, {"lat": -49.8885, "lng": -57.7542, "id": "234781", "name": "Southern blue whiting", "thumb": "tn_Miaus_u0.jpg", "sprite": "sp-arctogadus.png", "group": "cod", "rarity": 1, "waterType": "Saltwater"}, {"lat": -50.0333, "lng": -58.0333, "id": "234531", "name": "Achiropsetta", "sprite": "sp-atlantic_halibut.png", "group": "flatfish", "rarity": 1}, {"lat": -49.5792, "lng": -57.6458, "id": "234831", "name": "Bigeye grenadier", "thumb": "tn_Mahol_u0.jpg", "sprite": "sp-anchoviella_juruasanga.png", "group": "other", "rarity": 1, "waterType": "Saltwater"}, {"lat": -49.2667, "lng": -57.0222, "id": "173167", "name": "Astrotoma agassizii", "sprite": "sp-sea_cucumber.png", "group": "starfish", "rarity": 1}, {"lat": -50.3271, "lng": -58.5771, "id": "173127", "name": "Menipea flagellifera", "sprite": "sp-anchoviella_juruasanga.png", "group": "other", "rarity": 1}, {"lat": -50.4667, "lng": -58.5, "id": "264124", "name": "Xenarcturus spinulosus", "sprite": "sp-american_lobster.png", "group": "crab_lobster", "rarity": 1}, {"lat": -49.2, "lng": -56.6083, "id": "206822", "name": "Macronectes", "sprite": "sp-anchoviella_juruasanga.png", "group": "other", "rarity": 1}, {"lat": -49.1166, "lng": -56.9583, "id": "204680", "name": "Pachyptila", "sprite": "sp-anchoviella_juruasanga.png", "group": "other", "rarity": 1}, {"lat": -50.1667, "lng": -58.7, "id": "147991", "name": "Amphiporus inexpectatus", "sprite": "sp-anchoviella_juruasanga.png", "group": "other", "rarity": 1}, {"lat": -50.5, "lng": -57.2, "id": "427498", "name": "Cymatocylis antarctica", "sprite": "sp-anchoviella_juruasanga.png", "group": "other", "rarity": 1}, {"lat": -50.067, "lng": -58.6, "id": "272764", "name": "Cataetyx messieri", "sprite": "sp-anchoviella_juruasanga.png", "group": "other", "rarity": 1, "waterType": "Saltwater"}, {"lat": -49.0, "lng": -57.5, "id": "341660", "name": "Codonellopsis pusilla", "sprite": "sp-anchoviella_juruasanga.png", "group": "other", "rarity": 1}, {"lat": -50.0189, "lng": -57.2689, "id": "283381", "name": "Bolocera kerguelensis", "sprite": "sp-actiniidae.png", "group": "coral", "rarity": 1}, {"lat": -49.4167, "lng": -58.6833, "id": "217733", "name": "Patagonian codling", "thumb": "tn_Leens_u0.jpg", "sprite": "sp-anchoviella_juruasanga.png", "group": "other", "rarity": 1, "waterType": "Saltwater"}, {"lat": -50.1853, "lng": -57.4569, "id": "212651", "name": "Procellaria aequinoctialis", "sprite": "sp-anchoviella_juruasanga.png", "group": "other", "rarity": 1}, {"lat": -49.2667, "lng": -57.0333, "id": "271300", "name": "Myxine dorsum", "sprite": "sp-atlantic_hagfish.png", "group": "hagfish", "rarity": 1, "waterType": "Saltwater"}, {"lat": -50.3633, "lng": -57.9042, "id": "523120", "name": "Protobotellina cylindrica", "sprite": "sp-anchoviella_juruasanga.png", "group": "other", "rarity": 1}, {"lat": -50.4667, "lng": -58.5, "id": "533296", "name": "Photinula coerulescens", "sprite": "sp-cowrie_shell.png", "group": "sea_snail", "rarity": 1}, {"lat": -50.1667, "lng": -58.7, "id": "173077", "name": "Caberea darwinii", "sprite": "sp-anchoviella_juruasanga.png", "group": "other", "rarity": 1}, {"lat": -50.0, "lng": -56.8167, "id": "234788", "name": "Grey rockcod", "thumb": "tn_Lesqu_u1.jpg", "sprite": "sp-anchoviella_juruasanga.png", "group": "other", "rarity": 1, "waterType": "Saltwater"}, {"lat": -50.1667, "lng": -58.7, "id": "471172", "name": "Melicerita blancoae", "sprite": "sp-anchoviella_juruasanga.png", "group": "other", "rarity": 1}, {"lat": -49.7358, "lng": -57.5575, "id": "234700", "name": "Patagonian toothfish", "thumb": "tn_Diele_u0.jpg", "sprite": "sp-anchoviella_juruasanga.png", "group": "other", "rarity": 1, "waterType": "Saltwater"}, {"lat": -50.5, "lng": -57.3333, "id": "240326", "name": "Nymphon subtile", "sprite": "sp-anchoviella_juruasanga.png", "group": "other", "rarity": 1}, {"lat": -49.4833, "lng": -57.7667, "id": "271505", "name": "White-dotted skate", "thumb": "tn_Baalb_u2.gif", "sprite": "sp-himantura_australis.png", "group": "ray", "rarity": 1, "waterType": "Saltwater"}, {"lat": -49.0, "lng": -59.0, "id": "231830", "name": "Liothyrella uva", "sprite": "sp-anchoviella_juruasanga.png", "group": "other", "rarity": 1}, {"lat": -50.2183, "lng": -58.3553, "id": "343995", "name": "Thalassarche melanophris", "sprite": "sp-anchoviella_juruasanga.png", "group": "other", "rarity": 1}, {"lat": -49.2667, "lng": -57.0222, "id": "1574978", "name": "Ophiosabine vivipara", "sprite": "sp-sea_cucumber.png", "group": "starfish", "rarity": 1}, {"lat": -49.0, "lng": -57.5, "id": "235767", "name": "Dictyocysta lepida", "sprite": "sp-anchoviella_juruasanga.png", "group": "other", "rarity": 1}, {"lat": -50.4667, "lng": -58.5, "id": "173920", "name": "Travisia kerguelensis", "sprite": "sp-anchoviella_juruasanga.png", "group": "other", "rarity": 1}, {"lat": -50.4167, "lng": -57.3333, "id": "113473", "name": "Neogloboquadrina dutertrei", "sprite": "sp-anchoviella_juruasanga.png", "group": "other", "rarity": 1}, {"lat": -50.3778, "lng": -57.7224, "id": "274665", "name": "Fathead", "thumb": "tn_Cogra_u2.jpg", "sprite": "sp-anchoviella_juruasanga.png", "group": "other", "rarity": 1, "waterType": "Saltwater"}, {"lat": -50.4667, "lng": -58.5, "id": "130502", "name": "Ophelina breviata", "sprite": "sp-anchoviella_juruasanga.png", "group": "other", "rarity": 1}, {"lat": -50.31, "lng": -58.475, "id": "113776", "name": "Uvigerina pygmaea", "sprite": "sp-anchoviella_juruasanga.png", "group": "other", "rarity": 1}, {"lat": -50.5, "lng": -58.8333, "id": "470511", "name": "Smittina smittiana", "sprite": "sp-anchoviella_juruasanga.png", "group": "other", "rarity": 1}, {"lat": -50.31, "lng": -58.475, "id": "417573", "name": "Glaphyrammina americana", "sprite": "sp-anchoviella_juruasanga.png", "group": "other", "rarity": 1}, {"lat": -48.9833, "lng": -57.9333, "id": "105923", "name": "Picked dogfish", "thumb": "tn_Sqaca_u6.jpg", "sprite": "sp-great_white_shark.png", "group": "shark", "rarity": 1, "waterType": "Brackish"}, {"lat": -50.31, "lng": -58.475, "id": "112588", "name": "Pyrgo elongata", "sprite": "sp-anchoviella_juruasanga.png", "group": "other", "rarity": 1}, {"lat": -50.375, "lng": -58.0167, "id": "197467", "name": "Thracia meridionalis", "sprite": "sp-blue_mussel.png", "group": "clam_mussel", "rarity": 1}, {"lat": -49.655, "lng": -57.7292, "id": "271521", "name": "Magellan skate", "thumb": "tn_Bamag_u0.gif", "sprite": "sp-himantura_australis.png", "group": "ray", "rarity": 1, "waterType": "Saltwater"}, {"lat": -50.2133, "lng": -58.3375, "id": "174951", "name": "Sterechinus agassizii", "sprite": "sp-sea_cucumber.png", "group": "starfish", "rarity": 1}, {"lat": -49.2667, "lng": -57.0333, "id": "271307", "name": "Myxine knappi", "sprite": "sp-atlantic_hagfish.png", "group": "hagfish", "rarity": 1, "waterType": "Saltwater"}, {"lat": -49.7584, "lng": -57.9083, "id": "280409", "name": "Channel bull blenny", "thumb": "tn_Cogob_u1.gif", "sprite": "sp-anchoviella_juruasanga.png", "group": "other", "rarity": 1, "waterType": "Saltwater"}, {"lat": -50.1167, "lng": -58.2, "id": "160830", "name": "Sterechinus diadema", "sprite": "sp-sea_cucumber.png", "group": "starfish", "rarity": 1}, {"lat": -50.31, "lng": -58.475, "id": "413877", "name": "Cassidulinoides parkeriana", "sprite": "sp-anchoviella_juruasanga.png", "group": "other", "rarity": 1}, {"lat": -50.4875, "lng": -58.4542, "id": "470043", "name": "Microporella hyadesi", "sprite": "sp-anchoviella_juruasanga.png", "group": "other", "rarity": 1}, {"lat": -50.31, "lng": -58.475, "id": "476494", "name": "Fusitriton magellanicus", "sprite": "sp-cowrie_shell.png", "group": "sea_snail", "rarity": 1}, {"lat": -50.4667, "lng": -58.5, "id": "249832", "name": "Aplidium circumvolutum", "sprite": "sp-anchoviella_juruasanga.png", "group": "other", "rarity": 1}, {"lat": -49.2667, "lng": -57.0222, "id": "173682", "name": "Ophiuroglypha lymani", "sprite": "sp-sea_cucumber.png", "group": "starfish", "rarity": 1}, {"lat": -50.4667, "lng": -58.5, "id": "1424475", "name": "Weltnerium gibberum", "sprite": "sp-anchoviella_juruasanga.png", "group": "other", "rarity": 1}, {"lat": -50.31, "lng": -58.475, "id": "593329", "name": "Pseudoparrella bradyana", "sprite": "sp-anchoviella_juruasanga.png", "group": "other", "rarity": 1}, {"lat": -50.4667, "lng": -58.5, "id": "155282", "name": "Harmothoe spinosa", "sprite": "sp-anchoviella_juruasanga.png", "group": "other", "rarity": 1}, {"lat": -50.31, "lng": -58.475, "id": "112877", "name": "Cibicides refulgens", "sprite": "sp-anchoviella_juruasanga.png", "group": "other", "rarity": 1}, {"lat": -50.31, "lng": -58.475, "id": "113091", "name": "Globocassidulina subglobosa", "sprite": "sp-anchoviella_juruasanga.png", "group": "other", "rarity": 1}, {"lat": -50.31, "lng": -58.475, "id": "114226", "name": "Spiroplectammina biformis", "sprite": "sp-anchoviella_juruasanga.png", "group": "other", "rarity": 1}, {"lat": -50.5333, "lng": -57.9333, "id": "951983", "name": "Uristes schellenbergi", "sprite": "sp-american_lobster.png", "group": "crab_lobster", "rarity": 1}, {"lat": -50.3889, "lng": -57.7889, "id": "1026031", "name": "Himantozoum (Himantozoum) obtusum", "sprite": "sp-anchoviella_juruasanga.png", "group": "other", "rarity": 1}, {"lat": -50.4875, "lng": -58.4542, "id": "287497", "name": "Errinopsis reticulum", "sprite": "sp-anchoviella_juruasanga.png", "group": "other", "rarity": 1}, {"lat": -50.1491, "lng": -57.6851, "id": "231404", "name": "Arctocephalus gazella", "sprite": "sp-elephant_seal.png", "group": "seal", "rarity": 1}, {"lat": -50.3889, "lng": -58.7889, "id": "471130", "name": "Amastigia benemunita", "sprite": "sp-anchoviella_juruasanga.png", "group": "other", "rarity": 1}, {"lat": -50.4167, "lng": -57.3333, "id": "173623", "name": "Aplidium stanleyi", "sprite": "sp-anchoviella_juruasanga.png", "group": "other", "rarity": 1}, {"lat": -50.375, "lng": -58.0167, "id": "197541", "name": "Yoldiella valettei", "sprite": "sp-blue_mussel.png", "group": "clam_mussel", "rarity": 1}, {"lat": -50.4167, "lng": -57.3333, "id": "155221", "name": "Austrolaenilla antarctica", "sprite": "sp-anchoviella_juruasanga.png", "group": "other", "rarity": 1}, {"lat": -49.6567, "lng": -57.7375, "id": "236717", "name": "Zygochlamys patagonica", "sprite": "sp-blue_mussel.png", "group": "clam_mussel", "rarity": 1}, {"lat": -50.3633, "lng": -57.9042, "id": "113434", "name": "Globigerina bulloides", "sprite": "sp-anchoviella_juruasanga.png", "group": "other", "rarity": 1}, {"lat": -50.31, "lng": -58.475, "id": "606556", "name": "Adelomelon ancilla", "sprite": "sp-cowrie_shell.png", "group": "sea_snail", "rarity": 1}, {"lat": -49.8353, "lng": -57.845, "id": "282394", "name": "Raspthorn sand skate", "thumb": "tn_Pssco_m0.jpg", "sprite": "sp-himantura_australis.png", "group": "ray", "rarity": 1, "waterType": "Saltwater"}, {"lat": -50.4667, "lng": -58.5, "id": "174896", "name": "Syllis sclerolaema", "sprite": "sp-anchoviella_juruasanga.png", "group": "other", "rarity": 1}, {"lat": -50.5167, "lng": -58.8333, "id": "173582", "name": "Aplidium fuegiense", "sprite": "sp-anchoviella_juruasanga.png", "group": "other", "rarity": 1}, {"lat": -50.4311, "lng": -58.6028, "id": "236037", "name": "Ophiactis asperula", "sprite": "sp-sea_cucumber.png", "group": "starfish", "rarity": 1}, {"lat": -50.1167, "lng": -57.5667, "id": "325384", "name": "Themisto gaudichaudii", "sprite": "sp-american_lobster.png", "group": "crab_lobster", "rarity": 1}, {"lat": -50.1685, "lng": -57.9, "id": "173052", "name": "Flabellum (Flabellum) curvatum", "sprite": "sp-actiniidae.png", "group": "coral", "rarity": 1}, {"lat": -49.2, "lng": -57.5, "id": "205273", "name": "Diomedea", "sprite": "sp-anchoviella_juruasanga.png", "group": "other", "rarity": 1}, {"lat": -49.2, "lng": -57.5, "id": "212641", "name": "Pterodroma incerta", "sprite": "sp-anchoviella_juruasanga.png", "group": "other", "rarity": 1}, {"lat": -49.872, "lng": -57.8, "id": "212583", "name": "Diomedea exulans", "sprite": "sp-anchoviella_juruasanga.png", "group": "other", "rarity": 1}, {"lat": -50.4937, "lng": -58.6438, "id": "173140", "name": "Notoplites elongatus", "sprite": "sp-anchoviella_juruasanga.png", "group": "other", "rarity": 1}, {"lat": -49.2667, "lng": -57.0222, "id": "1574977", "name": "Ophiosabine pentactis", "sprite": "sp-sea_cucumber.png", "group": "starfish", "rarity": 1}, {"lat": -50.31, "lng": -58.475, "id": "723261", "name": "Procerolagena distoma", "sprite": "sp-anchoviella_juruasanga.png", "group": "other", "rarity": 1}, {"lat": -50.4917, "lng": -58.6292, "id": "161425", "name": "Mysidopsis acuta", "sprite": "sp-american_lobster.png", "group": "crab_lobster", "rarity": 1}, {"lat": -50.5, "lng": -58.8333, "id": "470507", "name": "Smittina leptodentata", "sprite": "sp-anchoviella_juruasanga.png", "group": "other", "rarity": 1}, {"lat": -50.31, "lng": -58.475, "id": "397221", "name": "Globocassidulina crassa", "sprite": "sp-anchoviella_juruasanga.png", "group": "other", "rarity": 1}, {"lat": -50.0092, "lng": -57.0434, "id": "173038", "name": "Balanophyllia (Balanophyllia) malouinensis", "sprite": "sp-actiniidae.png", "group": "coral", "rarity": 1}, {"lat": -50.4667, "lng": -58.5, "id": "173572", "name": "Aplidium falklandicum", "sprite": "sp-anchoviella_juruasanga.png", "group": "other", "rarity": 1}, {"lat": -50.3214, "lng": -58.5236, "id": "178790", "name": "Diplasterias brandti", "sprite": "sp-sea_cucumber.png", "group": "starfish", "rarity": 1}, {"lat": -49.2634, "lng": -58.0205, "id": "231413", "name": "Mirounga leonina", "sprite": "sp-elephant_seal.png", "group": "seal", "rarity": 1}, {"lat": -50.4917, "lng": -58.6667, "id": "250972", "name": "Paramolgula gregaria", "sprite": "sp-anchoviella_juruasanga.png", "group": "other", "rarity": 1}, {"lat": -50.0, "lng": -58.8, "id": "574538", "name": "Doryteuthis gahi", "sprite": "sp-giant_pacific_octopus.png", "group": "octopus_squid", "rarity": 1}, {"lat": -50.5, "lng": -57.3333, "id": "173051", "name": "Callipallene margarita", "sprite": "sp-anchoviella_juruasanga.png", "group": "other", "rarity": 1}, {"lat": -49.0, "lng": -57.5, "id": "391870", "name": "Parundella caudata", "sprite": "sp-anchoviella_juruasanga.png", "group": "other", "rarity": 1}, {"lat": -50.31, "lng": -58.475, "id": "585207", "name": "Eponides karsteni", "sprite": "sp-anchoviella_juruasanga.png", "group": "other", "rarity": 1}, {"lat": -50.5833, "lng": -57.3333, "id": "505173", "name": "Cyamium falklandicum", "sprite": "sp-blue_mussel.png", "group": "clam_mussel", "rarity": 1}, {"lat": -49.35, "lng": -57.5, "id": "137172", "name": "Stercorarius parasiticus", "sprite": "sp-anchoviella_juruasanga.png", "group": "other", "rarity": 1}, {"lat": -50.4417, "lng": -57.9167, "id": "160822", "name": "Pseudechinus magellanicus", "sprite": "sp-sea_cucumber.png", "group": "starfish", "rarity": 1}, {"lat": -50.5351, "lng": -58.3947, "id": "212656", "name": "Aptenodytes patagonicus", "sprite": "sp-anchoviella_juruasanga.png", "group": "other", "rarity": 1}, {"lat": -50.4167, "lng": -57.3333, "id": "510344", "name": "Parvaplustrum tenerum", "sprite": "sp-cowrie_shell.png", "group": "sea_snail", "rarity": 1}, {"lat": -49.0333, "lng": -56.4167, "id": "137199", "name": "Pterodroma mollis", "sprite": "sp-anchoviella_juruasanga.png", "group": "other", "rarity": 1}, {"lat": -50.4167, "lng": -57.3333, "id": "226449", "name": "Hansenomysis falklandica", "sprite": "sp-american_lobster.png", "group": "crab_lobster", "rarity": 1}, {"lat": -49.2667, "lng": -57.0192, "id": "279525", "name": "Aiakas zinorum", "sprite": "sp-anchoviella_juruasanga.png", "group": "other", "rarity": 1, "waterType": "Saltwater"}, {"lat": -50.31, "lng": -58.475, "id": "114016", "name": "Reophax scorpiurus", "sprite": "sp-anchoviella_juruasanga.png", "group": "other", "rarity": 1}, {"lat": -50.5333, "lng": -57.325, "id": "272519", "name": "Brazilian codling", "thumb": "tn_Urbra_u0.jpg", "sprite": "sp-anchoviella_juruasanga.png", "group": "other", "rarity": 1, "waterType": "Saltwater"}, {"lat": -50.4667, "lng": -58.2222, "id": "175144", "name": "Acanthoserolis schythei", "sprite": "sp-american_lobster.png", "group": "crab_lobster", "rarity": 1}, {"lat": -49.9765, "lng": -57.8932, "id": "281173", "name": "Iluocoetes fimbriatus", "thumb": "tn_Ilfim_u2.gif", "sprite": "sp-anchoviella_juruasanga.png", "group": "other", "rarity": 1, "waterType": "Brackish"}, {"lat": -50.7083, "lng": -57.1083, "id": "105761", "name": "Bathyraja", "sprite": "sp-himantura_australis.png", "group": "ray", "rarity": 1}, {"lat": -50.233, "lng": -58.4, "id": "234824", "name": "Patagonian moray cod", "thumb": "tn_Muora_u0.jpg", "sprite": "sp-anchoviella_juruasanga.png", "group": "other", "rarity": 1, "waterType": "Saltwater"}, {"lat": -50.0333, "lng": -58.0333, "id": "234742", "name": "Smalleye moray cod", "thumb": "tn_Mumic_u0.gif", "sprite": "sp-anchoviella_juruasanga.png", "group": "other", "rarity": 1, "waterType": "Saltwater"}, {"lat": -50.5021, "lng": -58.6146, "id": "149872", "name": "Pseudarchaster discus", "sprite": "sp-sea_cucumber.png", "group": "starfish", "rarity": 1}, {"lat": -50.3847, "lng": -58.6625, "id": "173353", "name": "Cellaria malvinensis", "sprite": "sp-anchoviella_juruasanga.png", "group": "other", "rarity": 1}, {"lat": -50.31, "lng": -58.455, "id": "167767", "name": "Clathria (Clathria) paucispicula", "sprite": "sp-barrel_sponge.png", "group": "sponge", "rarity": 1}, {"lat": -50.2085, "lng": -58.3415, "id": "274675", "name": "Psychrolutes marmoratus", "thumb": "tn_Psmar_u4.jpg", "sprite": "sp-anchoviella_juruasanga.png", "group": "other", "rarity": 1, "waterType": "Saltwater"}, {"lat": -50.4167, "lng": -57.3333, "id": "125064", "name": "Amphipholis squamata", "sprite": "sp-sea_cucumber.png", "group": "starfish", "rarity": 1}, {"lat": -49.6167, "lng": -58.0167, "id": "280277", "name": "Banded whiptail", "thumb": "tn_Cofas_u0.jpg", "sprite": "sp-anchoviella_juruasanga.png", "group": "other", "rarity": 1, "waterType": "Saltwater"}, {"lat": -50.3313, "lng": -58.2367, "id": "166714", "name": "Dasychalina validissima", "sprite": "sp-barrel_sponge.png", "group": "sponge", "rarity": 1}, {"lat": -50.5, "lng": -57.2, "id": "183556", "name": "Acanthostomella norvegica", "sprite": "sp-anchoviella_juruasanga.png", "group": "other", "rarity": 1}, {"lat": -49.2221, "lng": -57.3925, "id": "382876", "name": "Thymops birsteini", "sprite": "sp-american_lobster.png", "group": "crab_lobster", "rarity": 1}, {"lat": -50.1248, "lng": -58.4362, "id": "278702", "name": "Pink cusk-eel", "thumb": "tn_Gebla_u1.jpg", "sprite": "sp-anchoviella_juruasanga.png", "group": "other", "rarity": 1, "waterType": "Saltwater"}, {"lat": -50.3988, "lng": -58.4354, "id": "178757", "name": "Henricia obesa", "sprite": "sp-sea_cucumber.png", "group": "starfish", "rarity": 1}, {"lat": -49.1333, "lng": -57.8667, "id": "271545", "name": "Dipturus flavirostris", "thumb": "tn_Rafla_u0.jpg", "sprite": "sp-himantura_australis.png", "group": "ray", "rarity": 1, "waterType": "Saltwater"}]}