{"zoom": 7, "x": 43, "y": 89, "points": [{"lat": -57.944, "lng": -57.06, "id": "13703", "name": "Thecosomata", "sprite": "sp-cowrie_shell.png", "group": "sea_snail", "rarity": 1}, {"lat": -57.5833, "lng": -58.9, "id": "113462", "name": "Turborotalita quinqueloba", "sprite": "sp-anchoviella_juruasanga.png", "group": "other", "rarity": 1}, {"lat": -57.575, "lng": -58.9, "id": "173920", "name": "Travisia kerguelensis", "sprite": "sp-anchoviella_juruasanga.png", "group": "other", "rarity": 1}, {"lat": -58.0783, "lng": -57.0905, "id": "137233", "name": "Salpa", "sprite": "sp-anchoviella_juruasanga.png", "group": "other", "rarity": 1}, {"lat": -57.8315, "lng": -56.85, "id": "529641", "name": "Pseudostichopus peripatus", "sprite": "sp-sea_cucumber.png", "group": "starfish", "rarity": 1}, {"lat": -57.575, "lng": -58.9, "id": "127527", "name": "Vargula", "sprite": "sp-anchoviella_juruasanga.png", "group": "other", "rarity": 1}, {"lat": -58.3667, "lng": -56.2521, "id": "106656", "name": "Oithona similis", "sprite": "sp-anchoviella_juruasanga.png", "group": "other", "rarity": 1}, {"lat": -58.1, "lng": -56.851, "id": "325384", "name": "Themisto gaudichaudii", "sprite": "sp-american_lobster.png", "group": "crab_lobster", "rarity": 1}, {"lat": -57.5833, "lng": -58.9, "id": "113464", "name": "Globigerinita glutinata", "sprite": "sp-anchoviella_juruasanga.png", "group": "other", "rarity": 1}, {"lat": -57.8578, "lng": -57.6758, "id": "212583", "name": "Diomedea exulans", "sprite": "sp-anchoviella_juruasanga.png", "group": "other", "rarity": 1}, {"lat": -57.575, "lng": -58.9, "id": "291444", "name": "Anarthron dithrix", "sprite": "sp-anchoviella_juruasanga.png", "group": "other", "rarity": 1}, {"lat": -57.8333, "lng": -57.45, "id": "841746", "name": "Tripos pentagonus", "sprite": "sp-anchoviella_juruasanga.png", "group": "other", "rarity": 1}, {"lat": -57.8333, "lng": -57.45, "id": "341540", "name": "Thalassiothrix antarctica", "sprite": "sp-anchoviella_juruasanga.png", "group": "other", "rarity": 1}, {"lat": -57.58, "lng": -58.9, "id": "899197", "name": "Recurvoides contortus", "sprite": "sp-anchoviella_juruasanga.png", "group": "other", "rarity": 1}, {"lat": -58.3667, "lng": -56.2521, "id": "101812", "name": "Vibilia", "sprite": "sp-american_lobster.png", "group": "crab_lobster", "rarity": 1}, {"lat": -57.8852, "lng": -58.2092, "id": "212640", "name": "Daption capense", "sprite": "sp-anchoviella_juruasanga.png", "group": "other", "rarity": 1}, {"lat": -57.8333, "lng": -57.45, "id": "109549", "name": "Peridinium", "sprite": "sp-anchoviella_juruasanga.png", "group": "other", "rarity": 1}, {"lat": -58.7001, "lng": -58.322, "id": "234641", "name": "Rhombic lanternfish", "thumb": "tn_Krand_u1.gif", "sprite": "sp-anchoviella_juruasanga.png", "group": "other", "rarity": 1, "waterType": "Saltwater"}, {"lat": -57.935, "lng": -57.045, "id": "1082", "name": "Cirripedia", "sprite": "sp-anchoviella_juruasanga.png", "group": "other", "rarity": 1}, {"lat": -57.5833, "lng": -58.9, "id": "113453", "name": "Globorotalia truncatulinoides", "sprite": "sp-anchoviella_juruasanga.png", "group": "other", "rarity": 1}, {"lat": -57.5833, "lng": -58.9, "id": "113458", "name": "Neogloboquadrina pachyderma", "sprite": "sp-anchoviella_juruasanga.png", "group": "other", "rarity": 1}, {"lat": -57.575, "lng": -58.9, "id": "140103", "name": "Hiatella arctica", "sprite": "sp-blue_mussel.png", "group": "clam_mussel", "rarity": 1}, {"lat": -57.945, "lng": -57.0617, "id": "1128", "name": "Euphausiacea", "sprite": "sp-antarctic_krill.png", "group": "shrimp", "rarity": 1}, {"lat": -58.1334, "lng": -57.3505, "id": "212658", "name": "Eudyptes chrysolophus", "sprite": "sp-anchoviella_juruasanga.png", "group": "other", "rarity": 1}, {"lat": -58.3667, "lng": -56.2521, "id": "106485", "name": "Oithona", "sprite": "sp-anchoviella_juruasanga.png", "group": "other", "rarity": 1}, {"lat": -57.8333, "lng": -57.45, "id": "140227", "name": "Limacina retroversa", "sprite": "sp-cowrie_shell.png", "group": "sea_snail", "rarity": 1}, {"lat": -57.8333, "lng": -57.45, "id": "233502", "name": "Protoperidinium antarcticum", "sprite": "sp-anchoviella_juruasanga.png", "group": "other", "rarity": 1}, {"lat": -57.9364, "lng": -57.0915, "id": "582421", "name": "Radiozoa", "sprite": "sp-anchoviella_juruasanga.png", "group": "other", "rarity": 1}, {"lat": -58.05, "lng": -57.5, "id": "427498", "name": "Cymatocylis antarctica", "sprite": "sp-anchoviella_juruasanga.png", "group": "other", "rarity": 1}, {"lat": -57.58, "lng": -58.9, "id": "112593", "name": "Pyrgo murrhina", "sprite": "sp-anchoviella_juruasanga.png", "group": "other", "rarity": 1}, {"lat": -57.833, "lng": -56.85, "id": "160811", "name": "Notocidaris hastata", "sprite": "sp-sea_cucumber.png", "group": "starfish", "rarity": 1}, {"lat": -57.95, "lng": -57.07, "id": "1130", "name": "Decapoda", "sprite": "sp-american_lobster.png", "group": "crab_lobster", "rarity": 1}, {"lat": -57.8333, "lng": -56.85, "id": "197492", "name": "Tractolira germonae", "sprite": "sp-cowrie_shell.png", "group": "sea_snail", "rarity": 1}, {"lat": -57.8665, "lng": -56.85, "id": "138848", "name": "Bathyteuthis abyssicola", "sprite": "sp-giant_pacific_octopus.png", "group": "octopus_squid", "rarity": 1}, {"lat": -58.1322, "lng": -58.1892, "id": "212651", "name": "Procellaria aequinoctialis", "sprite": "sp-anchoviella_juruasanga.png", "group": "other", "rarity": 1}, {"lat": -58.67, "lng": -57.4, "id": "137087", "name": "Balaenoptera acutorostrata", "sprite": "sp-blue_whale.png", "group": "whale", "rarity": 1}, {"lat": -58.3667, "lng": -56.2521, "id": "104162", "name": "Ctenocalanus", "sprite": "sp-anchoviella_juruasanga.png", "group": "other", "rarity": 1}, {"lat": -57.8333, "lng": -57.45, "id": "179785", "name": "Dactyliosolen antarcticus", "sprite": "sp-anchoviella_juruasanga.png", "group": "other", "rarity": 1}, {"lat": -57.833, "lng": -56.85, "id": "241946", "name": "Oneirophanta setigera", "sprite": "sp-sea_cucumber.png", "group": "starfish", "rarity": 1}, {"lat": -57.9457, "lng": -57.0629, "id": "1078", "name": "Ostracoda", "sprite": "sp-anchoviella_juruasanga.png", "group": "other", "rarity": 1}, {"lat": -57.8333, "lng": -57.45, "id": "573590", "name": "Rhizosolenia truncata", "sprite": "sp-anchoviella_juruasanga.png", "group": "other", "rarity": 1}, {"lat": -57.8852, "lng": -58.2092, "id": "212636", "name": "Macronectes giganteus", "sprite": "sp-anchoviella_juruasanga.png", "group": "other", "rarity": 1}, {"lat": -57.833, "lng": -56.85, "id": "250946", "name": "Molguloides vitrea", "sprite": "sp-anchoviella_juruasanga.png", "group": "other", "rarity": 1}, {"lat": -57.8333, "lng": -57.45, "id": "149152", "name": "Pseudo-nitzschia seriata", "sprite": "sp-anchoviella_juruasanga.png", "group": "other", "rarity": 1}, {"lat": -57.867, "lng": -56.85, "id": "101", "name": "Gastropoda", "sprite": "sp-cowrie_shell.png", "group": "sea_snail", "rarity": 1}, {"lat": -57.5833, "lng": -58.9, "id": "113465", "name": "Globigerinita uvula", "sprite": "sp-anchoviella_juruasanga.png", "group": "other", "rarity": 1}, {"lat": -58.3667, "lng": -56.2521, "id": "137214", "name": "Salpida", "sprite": "sp-anchoviella_juruasanga.png", "group": "other", "rarity": 1}, {"lat": -58.3667, "lng": -56.2521, "id": "146421", "name": "Appendicularia", "sprite": "sp-anchoviella_juruasanga.png", "group": "other", "rarity": 1}, {"lat": -57.8333, "lng": -57.45, "id": "149288", "name": "Chaetoceros atlanticus", "sprite": "sp-anchoviella_juruasanga.png", "group": "other", "rarity": 1}, {"lat": -57.9536, "lng": -58.1563, "id": "204680", "name": "Pachyptila", "sprite": "sp-anchoviella_juruasanga.png", "group": "other", "rarity": 1}, {"lat": -58.5183, "lng": -58.073, "id": "843664", "name": "Actinopteri", "sprite": "sp-anchoviella_juruasanga.png", "group": "other", "rarity": 1}, {"lat": -57.867, "lng": -56.85, "id": "529560", "name": "Molpadiodemas violaceus", "sprite": "sp-sea_cucumber.png", "group": "starfish", "rarity": 1}, {"lat": -57.575, "lng": -58.9, "id": "957", "name": "Sphaerodoridae", "sprite": "sp-anchoviella_juruasanga.png", "group": "other", "rarity": 1}, {"lat": -58.3667, "lng": -56.2521, "id": "104190", "name": "Metridia", "sprite": "sp-anchoviella_juruasanga.png", "group": "other", "rarity": 1}, {"lat": -57.575, "lng": -58.9, "id": "948", "name": "Syllidae", "sprite": "sp-anchoviella_juruasanga.png", "group": "other", "rarity": 1}, {"lat": -57.8836, "lng": -58.1381, "id": "212656", "name": "Aptenodytes patagonicus", "sprite": "sp-anchoviella_juruasanga.png", "group": "other", "rarity": 1}, {"lat": -57.575, "lng": -58.9, "id": "291476", "name": "Skogsbergiella macrothrix", "sprite": "sp-anchoviella_juruasanga.png", "group": "other", "rarity": 1}, {"lat": -57.8333, "lng": -57.45, "id": "341476", "name": "Chaetoceros flexuosus", "sprite": "sp-anchoviella_juruasanga.png", "group": "other", "rarity": 1}, {"lat": -57.575, "lng": -58.9, "id": "355716", "name": "Sphaeronella antarctica", "sprite": "sp-anchoviella_juruasanga.png", "group": "other", "rarity": 1}, {"lat": -57.8333, "lng": -57.45, "id": "573621", "name": "Terebraria kerguelensis", "sprite": "sp-anchoviella_juruasanga.png", "group": "other", "rarity": 1}, {"lat": -57.902, "lng": -57.3872, "id": "2081", "name": "Chaetognatha", "sprite": "sp-anchoviella_juruasanga.png", "group": "other", "rarity": 1}, {"lat": -58.5, "lng": -57.75, "id": "341686", "name": "Amphorides laackmanni", "sprite": "sp-anchoviella_juruasanga.png", "group": "other", "rarity": 1}, {"lat": -58.3667, "lng": -56.2521, "id": "104120", "name": "Euchirella", "sprite": "sp-anchoviella_juruasanga.png", "group": "other", "rarity": 1}, {"lat": -57.8333, "lng": -57.45, "id": "418468", "name": "Asteromphalus regularis", "sprite": "sp-anchoviella_juruasanga.png", "group": "other", "rarity": 1}, {"lat": -58.3, "lng": -57.95, "id": "137097", "name": "Globicephala melas", "sprite": "sp-bottlenose_dolphin.png", "group": "dolphin", "rarity": 1}, {"lat": -57.867, "lng": -56.85, "id": "145", "name": "Naticidae", "sprite": "sp-cowrie_shell.png", "group": "sea_snail", "rarity": 1}, {"lat": -57.8333, "lng": -57.45, "id": "1324079", "name": "Neomoelleria antarctica", "sprite": "sp-anchoviella_juruasanga.png", "group": "other", "rarity": 1}, {"lat": -58.3667, "lng": -56.2521, "id": "342444", "name": "Clausocalanus laticeps", "sprite": "sp-anchoviella_juruasanga.png", "group": "other", "rarity": 1}, {"lat": -57.8333, "lng": -57.45, "id": "465389", "name": "Chaetoceros criophilus", "sprite": "sp-anchoviella_juruasanga.png", "group": "other", "rarity": 1}, {"lat": -57.575, "lng": -58.9, "id": "931", "name": "Phyllodocidae", "sprite": "sp-anchoviella_juruasanga.png", "group": "other", "rarity": 1}, {"lat": -58.6457, "lng": -56.367, "id": "231404", "name": "Arctocephalus gazella", "sprite": "sp-elephant_seal.png", "group": "seal", "rarity": 1}, {"lat": -57.9425, "lng": -57.0575, "id": "103357", "name": "Appendicularia", "sprite": "sp-anchoviella_juruasanga.png", "group": "other", "rarity": 1}, {"lat": -58.2334, "lng": -56.5515, "id": "342436", "name": "Calanus simillimus", "sprite": "sp-anchoviella_juruasanga.png", "group": "other", "rarity": 1}, {"lat": -57.575, "lng": -58.9, "id": "206072", "name": "Parandania", "sprite": "sp-american_lobster.png", "group": "crab_lobster", "rarity": 1}, {"lat": -58.3667, "lng": -56.2521, "id": "104513", "name": "Microcalanus pygmaeus", "sprite": "sp-anchoviella_juruasanga.png", "group": "other", "rarity": 1}, {"lat": -58.3667, "lng": -56.2521, "id": "325345", "name": "Pteropoda", "sprite": "sp-cowrie_shell.png", "group": "sea_snail", "rarity": 1}, {"lat": -57.8333, "lng": -57.45, "id": "149099", "name": "Thalassiosira antarctica", "sprite": "sp-anchoviella_juruasanga.png", "group": "other", "rarity": 1}, {"lat": -57.5833, "lng": -58.9, "id": "113434", "name": "Globigerina bulloides", "sprite": "sp-anchoviella_juruasanga.png", "group": "other", "rarity": 1}, {"lat": -57.95, "lng": -57.07, "id": "1360", "name": "Actiniaria", "sprite": "sp-actiniidae.png", "group": "coral", "rarity": 1}, {"lat": -58.5, "lng": -57.75, "id": "341675", "name": "Cymatocylis calyciformis", "sprite": "sp-anchoviella_juruasanga.png", "group": "other", "rarity": 1}, {"lat": -57.8333, "lng": -57.45, "id": "465380", "name": "Biddulphia striata", "sprite": "sp-anchoviella_juruasanga.png", "group": "other", "rarity": 1}, {"lat": -58.1889, "lng": -56.6514, "id": "110679", "name": "Thysanoessa", "sprite": "sp-antarctic_krill.png", "group": "shrimp", "rarity": 1}, {"lat": -57.575, "lng": -58.9, "id": "155836", "name": "Parborlasia corrugatus", "sprite": "sp-anchoviella_juruasanga.png", "group": "other", "rarity": 1}, {"lat": -57.575, "lng": -58.9, "id": "956", "name": "Nephtyidae", "sprite": "sp-anchoviella_juruasanga.png", "group": "other", "rarity": 1}, {"lat": -57.95, "lng": -57.07, "id": "22626", "name": "Thaliacea", "sprite": "sp-anchoviella_juruasanga.png", "group": "other", "rarity": 1}, {"lat": -57.7709, "lng": -58.3773, "id": "212631", "name": "Phoebetria palpebrata", "sprite": "sp-anchoviella_juruasanga.png", "group": "other", "rarity": 1}, {"lat": -57.867, "lng": -56.85, "id": "559187", "name": "Chitonaster felli", "sprite": "sp-sea_cucumber.png", "group": "starfish", "rarity": 1}, {"lat": -58.2905, "lng": -56.4232, "id": "220837", "name": "Rhincalanus gigas", "sprite": "sp-anchoviella_juruasanga.png", "group": "other", "rarity": 1}, {"lat": -58.5, "lng": -57.75, "id": "341657", "name": "Codonellopsis balechi", "sprite": "sp-anchoviella_juruasanga.png", "group": "other", "rarity": 1}, {"lat": -57.944, "lng": -57.06, "id": "1371", "name": "Siphonophorae", "sprite": "sp-anchoviella_juruasanga.png", "group": "other", "rarity": 1}, {"lat": -58.3667, "lng": -56.2521, "id": "236218", "name": "Euphausia frigida", "sprite": "sp-antarctic_krill.png", "group": "shrimp", "rarity": 1}, {"lat": -57.867, "lng": -56.85, "id": "101363", "name": "Amathillopsidae", "sprite": "sp-american_lobster.png", "group": "crab_lobster", "rarity": 1}, {"lat": -58.0, "lng": -57.3, "id": "183556", "name": "Acanthostomella norvegica", "sprite": "sp-anchoviella_juruasanga.png", "group": "other", "rarity": 1}, {"lat": -57.8333, "lng": -57.45, "id": "183533", "name": "Tintinnidae", "sprite": "sp-anchoviella_juruasanga.png", "group": "other", "rarity": 1}, {"lat": -57.575, "lng": -58.9, "id": "181975", "name": "Diastylis planifrons", "sprite": "sp-american_lobster.png", "group": "crab_lobster", "rarity": 1}, {"lat": -58.3667, "lng": -56.2521, "id": "128690", "name": "Oncaea", "sprite": "sp-anchoviella_juruasanga.png", "group": "other", "rarity": 1}, {"lat": -57.8333, "lng": -57.45, "id": "341479", "name": "Chaetoceros neglectus", "sprite": "sp-anchoviella_juruasanga.png", "group": "other", "rarity": 1}, {"lat": -58.5, "lng": -57.75, "id": "341662", "name": "Laackmanniella naviculaefera", "sprite": "sp-anchoviella_juruasanga.png", "group": "other", "rarity": 1}, {"lat": -57.9, "lng": -56.85, "id": "135267", "name": "Poralia", "sprite": "sp-box_jellyfish.png", "group": "jellyfish", "rarity": 1}, {"lat": -57.945, "lng": -57.0617, "id": "883", "name": "Polychaeta", "sprite": "sp-anchoviella_juruasanga.png", "group": "other", "rarity": 1}, {"lat": -57.33, "lng": -57.0, "id": "137165", "name": "Sterna paradisaea", "sprite": "sp-anchoviella_juruasanga.png", "group": "other", "rarity": 1}, {"lat": -58.4993, "lng": -58.5949, "id": "125498", "name": "Myctophidae", "sprite": "sp-anchoviella_juruasanga.png", "group": "other", "rarity": 1}, {"lat": -57.867, "lng": -56.85, "id": "123897", "name": "Lonchotaster tartareus", "sprite": "sp-sea_cucumber.png", "group": "starfish", "rarity": 1}, {"lat": -57.95, "lng": -57.07, "id": "1131", "name": "Isopoda", "sprite": "sp-american_lobster.png", "group": "crab_lobster", "rarity": 1}, {"lat": -57.8333, "lng": -57.45, "id": "661829", "name": "Corethron valdiviae", "sprite": "sp-anchoviella_juruasanga.png", "group": "other", "rarity": 1}, {"lat": -58.2099, "lng": -57.2407, "id": "231413", "name": "Mirounga leonina", "sprite": "sp-elephant_seal.png", "group": "seal", "rarity": 1}, {"lat": -58.2778, "lng": -56.4517, "id": "342434", "name": "Calanoides acutus", "sprite": "sp-anchoviella_juruasanga.png", "group": "other", "rarity": 1}, {"lat": -57.867, "lng": -56.85, "id": "123155", "name": "Hyocrinidae", "sprite": "sp-sea_cucumber.png", "group": "starfish", "rarity": 1}, {"lat": -57.8, "lng": -57.38, "id": "254976", "name": "Cephalorhynchus commersonii", "sprite": "sp-bottlenose_dolphin.png", "group": "dolphin", "rarity": 1}, {"lat": -57.9968, "lng": -58.9189, "id": "1571884", "name": "Sagmatias australis", "sprite": "sp-bottlenose_dolphin.png", "group": "dolphin", "rarity": 1}, {"lat": -57.95, "lng": -57.07, "id": "1292", "name": "Anthozoa", "sprite": "sp-actiniidae.png", "group": "coral", "rarity": 1}, {"lat": -57.5375, "lng": -58.9334, "id": "175027", "name": "Golfingia (Golfingia) margaritacea", "sprite": "sp-anchoviella_juruasanga.png", "group": "other", "rarity": 1}, {"lat": -57.8333, "lng": -57.45, "id": "149038", "name": "Leptocylindrus", "sprite": "sp-anchoviella_juruasanga.png", "group": "other", "rarity": 1}, {"lat": -57.833, "lng": -56.85, "id": "370626", "name": "Galatheabdella bruuni", "sprite": "sp-anchoviella_juruasanga.png", "group": "other", "rarity": 1}, {"lat": -57.8333, "lng": -57.45, "id": "666425", "sprite": "sp-anchoviella_juruasanga.png", "group": "other", "rarity": 1}, {"lat": -57.8333, "lng": -57.45, "id": "666426", "name": "Chaetoceros schimperianus", "sprite": "sp-anchoviella_juruasanga.png", "group": "other", "rarity": 1}, {"lat": -57.8333, "lng": -57.45, "id": "341473", "name": "Chaetoceros castracanei", "sprite": "sp-anchoviella_juruasanga.png", "group": "other", "rarity": 1}, {"lat": -58.3667, "lng": -56.2521, "id": "344689", "name": "Metridia gerlachei", "sprite": "sp-anchoviella_juruasanga.png", "group": "other", "rarity": 1}, {"lat": -57.575, "lng": -58.9, "id": "958", "name": "Tomopteridae", "sprite": "sp-anchoviella_juruasanga.png", "group": "other", "rarity": 1}, {"lat": -58.3667, "lng": -56.2521, "id": "1509944", "name": "Scolecithricella minor minor", "sprite": "sp-anchoviella_juruasanga.png", "group": "other", "rarity": 1}]}