{"zoom": 7, "x": 44, "y": 42, "points": [{"lat": 52.0089, "lng": -55.1091, "id": "841260", "name": "Tripos macroceros", "sprite": "sp-anchoviella_juruasanga.png", "group": "other", "rarity": 1}, {"lat": 51.8848, "lng": -54.9942, "id": "159019", "name": "Pagophilus groenlandicus", "sprite": "sp-elephant_seal.png", "group": "seal", "rarity": 1}, {"lat": 52.333, "lng": -55.85, "id": "106497", "name": "Schizoproctus inflatus", "sprite": "sp-anchoviella_juruasanga.png", "group": "other", "rarity": 1}, {"lat": 51.6555, "lng": -54.7513, "id": "136980", "name": "Delphinidae", "sprite": "sp-bottlenose_dolphin.png", "group": "dolphin", "rarity": 1}, {"lat": 51.8928, "lng": -54.5321, "id": "137073", "name": "Melanitta nigra", "sprite": "sp-anchoviella_juruasanga.png", "group": "other", "rarity": 1}, {"lat": 52.0115, "lng": -54.5919, "id": "1130", "name": "Decapoda", "sprite": "sp-american_lobster.png", "group": "crab_lobster", "rarity": 1}, {"lat": 51.5428, "lng": -54.8361, "id": "107532", "name": "Spirontocaris phippsii", "sprite": "sp-american_lobster.png", "group": "crab_lobster", "rarity": 1}, {"lat": 52.0, "lng": -56.0, "id": "118946", "name": "Exosphaeroma gigas", "sprite": "sp-american_lobster.png", "group": "crab_lobster", "rarity": 1}, {"lat": 51.7038, "lng": -54.8197, "id": "137173", "name": "Stercorarius pomarinus", "sprite": "sp-anchoviella_juruasanga.png", "group": "other", "rarity": 1}, {"lat": 51.8223, "lng": -55.9022, "id": "103814", "name": "Boltenia echinata", "sprite": "sp-anchoviella_juruasanga.png", "group": "other", "rarity": 1}, {"lat": 51.5248, "lng": -55.1684, "id": "125589", "name": "Cottidae", "sprite": "sp-anchoviella_juruasanga.png", "group": "other", "rarity": 1}, {"lat": 51.709, "lng": -55.084, "id": "105", "name": "Bivalvia", "sprite": "sp-blue_mussel.png", "group": "clam_mussel", "rarity": 1}, {"lat": 51.8167, "lng": -55.8804, "id": "100854", "name": "Stomphia coccinea", "sprite": "sp-actiniidae.png", "group": "coral", "rarity": 1}, {"lat": 51.7636, "lng": -53.7386, "id": "367537", "name": "Arctozenus risso kroyeri", "sprite": "sp-anchoviella_juruasanga.png", "group": "other", "rarity": 1}, {"lat": 51.2545, "lng": -55.4665, "id": "1571969", "name": "Myzopsetta ferruginea", "sprite": "sp-atlantic_halibut.png", "group": "flatfish", "rarity": 1}, {"lat": 51.663, "lng": -55.7047, "id": "158885", "name": "Winter flounder", "thumb": "tn_Psame_u1.jpg", "sprite": "sp-atlantic_halibut.png", "group": "flatfish", "rarity": 1, "waterType": "Saltwater"}, {"lat": 51.8316, "lng": -55.8714, "id": "135301", "name": "Cyanea capillata", "sprite": "sp-box_jellyfish.png", "group": "jellyfish", "rarity": 1}, {"lat": 51.33, "lng": -55.17, "id": "1649781", "name": "Hansarsia", "sprite": "sp-antarctic_krill.png", "group": "shrimp", "rarity": 1}, {"lat": 51.9751, "lng": -55.7005, "id": "1268", "name": "Sipuncula", "sprite": "sp-anchoviella_juruasanga.png", "group": "other", "rarity": 1}, {"lat": 51.505, "lng": -55.137, "id": "128634", "name": "Corycaeus", "sprite": "sp-anchoviella_juruasanga.png", "group": "other", "rarity": 1}, {"lat": 52.39, "lng": -54.28, "id": "134688", "name": "Nymphon grossipes", "sprite": "sp-anchoviella_juruasanga.png", "group": "other", "rarity": 1}, {"lat": 51.48, "lng": -54.6, "id": "515738", "name": "Eusergestes arcticus", "sprite": "sp-american_lobster.png", "group": "crab_lobster", "rarity": 1}, {"lat": 51.802, "lng": -55.7732, "id": "123161", "name": "Strongylocentrotidae", "sprite": "sp-sea_cucumber.png", "group": "starfish", "rarity": 1}, {"lat": 51.6825, "lng": -55.0984, "id": "135220", "name": "Scyphozoa", "sprite": "sp-box_jellyfish.png", "group": "jellyfish", "rarity": 1}, {"lat": 51.5892, "lng": -55.1551, "id": "137138", "name": "Larus argentatus", "sprite": "sp-anchoviella_juruasanga.png", "group": "other", "rarity": 1}, {"lat": 51.1678, "lng": -55.5846, "id": "137071", "name": "Clangula hyemalis", "sprite": "sp-anchoviella_juruasanga.png", "group": "other", "rarity": 1}, {"lat": 51.62, "lng": -54.52, "id": "124128", "name": "Diplopteraster multipes", "sprite": "sp-sea_cucumber.png", "group": "starfish", "rarity": 1}, {"lat": 51.4494, "lng": -54.1946, "id": "154675", "name": "Snakeblenny", "thumb": "tn_Lulam_u0.jpg", "sprite": "sp-anchoviella_juruasanga.png", "group": "other", "rarity": 1, "waterType": "Saltwater"}, {"lat": 51.4758, "lng": -54.4722, "id": "138036", "name": "Gonatus", "sprite": "sp-giant_pacific_octopus.png", "group": "octopus_squid", "rarity": 1}, {"lat": 51.6964, "lng": -55.8427, "id": "106273", "name": "Evadne nordmanni", "sprite": "sp-anchoviella_juruasanga.png", "group": "other", "rarity": 1}, {"lat": 51.6477, "lng": -54.0677, "id": "127118", "name": "Vahl's eelpout", "thumb": "tn_Lyvah_u0.gif", "sprite": "sp-anchoviella_juruasanga.png", "group": "other", "rarity": 1, "waterType": "Saltwater"}, {"lat": 52.407, "lng": -54.275, "id": "134711", "name": "Nymphon stroemi", "sprite": "sp-anchoviella_juruasanga.png", "group": "other", "rarity": 1}, {"lat": 51.6967, "lng": -55.0767, "id": "129785", "name": "Amphicteis midas", "sprite": "sp-anchoviella_juruasanga.png", "group": "other", "rarity": 1}, {"lat": 51.7351, "lng": -54.704, "id": "106269", "name": "Podon", "sprite": "sp-anchoviella_juruasanga.png", "group": "other", "rarity": 1}, {"lat": 52.0381, "lng": -54.8573, "id": "104108", "name": "Acartia", "sprite": "sp-anchoviella_juruasanga.png", "group": "other", "rarity": 1}, {"lat": 51.9439, "lng": -53.7957, "id": "126167", "name": "Cottunculus", "sprite": "sp-anchoviella_juruasanga.png", "group": "other", "rarity": 1}, {"lat": 51.5487, "lng": -55.2571, "id": "127096", "name": "Fish doctor", "thumb": "tn_Gyvir_u0.jpg", "sprite": "sp-anchoviella_juruasanga.png", "group": "other", "rarity": 1, "waterType": "Saltwater"}, {"lat": 52.0716, "lng": -55.1067, "id": "153087", "name": "Illex illecebrosus", "sprite": "sp-giant_pacific_octopus.png", "group": "octopus_squid", "rarity": 1}, {"lat": 50.9606, "lng": -53.4737, "id": "136990", "name": "Stercorariidae", "sprite": "sp-anchoviella_juruasanga.png", "group": "other", "rarity": 1}, {"lat": 52.1674, "lng": -55.5033, "id": "103105", "name": "Stegocephalus inflatus", "sprite": "sp-american_lobster.png", "group": "crab_lobster", "rarity": 1}, {"lat": 52.2529, "lng": -55.6071, "id": "125775", "name": "Gasterosteus", "sprite": "sp-anchoviella_juruasanga.png", "group": "other", "rarity": 1}, {"lat": 52.2843, "lng": -55.6314, "id": "159519", "name": "Grubby", "thumb": "tn_Myaen_u0.jpg", "sprite": "sp-anchoviella_juruasanga.png", "group": "other", "rarity": 1, "waterType": "Brackish"}, {"lat": 51.28, "lng": -54.92, "id": "152509", "name": "Goniopectinidae", "sprite": "sp-sea_cucumber.png", "group": "starfish", "rarity": 1}, {"lat": 51.5918, "lng": -54.8312, "id": "107567", "name": "Sabinea septemcarinata", "sprite": "sp-american_lobster.png", "group": "crab_lobster", "rarity": 1}, {"lat": 51.8578, "lng": -54.0335, "id": "151324", "name": "Golden redfish", "thumb": "tn_Semar_ub.jpg", "sprite": "sp-anchoviella_juruasanga.png", "group": "other", "rarity": 1, "waterType": "Saltwater"}, {"lat": 51.6133, "lng": -56.1608, "id": "107205", "name": "Lithodes maja", "sprite": "sp-american_lobster.png", "group": "crab_lobster", "rarity": 1}, {"lat": 51.8398, "lng": -55.4352, "id": "127252", "name": "Acadian redfish", "thumb": "tn_Sefas_u0.jpg", "sprite": "sp-anchoviella_juruasanga.png", "group": "other", "rarity": 1, "waterType": "Saltwater"}, {"lat": 51.9048, "lng": -54.7055, "id": "1135", "name": "Amphipoda", "sprite": "sp-american_lobster.png", "group": "crab_lobster", "rarity": 1}, {"lat": 52.0599, "lng": -54.6179, "id": "10194", "name": "Actinopterygii", "sprite": "sp-anchoviella_juruasanga.png", "group": "other", "rarity": 1}, {"lat": 52.1176, "lng": -55.3355, "id": "126152", "name": "Myoxocephalus", "sprite": "sp-anchoviella_juruasanga.png", "group": "other", "rarity": 1}, {"lat": 51.5804, "lng": -54.3241, "id": "51", "name": "Mollusca", "sprite": "sp-anchoviella_juruasanga.png", "group": "other", "rarity": 1}, {"lat": 52.3833, "lng": -56.0, "id": "126041", "name": "Pholis", "sprite": "sp-anchoviella_juruasanga.png", "group": "other", "rarity": 1}, {"lat": 52.0744, "lng": -54.7043, "id": "840627", "name": "Tripos furca", "sprite": "sp-anchoviella_juruasanga.png", "group": "other", "rarity": 1}, {"lat": 51.56, "lng": -54.17, "id": "105894", "name": "Round ray", "thumb": "tn_Rafyl_u0.jpg", "sprite": "sp-himantura_australis.png", "group": "ray", "rarity": 1, "waterType": "Saltwater"}, {"lat": 52.2083, "lng": -55.7167, "id": "123965", "name": "Henricia eschrichti", "sprite": "sp-sea_cucumber.png", "group": "starfish", "rarity": 1}, {"lat": 51.5966, "lng": -54.2084, "id": "127144", "name": "Greenland halibut", "thumb": "tn_Rehip_u1.jpg", "sprite": "sp-atlantic_halibut.png", "group": "flatfish", "rarity": 1, "waterType": "Saltwater"}, {"lat": 51.8938, "lng": -54.272, "id": "149152", "name": "Pseudo-nitzschia seriata", "sprite": "sp-anchoviella_juruasanga.png", "group": "other", "rarity": 1}, {"lat": 51.5552, "lng": -56.1793, "id": "594013", "name": "Staurostoma mertensii", "sprite": "sp-anchoviella_juruasanga.png", "group": "other", "rarity": 1}, {"lat": 51.5333, "lng": -54.4012, "id": "107044", "name": "Pandalus", "sprite": "sp-american_lobster.png", "group": "crab_lobster", "rarity": 1}, {"lat": 52.1063, "lng": -54.662, "id": "137172", "name": "Stercorarius parasiticus", "sprite": "sp-anchoviella_juruasanga.png", "group": "other", "rarity": 1}, {"lat": 52.0438, "lng": -54.5828, "id": "149028", "name": "Fragilaria", "sprite": "sp-anchoviella_juruasanga.png", "group": "other", "rarity": 1}, {"lat": 51.525, "lng": -54.4901, "id": "123084", "name": "Ophiuroidea", "sprite": "sp-sea_cucumber.png", "group": "starfish", "rarity": 1}, {"lat": 51.8528, "lng": -55.8079, "id": "103483", "name": "Ascidia", "sprite": "sp-anchoviella_juruasanga.png", "group": "other", "rarity": 1}, {"lat": 52.0067, "lng": -55.5033, "id": "117070", "name": "Sarsia", "sprite": "sp-anchoviella_juruasanga.png", "group": "other", "rarity": 1}, {"lat": 51.704, "lng": -54.128, "id": "126504", "name": "White hake", "thumb": "tn_Urten_u1.jpg", "sprite": "sp-anchoviella_juruasanga.png", "group": "other", "rarity": 1, "waterType": "Saltwater"}, {"lat": 52.0, "lng": -55.9333, "id": "234848", "name": "Alitta", "sprite": "sp-anchoviella_juruasanga.png", "group": "other", "rarity": 1}, {"lat": 52.1113, "lng": -55.5527, "id": "103870", "name": "Cnemidocarpa finmarkiensis", "sprite": "sp-anchoviella_juruasanga.png", "group": "other", "rarity": 1}, {"lat": 51.8167, "lng": -56.0833, "id": "103007", "name": "Parapleustes assimilis", "sprite": "sp-american_lobster.png", "group": "crab_lobster", "rarity": 1}, {"lat": 51.623, "lng": -55.1236, "id": "137162", "name": "Sterna hirundo", "sprite": "sp-anchoviella_juruasanga.png", "group": "other", "rarity": 1}, {"lat": 52.08, "lng": -55.12, "id": "138240", "name": "Natica", "sprite": "sp-cowrie_shell.png", "group": "sea_snail", "rarity": 1}, {"lat": 51.6149, "lng": -55.7281, "id": "137074", "name": "Somateria mollissima", "sprite": "sp-anchoviella_juruasanga.png", "group": "other", "rarity": 1}, {"lat": 51.8357, "lng": -54.7461, "id": "495363", "name": "Tripos muelleri", "sprite": "sp-anchoviella_juruasanga.png", "group": "other", "rarity": 1}, {"lat": 51.5501, "lng": -54.66, "id": "137144", "name": "Larus glaucoides", "sprite": "sp-anchoviella_juruasanga.png", "group": "other", "rarity": 1}, {"lat": 51.8362, "lng": -55.8433, "id": "159521", "name": "Eumicrotremus terraenovae", "thumb": "tn_Euter_u0.gif", "sprite": "sp-anchoviella_juruasanga.png", "group": "other", "rarity": 1, "waterType": "Saltwater"}, {"lat": 51.6828, "lng": -54.5137, "id": "136976", "name": "Phocidae", "sprite": "sp-elephant_seal.png", "group": "seal", "rarity": 1}, {"lat": 51.43, "lng": -54.56, "id": "126439", "name": "Blue whiting", "thumb": "tn_Mipou_u4.jpg", "sprite": "sp-arctogadus.png", "group": "cod", "rarity": 1, "waterType": "Saltwater"}, {"lat": 51.6915, "lng": -56.1133, "id": "137885", "name": "Dendronotus", "sprite": "sp-cowrie_shell.png", "group": "sea_snail", "rarity": 1}, {"lat": 51.761, "lng": -55.7219, "id": "105440", "name": "Parasagitta elegans", "sprite": "sp-anchoviella_juruasanga.png", "group": "other", "rarity": 1}, {"lat": 51.6644, "lng": -56.1047, "id": "102152", "name": "Paramphithoe hystrix", "sprite": "sp-american_lobster.png", "group": "crab_lobster", "rarity": 1}, {"lat": 51.8782, "lng": -55.6635, "id": "751812", "name": "Acartia longiremis spiniremis", "sprite": "sp-anchoviella_juruasanga.png", "group": "other", "rarity": 1}, {"lat": 51.8027, "lng": -53.6776, "id": "126472", "name": "Roughhead grenadier", "thumb": "tn_Maber_u1.jpg", "sprite": "sp-anchoviella_juruasanga.png", "group": "other", "rarity": 1, "waterType": "Saltwater"}, {"lat": 51.8025, "lng": -55.6337, "id": "751813", "name": "Schizopoda", "sprite": "sp-american_lobster.png", "group": "crab_lobster", "rarity": 1}, {"lat": 52.023, "lng": -55.633, "id": "102514", "name": "Anonyx nugax", "sprite": "sp-american_lobster.png", "group": "crab_lobster", "rarity": 1}, {"lat": 51.01, "lng": -53.6, "id": "127374", "name": "Boa dragonfish", "thumb": "tn_Stboa_u1.jpg", "sprite": "sp-anchoviella_juruasanga.png", "group": "other", "rarity": 1, "waterType": "Saltwater"}, {"lat": 51.7451, "lng": -55.5875, "id": "883", "name": "Polychaeta", "sprite": "sp-anchoviella_juruasanga.png", "group": "other", "rarity": 1}, {"lat": 51.6962, "lng": -54.5237, "id": "137088", "name": "Balaenoptera borealis", "sprite": "sp-blue_whale.png", "group": "whale", "rarity": 1}, {"lat": 51.11, "lng": -54.98, "id": "123776", "name": "Asterias rubens", "sprite": "sp-sea_cucumber.png", "group": "starfish", "rarity": 1}, {"lat": 52.01, "lng": -54.25, "id": "127073", "name": "Slender eelblenny", "thumb": "tn_Lufab_u1.jpg", "sprite": "sp-anchoviella_juruasanga.png", "group": "other", "rarity": 1, "waterType": "Saltwater"}, {"lat": 51.9706, "lng": -54.5733, "id": "126088", "name": "Lumpenus", "sprite": "sp-anchoviella_juruasanga.png", "group": "other", "rarity": 1}, {"lat": 51.445, "lng": -55.07, "id": "103449", "name": "Pyuridae", "sprite": "sp-anchoviella_juruasanga.png", "group": "other", "rarity": 1}, {"lat": 52.0, "lng": -56.0, "id": "140596", "name": "Bathypolypus arcticus", "sprite": "sp-giant_pacific_octopus.png", "group": "octopus_squid", "rarity": 1}, {"lat": 51.93, "lng": -55.3661, "id": "126643", "name": "Snubnosed spiny eel", "thumb": "tn_Noche_u0.jpg", "sprite": "sp-anchoviella_juruasanga.png", "group": "other", "rarity": 1, "waterType": "Saltwater"}, {"lat": 51.6167, "lng": -55.9, "id": "125541", "name": "Labridae", "sprite": "sp-cleaner_wrasse.png", "group": "wrasse", "rarity": 1}, {"lat": 51.7751, "lng": -55.0411, "id": "137201", "name": "Puffinus gravis", "sprite": "sp-anchoviella_juruasanga.png", "group": "other", "rarity": 1}, {"lat": 52.0655, "lng": -53.8473, "id": "125498", "name": "Myctophidae", "sprite": "sp-anchoviella_juruasanga.png", "group": "other", "rarity": 1}, {"lat": 51.8478, "lng": -55.8018, "id": "106854", "name": "Pagurus", "sprite": "sp-american_lobster.png", "group": "crab_lobster", "rarity": 1}, {"lat": 51.25, "lng": -55.3167, "id": "137003", "name": "Somateria", "sprite": "sp-anchoviella_juruasanga.png", "group": "other", "rarity": 1}, {"lat": 51.6442, "lng": -55.7254, "id": "140103", "name": "Hiatella arctica", "sprite": "sp-blue_mussel.png", "group": "clam_mussel", "rarity": 1}, {"lat": 52.0367, "lng": -55.6289, "id": "111445", "name": "Phidolopora elongata", "sprite": "sp-anchoviella_juruasanga.png", "group": "other", "rarity": 1}, {"lat": 51.6775, "lng": -55.1006, "id": "159267", "name": "Ocean pout", "thumb": "tn_Zoame_u1.jpg", "sprite": "sp-anchoviella_juruasanga.png", "group": "other", "rarity": 1, "waterType": "Brackish"}, {"lat": 52.19, "lng": -53.52, "id": "10216", "name": "Rajiformes", "sprite": "sp-himantura_australis.png", "group": "ray", "rarity": 1}, {"lat": 51.8683, "lng": -55.9089, "id": "125909", "name": "Ammodytes", "sprite": "sp-anchoviella_juruasanga.png", "group": "other", "rarity": 1}, {"lat": 51.2376, "lng": -54.599, "id": "159520", "name": "Longhorn sculpin", "thumb": "tn_Myoct_u1.jpg", "sprite": "sp-anchoviella_juruasanga.png", "group": "other", "rarity": 1, "waterType": "Brackish"}, {"lat": 51.9653, "lng": -55.3952, "id": "127215", "name": "Leatherfin lumpsucker", "thumb": "tn_Euder_u0.jpg", "sprite": "sp-anchoviella_juruasanga.png", "group": "other", "rarity": 1, "waterType": "Saltwater"}, {"lat": 51.5289, "lng": -54.3779, "id": "127112", "name": "Arctic eelpout", "thumb": "tn_Lyret_u1.jpg", "sprite": "sp-anchoviella_juruasanga.png", "group": "other", "rarity": 1, "waterType": "Saltwater"}, {"lat": 52.1256, "lng": -53.8901, "id": "104566", "name": "Paraeuchaeta norvegica", "sprite": "sp-anchoviella_juruasanga.png", "group": "other", "rarity": 1}, {"lat": 51.7369, "lng": -54.784, "id": "137051", "name": "Stercorarius", "sprite": "sp-anchoviella_juruasanga.png", "group": "other", "rarity": 1}, {"lat": 52.0214, "lng": -55.65, "id": "137188", "name": "Gavia stellata", "sprite": "sp-anchoviella_juruasanga.png", "group": "other", "rarity": 1}, {"lat": 51.81, "lng": -56.1, "id": "158188", "name": "Sertularia similis", "sprite": "sp-anchoviella_juruasanga.png", "group": "other", "rarity": 1}, {"lat": 51.82, "lng": -55.9087, "id": "117940", "name": "Thuiaria thuja", "sprite": "sp-anchoviella_juruasanga.png", "group": "other", "rarity": 1}, {"lat": 51.6848, "lng": -56.2072, "id": "111277", "name": "Celleporina surcularis", "sprite": "sp-anchoviella_juruasanga.png", "group": "other", "rarity": 1}, {"lat": 51.752, "lng": -56.0628, "id": "138823", "name": "Astarte montagui", "sprite": "sp-blue_mussel.png", "group": "clam_mussel", "rarity": 1}, {"lat": 51.8815, "lng": -55.8982, "id": "124933", "name": "Ophiura robusta", "sprite": "sp-sea_cucumber.png", "group": "starfish", "rarity": 1}, {"lat": 51.733, "lng": -53.517, "id": "117791", "name": "Leuckartiara octona", "sprite": "sp-anchoviella_juruasanga.png", "group": "other", "rarity": 1}, {"lat": 52.2317, "lng": -55.6212, "id": "125898", "name": "Mallotus", "sprite": "sp-anchoviella_juruasanga.png", "group": "other", "rarity": 1}, {"lat": 51.35, "lng": -53.92, "id": "125376", "name": "Keratoisis grayi", "sprite": "sp-actiniidae.png", "group": "coral", "rarity": 1}, {"lat": 51.9227, "lng": -55.5159, "id": "137701", "name": "Buccinum", "sprite": "sp-cowrie_shell.png", "group": "sea_snail", "rarity": 1}, {"lat": 51.6488, "lng": -55.6763, "id": "123083", "name": "Holothuroidea", "sprite": "sp-sea_cucumber.png", "group": "starfish", "rarity": 1}, {"lat": 50.96, "lng": -55.07, "id": "159530", "name": "Paraliparis copei", "sprite": "sp-anchoviella_juruasanga.png", "group": "other", "rarity": 1}, {"lat": 51.6848, "lng": -56.2072, "id": "110875", "name": "Celleporina", "sprite": "sp-anchoviella_juruasanga.png", "group": "other", "rarity": 1}]}