{"zoom": 7, "x": 44, "y": 95, "points": [{"lat": -65.893, "lng": -54.8723, "id": "231413", "name": "Mirounga leonina", "sprite": "sp-elephant_seal.png", "group": "seal", "rarity": 1}, {"lat": -66.2567, "lng": -53.445, "id": "172700", "name": "Smilasterias scalprifera", "sprite": "sp-sea_cucumber.png", "group": "starfish", "rarity": 1}, {"lat": -66.2567, "lng": -53.445, "id": "172769", "name": "Acodontaster elongatus", "sprite": "sp-sea_cucumber.png", "group": "starfish", "rarity": 1}, {"lat": -65.9333, "lng": -54.5833, "id": "121360", "name": "Sabatieria celtica", "sprite": "sp-anchoviella_juruasanga.png", "group": "other", "rarity": 1}, {"lat": -66.0592, "lng": -53.715, "id": "178549", "name": "Diplopteraster verrucosus", "sprite": "sp-sea_cucumber.png", "group": "starfish", "rarity": 1}, {"lat": -66.1, "lng": -54.5833, "id": "230231", "name": "Daptonema macrocirculus", "sprite": "sp-anchoviella_juruasanga.png", "group": "other", "rarity": 1}, {"lat": -65.933, "lng": -54.583, "id": "536012", "name": "Austrinoecia isocheira", "sprite": "sp-anchoviella_juruasanga.png", "group": "other", "rarity": 1}, {"lat": -66.2567, "lng": -53.445, "id": "178757", "name": "Henricia obesa", "sprite": "sp-sea_cucumber.png", "group": "starfish", "rarity": 1}, {"lat": -65.7561, "lng": -53.5094, "id": "172748", "name": "Cycethra verrucosa", "sprite": "sp-sea_cucumber.png", "group": "starfish", "rarity": 1}, {"lat": -65.7825, "lng": -53.6283, "id": "178790", "name": "Diplasterias brandti", "sprite": "sp-sea_cucumber.png", "group": "starfish", "rarity": 1}, {"lat": -65.9308, "lng": -53.45, "id": "172780", "name": "Pteraster affinis", "sprite": "sp-sea_cucumber.png", "group": "starfish", "rarity": 1}, {"lat": -65.9333, "lng": -54.5833, "id": "161294", "name": "Grahamius odhneri", "sprite": "sp-anchoviella_juruasanga.png", "group": "other", "rarity": 1}, {"lat": -65.605, "lng": -53.455, "id": "178761", "name": "Henricia studeri", "sprite": "sp-sea_cucumber.png", "group": "starfish", "rarity": 1}, {"lat": -66.2567, "lng": -53.445, "id": "248006", "name": "Anasterias pedicellaris", "sprite": "sp-sea_cucumber.png", "group": "starfish", "rarity": 1}, {"lat": -65.4067, "lng": -53.6283, "id": "178730", "name": "Ctenodiscus australis", "sprite": "sp-sea_cucumber.png", "group": "starfish", "rarity": 1}, {"lat": -65.93, "lng": -54.58, "id": "173022", "name": "Austrodecus profundum", "sprite": "sp-anchoviella_juruasanga.png", "group": "other", "rarity": 1}, {"lat": -66.3, "lng": -54.5833, "id": "234626", "name": "Magellan plunderfish", "thumb": "tn_Habis_u0.gif", "sprite": "sp-anchoviella_juruasanga.png", "group": "other", "rarity": 1, "waterType": "Saltwater"}, {"lat": -65.9333, "lng": -54.5833, "id": "229962", "name": "Laimella filipjevi", "sprite": "sp-anchoviella_juruasanga.png", "group": "other", "rarity": 1}, {"lat": -65.8617, "lng": -53.985, "id": "177924", "name": "Odontaster penicillatus", "sprite": "sp-sea_cucumber.png", "group": "starfish", "rarity": 1}, {"lat": -65.9333, "lng": -54.5792, "id": "237468", "name": "Byblis antarctica", "sprite": "sp-american_lobster.png", "group": "crab_lobster", "rarity": 1}, {"lat": -65.4483, "lng": -53.5889, "id": "225757", "name": "Pygoscelis adeliae", "sprite": "sp-anchoviella_juruasanga.png", "group": "other", "rarity": 1}, {"lat": -65.9333, "lng": -54.5833, "id": "533026", "name": "Margarella expansa", "sprite": "sp-cowrie_shell.png", "group": "sea_snail", "rarity": 1}, {"lat": -65.9333, "lng": -54.5833, "id": "197465", "name": "Tectonatica impervia", "sprite": "sp-cowrie_shell.png", "group": "sea_snail", "rarity": 1}, {"lat": -65.9333, "lng": -54.5833, "id": "121366", "name": "Sabatieria longicaudata", "sprite": "sp-anchoviella_juruasanga.png", "group": "other", "rarity": 1}, {"lat": -65.6563, "lng": -54.1979, "id": "137102", "name": "Orcinus orca", "sprite": "sp-bottlenose_dolphin.png", "group": "dolphin", "rarity": 1}, {"lat": -65.933, "lng": -54.583, "id": "172456", "name": "Alacia hettacra", "sprite": "sp-anchoviella_juruasanga.png", "group": "other", "rarity": 1}, {"lat": -65.9333, "lng": -54.5833, "id": "153262", "name": "Sabatieria tenuicaudata", "sprite": "sp-anchoviella_juruasanga.png", "group": "other", "rarity": 1}, {"lat": -66.2567, "lng": -53.445, "id": "172715", "name": "Bathybiaster loripes", "sprite": "sp-sea_cucumber.png", "group": "starfish", "rarity": 1}, {"lat": -65.9333, "lng": -54.5833, "id": "121082", "name": "Microlaimus honestus", "sprite": "sp-anchoviella_juruasanga.png", "group": "other", "rarity": 1}, {"lat": -65.9308, "lng": -53.45, "id": "172678", "name": "Cosmasterias lurida", "sprite": "sp-sea_cucumber.png", "group": "starfish", "rarity": 1}, {"lat": -65.8505, "lng": -55.6627, "id": "798754", "name": "Parakanthophoreus weddellensis", "sprite": "sp-american_lobster.png", "group": "crab_lobster", "rarity": 1}, {"lat": -65.9333, "lng": -54.5833, "id": "557693", "name": "Uristes murrayi", "sprite": "sp-american_lobster.png", "group": "crab_lobster", "rarity": 1}]}