{"zoom": 7, "x": 45, "y": 33, "points": [{"lat": 64.4476, "lng": -52.8831, "id": "137173", "name": "Stercorarius pomarinus", "sprite": "sp-anchoviella_juruasanga.png", "group": "other", "rarity": 1}, {"lat": 64.345, "lng": -51.285, "id": "101734", "name": "Dulichia", "sprite": "sp-american_lobster.png", "group": "crab_lobster", "rarity": 1}, {"lat": 64.7496, "lng": -53.0835, "id": "104074", "name": "Acartiidae", "sprite": "sp-anchoviella_juruasanga.png", "group": "other", "rarity": 1}, {"lat": 64.4567, "lng": -51.1, "id": "129270", "name": "Parougia", "sprite": "sp-anchoviella_juruasanga.png", "group": "other", "rarity": 1}, {"lat": 64.7433, "lng": -53.0584, "id": "1102", "name": "Harpacticoida", "sprite": "sp-anchoviella_juruasanga.png", "group": "other", "rarity": 1}, {"lat": 64.27, "lng": -51.07, "id": "110403", "name": "Leptostylis", "sprite": "sp-american_lobster.png", "group": "crab_lobster", "rarity": 1}, {"lat": 64.55, "lng": -51.115, "id": "154965", "name": "Leaena ebranchiata", "sprite": "sp-anchoviella_juruasanga.png", "group": "other", "rarity": 1}, {"lat": 64.1772, "lng": -51.5436, "id": "254538", "name": "Pacific cod", "thumb": "tn_Gamac_u9.jpg", "sprite": "sp-arctogadus.png", "group": "cod", "rarity": 1, "waterType": "Brackish"}, {"lat": 64.4567, "lng": -51.1, "id": "130980", "name": "Scalibregma inflatum", "sprite": "sp-anchoviella_juruasanga.png", "group": "other", "rarity": 1}, {"lat": 64.7496, "lng": -53.0835, "id": "103356", "name": "Oikopleuridae", "sprite": "sp-anchoviella_juruasanga.png", "group": "other", "rarity": 1}, {"lat": 65.0167, "lng": -53.1167, "id": "127118", "name": "Vahl's eelpout", "thumb": "tn_Lyvah_u0.gif", "sprite": "sp-anchoviella_juruasanga.png", "group": "other", "rarity": 1, "waterType": "Saltwater"}, {"lat": 64.27, "lng": -51.07, "id": "130604", "name": "Pholoe pallida", "sprite": "sp-anchoviella_juruasanga.png", "group": "other", "rarity": 1}, {"lat": 64.183, "lng": -51.75, "id": "138135", "name": "Littorina", "sprite": "sp-cowrie_shell.png", "group": "sea_snail", "rarity": 1}, {"lat": 64.345, "lng": -51.285, "id": "140584", "name": "Ennucula tenuis", "sprite": "sp-blue_mussel.png", "group": "clam_mussel", "rarity": 1}, {"lat": 64.5333, "lng": -51.0975, "id": "125775", "name": "Gasterosteus", "sprite": "sp-anchoviella_juruasanga.png", "group": "other", "rarity": 1}, {"lat": 64.4567, "lng": -51.1, "id": "157398", "name": "Glyphanostomum pallescens", "sprite": "sp-anchoviella_juruasanga.png", "group": "other", "rarity": 1}, {"lat": 64.27, "lng": -51.07, "id": "130537", "name": "Scoloplos armiger", "sprite": "sp-anchoviella_juruasanga.png", "group": "other", "rarity": 1}, {"lat": 64.55, "lng": -51.115, "id": "130305", "name": "Maldane sarsi", "sprite": "sp-anchoviella_juruasanga.png", "group": "other", "rarity": 1}, {"lat": 64.27, "lng": -51.07, "id": "110489", "name": "Diastylis scorpioides", "sprite": "sp-american_lobster.png", "group": "crab_lobster", "rarity": 1}, {"lat": 64.4567, "lng": -51.1, "id": "142010", "name": "Yoldiella solidula", "sprite": "sp-blue_mussel.png", "group": "clam_mussel", "rarity": 1}, {"lat": 64.7674, "lng": -52.3543, "id": "137144", "name": "Larus glaucoides", "sprite": "sp-anchoviella_juruasanga.png", "group": "other", "rarity": 1}, {"lat": 64.345, "lng": -51.285, "id": "1468915", "name": "Saphobranchia longisetosa", "sprite": "sp-anchoviella_juruasanga.png", "group": "other", "rarity": 1}, {"lat": 64.7496, "lng": -53.0835, "id": "1066", "name": "Crustacea", "sprite": "sp-anchoviella_juruasanga.png", "group": "other", "rarity": 1}, {"lat": 64.1736, "lng": -51.7542, "id": "480781", "name": "Oekiocolax plagiostomorum", "sprite": "sp-anchoviella_juruasanga.png", "group": "other", "rarity": 1}, {"lat": 64.25, "lng": -52.7333, "id": "127828", "name": "Obtusoecia obtusata", "sprite": "sp-anchoviella_juruasanga.png", "group": "other", "rarity": 1}, {"lat": 64.55, "lng": -51.115, "id": "734529", "name": "Aricidea (Strelzovia) quadrilobata", "sprite": "sp-anchoviella_juruasanga.png", "group": "other", "rarity": 1}, {"lat": 64.27, "lng": -51.07, "id": "129985", "name": "Cossura pygodactylata", "sprite": "sp-anchoviella_juruasanga.png", "group": "other", "rarity": 1}, {"lat": 64.7728, "lng": -53.1552, "id": "136979", "name": "Balaenopteridae", "sprite": "sp-blue_whale.png", "group": "whale", "rarity": 1}, {"lat": 64.55, "lng": -51.115, "id": "129483", "name": "Bylgides", "sprite": "sp-anchoviella_juruasanga.png", "group": "other", "rarity": 1}, {"lat": 64.915, "lng": -53.1525, "id": "137088", "name": "Balaenoptera borealis", "sprite": "sp-blue_whale.png", "group": "whale", "rarity": 1}, {"lat": 64.68, "lng": -50.73, "id": "102200", "name": "Eusirus holmii", "sprite": "sp-american_lobster.png", "group": "crab_lobster", "rarity": 1}, {"lat": 64.27, "lng": -51.07, "id": "101446", "name": "Byblis", "sprite": "sp-american_lobster.png", "group": "crab_lobster", "rarity": 1}, {"lat": 64.27, "lng": -51.07, "id": "101897", "name": "Ampelisca eschrichtii", "sprite": "sp-american_lobster.png", "group": "crab_lobster", "rarity": 1}, {"lat": 64.475, "lng": -50.9, "id": "129528", "name": "Euchone", "sprite": "sp-anchoviella_juruasanga.png", "group": "other", "rarity": 1}, {"lat": 64.7609, "lng": -53.107, "id": "104081", "name": "Centropagidae", "sprite": "sp-anchoviella_juruasanga.png", "group": "other", "rarity": 1}, {"lat": 64.42, "lng": -51.5, "id": "137701", "name": "Buccinum", "sprite": "sp-cowrie_shell.png", "group": "sea_snail", "rarity": 1}, {"lat": 64.27, "lng": -51.07, "id": "110398", "name": "Diastylis", "sprite": "sp-american_lobster.png", "group": "crab_lobster", "rarity": 1}, {"lat": 64.7609, "lng": -53.107, "id": "128586", "name": "Oncaeidae", "sprite": "sp-anchoviella_juruasanga.png", "group": "other", "rarity": 1}, {"lat": 64.345, "lng": -51.285, "id": "975", "name": "Oweniidae", "sprite": "sp-anchoviella_juruasanga.png", "group": "other", "rarity": 1}, {"lat": 64.5, "lng": -51.3833, "id": "142654", "name": "Haploposthia brunea", "sprite": "sp-anchoviella_juruasanga.png", "group": "other", "rarity": 1}, {"lat": 64.5644, "lng": -52.877, "id": "137041", "name": "Uria", "sprite": "sp-anchoviella_juruasanga.png", "group": "other", "rarity": 1}, {"lat": 64.68, "lng": -50.73, "id": "130613", "name": "Eteone flava", "sprite": "sp-anchoviella_juruasanga.png", "group": "other", "rarity": 1}, {"lat": 64.6638, "lng": -52.9381, "id": "137156", "name": "Rissa tridactyla", "sprite": "sp-anchoviella_juruasanga.png", "group": "other", "rarity": 1}, {"lat": 64.27, "lng": -51.07, "id": "130327", "name": "Praxillura longissima", "sprite": "sp-anchoviella_juruasanga.png", "group": "other", "rarity": 1}, {"lat": 64.345, "lng": -51.285, "id": "129876", "name": "Capitella capitata", "sprite": "sp-anchoviella_juruasanga.png", "group": "other", "rarity": 1}, {"lat": 64.42, "lng": -51.5, "id": "868065", "name": "Pista maculata", "sprite": "sp-anchoviella_juruasanga.png", "group": "other", "rarity": 1}, {"lat": 64.32, "lng": -51.2133, "id": "129242", "name": "Chaetozone", "sprite": "sp-anchoviella_juruasanga.png", "group": "other", "rarity": 1}, {"lat": 64.6375, "lng": -53.015, "id": "149093", "name": "Thalassionema nitzschioides", "sprite": "sp-anchoviella_juruasanga.png", "group": "other", "rarity": 1}, {"lat": 65.0, "lng": -53.0, "id": "127186", "name": "Atlantic salmon", "thumb": "tn_Sasal_ub.jpg", "sprite": "sp-atlantic_salmon.png", "group": "salmon_trout", "rarity": 1, "waterType": "Brackish"}, {"lat": 64.4567, "lng": -51.1, "id": "131164", "name": "Prionospio steenstrupi", "sprite": "sp-anchoviella_juruasanga.png", "group": "other", "rarity": 1}, {"lat": 64.1736, "lng": -51.7542, "id": "483265", "name": "Coleophora levinseni", "sprite": "sp-anchoviella_juruasanga.png", "group": "other", "rarity": 1}, {"lat": 64.27, "lng": -51.07, "id": "146951", "name": "Galathowenia fragilis", "sprite": "sp-anchoviella_juruasanga.png", "group": "other", "rarity": 1}, {"lat": 64.55, "lng": -51.115, "id": "123915", "name": "Ctenodiscus crispatus", "sprite": "sp-sea_cucumber.png", "group": "starfish", "rarity": 1}, {"lat": 64.1736, "lng": -51.7542, "id": "480342", "name": "Proaphanostoma variabile", "sprite": "sp-anchoviella_juruasanga.png", "group": "other", "rarity": 1}, {"lat": 64.27, "lng": -51.07, "id": "196391", "name": "Tachyrhynchus erosus", "sprite": "sp-cowrie_shell.png", "group": "sea_snail", "rarity": 1}, {"lat": 64.45, "lng": -52.15, "id": "137130", "name": "Cepphus grylle", "sprite": "sp-anchoviella_juruasanga.png", "group": "other", "rarity": 1}, {"lat": 64.3, "lng": -52.9056, "id": "137171", "name": "Stercorarius longicaudus", "sprite": "sp-anchoviella_juruasanga.png", "group": "other", "rarity": 1}, {"lat": 64.1736, "lng": -51.7542, "id": "379899", "name": "Tetraposthia colymbetes", "sprite": "sp-anchoviella_juruasanga.png", "group": "other", "rarity": 1}, {"lat": 64.27, "lng": -51.07, "id": "110415", "name": "Campylaspis", "sprite": "sp-american_lobster.png", "group": "crab_lobster", "rarity": 1}, {"lat": 64.4567, "lng": -51.1, "id": "129924", "name": "Spiochaetopterus typicus", "sprite": "sp-anchoviella_juruasanga.png", "group": "other", "rarity": 1}, {"lat": 64.3705, "lng": -52.1012, "id": "127138", "name": "Atlantic halibut", "thumb": "tn_Hihip_u3.jpg", "sprite": "sp-atlantic_halibut.png", "group": "flatfish", "rarity": 1, "waterType": "Saltwater"}, {"lat": 64.1825, "lng": -51.7535, "id": "159846", "name": "Banded gunnel", "thumb": "tn_Phfas_u0.jpg", "sprite": "sp-anchoviella_juruasanga.png", "group": "other", "rarity": 1, "waterType": "Saltwater"}, {"lat": 64.7416, "lng": -53.1223, "id": "136987", "name": "Alcidae", "sprite": "sp-anchoviella_juruasanga.png", "group": "other", "rarity": 1}, {"lat": 64.55, "lng": -51.115, "id": "138797", "name": "Bathyarca glacialis", "sprite": "sp-blue_mussel.png", "group": "clam_mussel", "rarity": 1}, {"lat": 64.391, "lng": -52.7622, "id": "137092", "name": "Megaptera novaeangliae", "sprite": "sp-blue_whale.png", "group": "whale", "rarity": 1}, {"lat": 64.3705, "lng": -52.1012, "id": "127136", "name": "Witch flounder", "thumb": "tn_Glcyn_u1.jpg", "sprite": "sp-atlantic_halibut.png", "group": "flatfish", "rarity": 1, "waterType": "Saltwater"}, {"lat": 64.9002, "lng": -53.1727, "id": "1571853", "name": "Leucopleurus acutus", "sprite": "sp-bottlenose_dolphin.png", "group": "dolphin", "rarity": 1}, {"lat": 64.345, "lng": -51.285, "id": "1133", "name": "Tanaidacea", "sprite": "sp-american_lobster.png", "group": "crab_lobster", "rarity": 1}, {"lat": 64.27, "lng": -51.07, "id": "131129", "name": "Laonice sarsi", "sprite": "sp-anchoviella_juruasanga.png", "group": "other", "rarity": 1}, {"lat": 64.27, "lng": -51.07, "id": "140440", "name": "Crenella decussata", "sprite": "sp-blue_mussel.png", "group": "clam_mussel", "rarity": 1}, {"lat": 64.4567, "lng": -51.1, "id": "130344", "name": "Aglaophamus malmgreni", "sprite": "sp-anchoviella_juruasanga.png", "group": "other", "rarity": 1}, {"lat": 64.7609, "lng": -53.107, "id": "105", "name": "Bivalvia", "sprite": "sp-blue_mussel.png", "group": "clam_mussel", "rarity": 1}, {"lat": 64.1706, "lng": -51.7194, "id": "126152", "name": "Myoxocephalus", "sprite": "sp-anchoviella_juruasanga.png", "group": "other", "rarity": 1}, {"lat": 64.68, "lng": -50.73, "id": "102870", "name": "Arrhis phyllonyx", "sprite": "sp-american_lobster.png", "group": "crab_lobster", "rarity": 1}, {"lat": 64.1833, "lng": -51.75, "id": "137167", "name": "Xema sabini", "sprite": "sp-anchoviella_juruasanga.png", "group": "other", "rarity": 1}, {"lat": 64.7383, "lng": -53.06, "id": "104086", "name": "Euchaetidae", "sprite": "sp-anchoviella_juruasanga.png", "group": "other", "rarity": 1}, {"lat": 64.42, "lng": -51.5, "id": "110524", "name": "Eudorella emarginata", "sprite": "sp-american_lobster.png", "group": "crab_lobster", "rarity": 1}, {"lat": 64.4567, "lng": -51.1, "id": "131153", "name": "Prionospio cirrifera", "sprite": "sp-anchoviella_juruasanga.png", "group": "other", "rarity": 1}, {"lat": 64.1916, "lng": -52.9167, "id": "137133", "name": "Uria aalge", "sprite": "sp-anchoviella_juruasanga.png", "group": "other", "rarity": 1}, {"lat": 64.8129, "lng": -53.1496, "id": "370366", "name": "Chaetoceros (Hyalochaete)", "sprite": "sp-anchoviella_juruasanga.png", "group": "other", "rarity": 1}, {"lat": 64.27, "lng": -51.07, "id": "102973", "name": "Harpinia plumosa", "sprite": "sp-american_lobster.png", "group": "crab_lobster", "rarity": 1}, {"lat": 64.355, "lng": -53.2067, "id": "163030", "name": "Phaeoceros", "sprite": "sp-anchoviella_juruasanga.png", "group": "other", "rarity": 1}, {"lat": 64.42, "lng": -51.5, "id": "160455", "name": "Propebela exarata", "sprite": "sp-cowrie_shell.png", "group": "sea_snail", "rarity": 1}, {"lat": 64.18, "lng": -51.73, "id": "592997", "name": "Halcampoides purpureus", "sprite": "sp-actiniidae.png", "group": "coral", "rarity": 1}, {"lat": 64.3705, "lng": -52.1012, "id": "1571969", "name": "Myzopsetta ferruginea", "sprite": "sp-atlantic_halibut.png", "group": "flatfish", "rarity": 1}, {"lat": 64.1736, "lng": -51.7542, "id": "480314", "name": "Aphanostoma bimaculata", "sprite": "sp-anchoviella_juruasanga.png", "group": "other", "rarity": 1}, {"lat": 64.27, "lng": -51.07, "id": "130601", "name": "Pholoe inornata", "sprite": "sp-anchoviella_juruasanga.png", "group": "other", "rarity": 1}, {"lat": 64.3705, "lng": -52.1012, "id": "126437", "name": "Haddock", "thumb": "tn_Meaeg_u1.jpg", "sprite": "sp-arctogadus.png", "group": "cod", "rarity": 1, "waterType": "Saltwater"}, {"lat": 64.3962, "lng": -52.1741, "id": "127144", "name": "Greenland halibut", "thumb": "tn_Rehip_u1.jpg", "sprite": "sp-atlantic_halibut.png", "group": "flatfish", "rarity": 1, "waterType": "Saltwater"}, {"lat": 64.27, "lng": -51.07, "id": "333456", "name": "Exogone verugera", "sprite": "sp-anchoviella_juruasanga.png", "group": "other", "rarity": 1}, {"lat": 64.27, "lng": -51.07, "id": "129955", "name": "Chaetozone setosa", "sprite": "sp-anchoviella_juruasanga.png", "group": "other", "rarity": 1}, {"lat": 64.1833, "lng": -51.75, "id": "159092", "name": "Histrionicus histrionicus", "sprite": "sp-anchoviella_juruasanga.png", "group": "other", "rarity": 1}, {"lat": 64.27, "lng": -51.07, "id": "130544", "name": "Owenia fusiformis", "sprite": "sp-anchoviella_juruasanga.png", "group": "other", "rarity": 1}, {"lat": 64.345, "lng": -51.285, "id": "130578", "name": "Levinsenia gracilis", "sprite": "sp-anchoviella_juruasanga.png", "group": "other", "rarity": 1}, {"lat": 64.1736, "lng": -51.7542, "id": "483282", "name": "Diporoplana cnidophora", "sprite": "sp-anchoviella_juruasanga.png", "group": "other", "rarity": 1}, {"lat": 64.7383, "lng": -53.06, "id": "345868", "name": "Phaeodaria", "sprite": "sp-anchoviella_juruasanga.png", "group": "other", "rarity": 1}, {"lat": 64.27, "lng": -51.07, "id": "138821", "name": "Astarte elliptica", "sprite": "sp-blue_mussel.png", "group": "clam_mussel", "rarity": 1}, {"lat": 65.1791, "lng": -53.2533, "id": "156509", "name": "Ceratium arcticum", "sprite": "sp-anchoviella_juruasanga.png", "group": "other", "rarity": 1}, {"lat": 64.8021, "lng": -53.0247, "id": "1080", "name": "Copepoda", "sprite": "sp-anchoviella_juruasanga.png", "group": "other", "rarity": 1}, {"lat": 64.4667, "lng": -52.7167, "id": "159052", "name": "Calidris maritima", "sprite": "sp-anchoviella_juruasanga.png", "group": "other", "rarity": 1}, {"lat": 64.7496, "lng": -53.0835, "id": "1086", "name": "Eumalacostraca", "sprite": "sp-american_lobster.png", "group": "crab_lobster", "rarity": 1}, {"lat": 64.1833, "lng": -51.75, "id": "159098", "name": "Mergus serrator", "sprite": "sp-anchoviella_juruasanga.png", "group": "other", "rarity": 1}, {"lat": 64.27, "lng": -51.07, "id": "101908", "name": "Ampelisca macrocephala", "sprite": "sp-american_lobster.png", "group": "crab_lobster", "rarity": 1}, {"lat": 64.3705, "lng": -52.1012, "id": "126175", "name": "Sebastes", "sprite": "sp-anchoviella_juruasanga.png", "group": "other", "rarity": 1}, {"lat": 64.345, "lng": -51.285, "id": "130732", "name": "Bylgides elegans", "sprite": "sp-anchoviella_juruasanga.png", "group": "other", "rarity": 1}, {"lat": 64.27, "lng": -51.07, "id": "971", "name": "Dorvilleidae", "sprite": "sp-anchoviella_juruasanga.png", "group": "other", "rarity": 1}, {"lat": 64.27, "lng": -51.07, "id": "140187", "name": "Lepeta caeca", "sprite": "sp-cowrie_shell.png", "group": "sea_snail", "rarity": 1}, {"lat": 64.4567, "lng": -51.1, "id": "129921", "name": "Spiochaetopterus bergensis", "sprite": "sp-anchoviella_juruasanga.png", "group": "other", "rarity": 1}, {"lat": 64.6795, "lng": -52.9316, "id": "137119", "name": "Physeter macrocephalus", "sprite": "sp-blue_whale.png", "group": "whale", "rarity": 1}, {"lat": 64.753, "lng": -52.9785, "id": "137145", "name": "Larus hyperboreus", "sprite": "sp-anchoviella_juruasanga.png", "group": "other", "rarity": 1}, {"lat": 64.27, "lng": -51.07, "id": "141652", "name": "Axinopsida orbiculata", "sprite": "sp-blue_mussel.png", "group": "clam_mussel", "rarity": 1}, {"lat": 64.27, "lng": -51.07, "id": "852864", "name": "Parexogone longicirris", "sprite": "sp-anchoviella_juruasanga.png", "group": "other", "rarity": 1}, {"lat": 64.6037, "lng": -53.0504, "id": "137131", "name": "Fratercula arctica", "sprite": "sp-anchoviella_juruasanga.png", "group": "other", "rarity": 1}, {"lat": 64.1799, "lng": -51.7327, "id": "125898", "name": "Mallotus", "sprite": "sp-anchoviella_juruasanga.png", "group": "other", "rarity": 1}, {"lat": 65.3667, "lng": -53.2667, "id": "137071", "name": "Clangula hyemalis", "sprite": "sp-anchoviella_juruasanga.png", "group": "other", "rarity": 1}, {"lat": 64.5633, "lng": -52.913, "id": "1082", "name": "Cirripedia", "sprite": "sp-anchoviella_juruasanga.png", "group": "other", "rarity": 1}, {"lat": 64.8667, "lng": -53.1667, "id": "102736", "name": "Tmetonyx cicada", "sprite": "sp-american_lobster.png", "group": "crab_lobster", "rarity": 1}, {"lat": 64.27, "lng": -51.07, "id": "110487", "name": "Diastylis rathkei", "sprite": "sp-american_lobster.png", "group": "crab_lobster", "rarity": 1}, {"lat": 64.42, "lng": -51.5, "id": "130324", "name": "Praxillella gracilis", "sprite": "sp-anchoviella_juruasanga.png", "group": "other", "rarity": 1}, {"lat": 64.1736, "lng": -51.7542, "id": "153006", "name": "Peraclistus oophagus", "sprite": "sp-anchoviella_juruasanga.png", "group": "other", "rarity": 1}]}