{"zoom": 7, "x": 45, "y": 35, "points": [{"lat": 62.2617, "lng": -52.1317, "id": "127144", "name": "Greenland halibut", "thumb": "tn_Rehip_u1.jpg", "sprite": "sp-atlantic_halibut.png", "group": "flatfish", "rarity": 1, "waterType": "Saltwater"}, {"lat": 62.1845, "lng": -51.9791, "id": "151324", "name": "Golden redfish", "thumb": "tn_Semar_ub.jpg", "sprite": "sp-anchoviella_juruasanga.png", "group": "other", "rarity": 1, "waterType": "Saltwater"}, {"lat": 62.25, "lng": -51.133, "id": "124149", "name": "Pteraster obscurus", "sprite": "sp-sea_cucumber.png", "group": "starfish", "rarity": 1}, {"lat": 61.86, "lng": -53.04, "id": "156451", "name": "Themisto compressa", "sprite": "sp-american_lobster.png", "group": "crab_lobster", "rarity": 1}, {"lat": 61.86, "lng": -53.04, "id": "104467", "name": "Calanus hyperboreus", "sprite": "sp-anchoviella_juruasanga.png", "group": "other", "rarity": 1}, {"lat": 62.4167, "lng": -50.9667, "id": "127828", "name": "Obtusoecia obtusata", "sprite": "sp-anchoviella_juruasanga.png", "group": "other", "rarity": 1}, {"lat": 62.3975, "lng": -51.2972, "id": "370366", "name": "Chaetoceros (Hyalochaete)", "sprite": "sp-anchoviella_juruasanga.png", "group": "other", "rarity": 1}, {"lat": 62.8817, "lng": -51.045, "id": "109462", "name": "Dinophysis", "sprite": "sp-anchoviella_juruasanga.png", "group": "other", "rarity": 1}, {"lat": 62.4307, "lng": -51.2782, "id": "163030", "name": "Phaeoceros", "sprite": "sp-anchoviella_juruasanga.png", "group": "other", "rarity": 1}, {"lat": 62.4413, "lng": -51.5907, "id": "137119", "name": "Physeter macrocephalus", "sprite": "sp-blue_whale.png", "group": "whale", "rarity": 1}, {"lat": 62.2416, "lng": -53.0583, "id": "137145", "name": "Larus hyperboreus", "sprite": "sp-anchoviella_juruasanga.png", "group": "other", "rarity": 1}, {"lat": 62.6695, "lng": -52.3889, "id": "137131", "name": "Fratercula arctica", "sprite": "sp-anchoviella_juruasanga.png", "group": "other", "rarity": 1}, {"lat": 61.86, "lng": -53.04, "id": "128946", "name": "Oncaea parila", "sprite": "sp-anchoviella_juruasanga.png", "group": "other", "rarity": 1}, {"lat": 62.5659, "lng": -51.141, "id": "1082", "name": "Cirripedia", "sprite": "sp-anchoviella_juruasanga.png", "group": "other", "rarity": 1}, {"lat": 62.3391, "lng": -51.1173, "id": "137092", "name": "Megaptera novaeangliae", "sprite": "sp-blue_whale.png", "group": "whale", "rarity": 1}, {"lat": 61.86, "lng": -53.04, "id": "123117", "name": "Ophiurida", "sprite": "sp-sea_cucumber.png", "group": "starfish", "rarity": 1}, {"lat": 62.5353, "lng": -51.498, "id": "156509", "name": "Ceratium arcticum", "sprite": "sp-anchoviella_juruasanga.png", "group": "other", "rarity": 1}, {"lat": 61.86, "lng": -53.04, "id": "105416", "name": "Eukrohnia hamata", "sprite": "sp-anchoviella_juruasanga.png", "group": "other", "rarity": 1}, {"lat": 62.4317, "lng": -50.8667, "id": "840627", "name": "Tripos furca", "sprite": "sp-anchoviella_juruasanga.png", "group": "other", "rarity": 1}, {"lat": 62.8817, "lng": -51.1717, "id": "104108", "name": "Acartia", "sprite": "sp-anchoviella_juruasanga.png", "group": "other", "rarity": 1}, {"lat": 62.485, "lng": -51.6355, "id": "1080", "name": "Copepoda", "sprite": "sp-anchoviella_juruasanga.png", "group": "other", "rarity": 1}, {"lat": 62.2061, "lng": -51.3619, "id": "149093", "name": "Thalassionema nitzschioides", "sprite": "sp-anchoviella_juruasanga.png", "group": "other", "rarity": 1}, {"lat": 62.2406, "lng": -52.2826, "id": "137156", "name": "Rissa tridactyla", "sprite": "sp-anchoviella_juruasanga.png", "group": "other", "rarity": 1}, {"lat": 61.86, "lng": -53.04, "id": "157675", "name": "Microcalanus pusillus", "sprite": "sp-anchoviella_juruasanga.png", "group": "other", "rarity": 1}, {"lat": 61.8216, "lng": -52.6225, "id": "129715", "name": "Tomopteris", "sprite": "sp-anchoviella_juruasanga.png", "group": "other", "rarity": 1}, {"lat": 62.4317, "lng": -50.8667, "id": "149004", "name": "Cylindrotheca closterium", "sprite": "sp-anchoviella_juruasanga.png", "group": "other", "rarity": 1}, {"lat": 61.783, "lng": -52.916, "id": "102554", "name": "Cyphocaris anonyx", "sprite": "sp-american_lobster.png", "group": "crab_lobster", "rarity": 1}, {"lat": 61.86, "lng": -53.04, "id": "140223", "name": "Limacina helicina", "sprite": "sp-cowrie_shell.png", "group": "sea_snail", "rarity": 1}, {"lat": 62.8834, "lng": -51.8083, "id": "137130", "name": "Cepphus grylle", "sprite": "sp-anchoviella_juruasanga.png", "group": "other", "rarity": 1}, {"lat": 62.6667, "lng": -52.1833, "id": "137169", "name": "Phalaropus lobatus", "sprite": "sp-anchoviella_juruasanga.png", "group": "other", "rarity": 1}, {"lat": 62.4833, "lng": -51.525, "id": "137171", "name": "Stercorarius longicaudus", "sprite": "sp-anchoviella_juruasanga.png", "group": "other", "rarity": 1}, {"lat": 62.4258, "lng": -51.1999, "id": "1128", "name": "Euphausiacea", "sprite": "sp-antarctic_krill.png", "group": "shrimp", "rarity": 1}, {"lat": 62.3156, "lng": -50.9483, "id": "104632", "name": "Metridia longa", "sprite": "sp-anchoviella_juruasanga.png", "group": "other", "rarity": 1}, {"lat": 61.86, "lng": -53.04, "id": "106642", "name": "Oithona atlantica", "sprite": "sp-anchoviella_juruasanga.png", "group": "other", "rarity": 1}, {"lat": 62.4588, "lng": -51.2165, "id": "148912", "name": "Thalassiosira", "sprite": "sp-anchoviella_juruasanga.png", "group": "other", "rarity": 1}, {"lat": 62.7961, "lng": -51.0183, "id": "139178", "name": "Clione limacina", "sprite": "sp-cowrie_shell.png", "group": "sea_snail", "rarity": 1}, {"lat": 61.7833, "lng": -52.9167, "id": "102558", "name": "Danaella mimonectes", "sprite": "sp-american_lobster.png", "group": "crab_lobster", "rarity": 1}, {"lat": 61.86, "lng": -53.04, "id": "140227", "name": "Limacina retroversa", "sprite": "sp-cowrie_shell.png", "group": "sea_snail", "rarity": 1}, {"lat": 62.7867, "lng": -50.8083, "id": "1102", "name": "Harpacticoida", "sprite": "sp-anchoviella_juruasanga.png", "group": "other", "rarity": 1}, {"lat": 62.283, "lng": -51.3404, "id": "163348", "name": "Rhizosolenia semispina", "sprite": "sp-anchoviella_juruasanga.png", "group": "other", "rarity": 1}, {"lat": 61.86, "lng": -53.04, "id": "104517", "name": "Pseudocalanus minutus", "sprite": "sp-anchoviella_juruasanga.png", "group": "other", "rarity": 1}, {"lat": 62.3593, "lng": -52.1944, "id": "137173", "name": "Stercorarius pomarinus", "sprite": "sp-anchoviella_juruasanga.png", "group": "other", "rarity": 1}, {"lat": 62.075, "lng": -53.2416, "id": "147429", "name": "Scolopacidae", "sprite": "sp-anchoviella_juruasanga.png", "group": "other", "rarity": 1}, {"lat": 62.3825, "lng": -51.33, "id": "137088", "name": "Balaenoptera borealis", "sprite": "sp-blue_whale.png", "group": "whale", "rarity": 1}, {"lat": 61.86, "lng": -53.04, "id": "106656", "name": "Oithona similis", "sprite": "sp-anchoviella_juruasanga.png", "group": "other", "rarity": 1}, {"lat": 62.1118, "lng": -51.9924, "id": "137041", "name": "Uria", "sprite": "sp-anchoviella_juruasanga.png", "group": "other", "rarity": 1}, {"lat": 61.783, "lng": -52.917, "id": "446461", "name": "Meterythrops pictus", "sprite": "sp-american_lobster.png", "group": "crab_lobster", "rarity": 1}, {"lat": 61.86, "lng": -53.04, "id": "110709", "name": "Thysanoessa longicaudata", "sprite": "sp-antarctic_krill.png", "group": "shrimp", "rarity": 1}, {"lat": 62.4177, "lng": -50.828, "id": "106485", "name": "Oithona", "sprite": "sp-anchoviella_juruasanga.png", "group": "other", "rarity": 1}, {"lat": 62.2167, "lng": -52.5433, "id": "127782", "name": "Discoconchoecia elegans", "sprite": "sp-anchoviella_juruasanga.png", "group": "other", "rarity": 1}, {"lat": 61.8653, "lng": -51.6992, "id": "137202", "name": "Puffinus griseus", "sprite": "sp-anchoviella_juruasanga.png", "group": "other", "rarity": 1}, {"lat": 62.3933, "lng": -51.8379, "id": "127137", "name": "American plaice", "thumb": "tn_Hipla_u3.jpg", "sprite": "sp-atlantic_halibut.png", "group": "flatfish", "rarity": 1, "waterType": "Saltwater"}, {"lat": 62.4939, "lng": -51.3653, "id": "1205", "name": "Hyperiidea", "sprite": "sp-american_lobster.png", "group": "crab_lobster", "rarity": 1}, {"lat": 62.4233, "lng": -51.9121, "id": "1100", "name": "Calanoida", "sprite": "sp-anchoviella_juruasanga.png", "group": "other", "rarity": 1}, {"lat": 62.331, "lng": -51.5423, "id": "104464", "name": "Calanus finmarchicus", "sprite": "sp-anchoviella_juruasanga.png", "group": "other", "rarity": 1}, {"lat": 61.86, "lng": -53.04, "id": "126719", "name": "Goiter blacksmelt", "thumb": "tn_Baeur_u1.jpg", "sprite": "sp-anchoviella_juruasanga.png", "group": "other", "rarity": 1, "waterType": "Saltwater"}, {"lat": 62.1278, "lng": -51.8967, "id": "149028", "name": "Fragilaria", "sprite": "sp-anchoviella_juruasanga.png", "group": "other", "rarity": 1}, {"lat": 62.2481, "lng": -52.0944, "id": "137195", "name": "Fulmarus glacialis", "sprite": "sp-anchoviella_juruasanga.png", "group": "other", "rarity": 1}, {"lat": 62.9, "lng": -51.8333, "id": "137051", "name": "Stercorarius", "sprite": "sp-anchoviella_juruasanga.png", "group": "other", "rarity": 1}, {"lat": 62.8833, "lng": -51.5833, "id": "125909", "name": "Ammodytes", "sprite": "sp-anchoviella_juruasanga.png", "group": "other", "rarity": 1}, {"lat": 61.86, "lng": -53.04, "id": "127546", "name": "Metaconchoecia", "sprite": "sp-anchoviella_juruasanga.png", "group": "other", "rarity": 1}, {"lat": 62.2783, "lng": -50.635, "id": "104465", "name": "Calanus glacialis", "sprite": "sp-anchoviella_juruasanga.png", "group": "other", "rarity": 1}, {"lat": 61.86, "lng": -53.04, "id": "110671", "name": "Euphausiidae", "sprite": "sp-antarctic_krill.png", "group": "shrimp", "rarity": 1}, {"lat": 61.6167, "lng": -51.85, "id": "136988", "name": "Laridae", "sprite": "sp-anchoviella_juruasanga.png", "group": "other", "rarity": 1}, {"lat": 62.1515, "lng": -51.9601, "id": "137134", "name": "Uria lomvia", "sprite": "sp-anchoviella_juruasanga.png", "group": "other", "rarity": 1}, {"lat": 62.06, "lng": -51.2767, "id": "137165", "name": "Sterna paradisaea", "sprite": "sp-anchoviella_juruasanga.png", "group": "other", "rarity": 1}, {"lat": 62.4533, "lng": -50.9104, "id": "10194", "name": "Actinopterygii", "sprite": "sp-anchoviella_juruasanga.png", "group": "other", "rarity": 1}, {"lat": 62.6648, "lng": -51.2112, "id": "840626", "name": "Tripos fusus", "sprite": "sp-anchoviella_juruasanga.png", "group": "other", "rarity": 1}, {"lat": 62.4117, "lng": -50.97, "id": "149629", "name": "Rhizosolenia styliformis", "sprite": "sp-anchoviella_juruasanga.png", "group": "other", "rarity": 1}, {"lat": 61.9233, "lng": -51.03, "id": "343899", "name": "Hyperoodon ampullatus", "sprite": "sp-blue_whale.png", "group": "whale", "rarity": 1}, {"lat": 62.54, "lng": -52.3233, "id": "137168", "name": "Phalaropus fulicarius", "sprite": "sp-anchoviella_juruasanga.png", "group": "other", "rarity": 1}, {"lat": 62.27, "lng": -50.92, "id": "137090", "name": "Balaenoptera musculus", "sprite": "sp-blue_whale.png", "group": "whale", "rarity": 1}, {"lat": 61.86, "lng": -53.04, "id": "1509944", "name": "Scolecithricella minor minor", "sprite": "sp-anchoviella_juruasanga.png", "group": "other", "rarity": 1}, {"lat": 62.2491, "lng": -51.6312, "id": "104152", "name": "Calanus", "sprite": "sp-anchoviella_juruasanga.png", "group": "other", "rarity": 1}, {"lat": 61.9375, "lng": -52.8917, "id": "137174", "name": "Stercorarius skua", "sprite": "sp-anchoviella_juruasanga.png", "group": "other", "rarity": 1}, {"lat": 62.2033, "lng": -51.1289, "id": "149142", "name": "Navicula", "sprite": "sp-anchoviella_juruasanga.png", "group": "other", "rarity": 1}, {"lat": 62.4667, "lng": -51.4333, "id": "137043", "name": "Larus", "sprite": "sp-anchoviella_juruasanga.png", "group": "other", "rarity": 1}, {"lat": 62.6722, "lng": -52.3167, "id": "148723", "name": "Odontoceti", "sprite": "sp-anchoviella_juruasanga.png", "group": "other", "rarity": 1}, {"lat": 62.7, "lng": -51.9556, "id": "137087", "name": "Balaenoptera acutorostrata", "sprite": "sp-blue_whale.png", "group": "whale", "rarity": 1}, {"lat": 62.1702, "lng": -50.6807, "id": "127203", "name": "Shorthorn sculpin", "thumb": "tn_Mysco_m0.jpg", "sprite": "sp-anchoviella_juruasanga.png", "group": "other", "rarity": 1, "waterType": "Brackish"}, {"lat": 62.1058, "lng": -52.3884, "id": "2081", "name": "Chaetognatha", "sprite": "sp-anchoviella_juruasanga.png", "group": "other", "rarity": 1}, {"lat": 62.5721, "lng": -50.8258, "id": "148992", "name": "Coscinodiscus concinnus", "sprite": "sp-anchoviella_juruasanga.png", "group": "other", "rarity": 1}, {"lat": 61.8833, "lng": -53.4333, "id": "137129", "name": "Alle alle", "sprite": "sp-anchoviella_juruasanga.png", "group": "other", "rarity": 1}, {"lat": 62.459, "lng": -51.8145, "id": "126436", "name": "Atlantic cod", "thumb": "tn_Gamor_u3.jpg", "sprite": "sp-arctogadus.png", "group": "cod", "rarity": 1, "waterType": "Brackish"}, {"lat": 61.86, "lng": -53.04, "id": "104566", "name": "Paraeuchaeta norvegica", "sprite": "sp-anchoviella_juruasanga.png", "group": "other", "rarity": 1}, {"lat": 62.3433, "lng": -51.7417, "id": "125517", "name": "Anarhichadidae", "sprite": "sp-anchoviella_juruasanga.png", "group": "other", "rarity": 1}, {"lat": 61.8833, "lng": -53.4333, "id": "137074", "name": "Somateria mollissima", "sprite": "sp-anchoviella_juruasanga.png", "group": "other", "rarity": 1}, {"lat": 62.647, "lng": -51.0019, "id": "837459", "name": "Tripos lineatus", "sprite": "sp-anchoviella_juruasanga.png", "group": "other", "rarity": 1}, {"lat": 62.4655, "lng": -51.9384, "id": "2688", "name": "Cetacea", "sprite": "sp-anchoviella_juruasanga.png", "group": "other", "rarity": 1}, {"lat": 62.5842, "lng": -51.01, "id": "149106", "name": "Leptocylindrus danicus", "sprite": "sp-anchoviella_juruasanga.png", "group": "other", "rarity": 1}, {"lat": 62.1055, "lng": -52.3883, "id": "1130", "name": "Decapoda", "sprite": "sp-american_lobster.png", "group": "crab_lobster", "rarity": 1}, {"lat": 62.5611, "lng": -51.5511, "id": "109553", "name": "Protoperidinium", "sprite": "sp-anchoviella_juruasanga.png", "group": "other", "rarity": 1}, {"lat": 62.4811, "lng": -51.1106, "id": "883", "name": "Polychaeta", "sprite": "sp-anchoviella_juruasanga.png", "group": "other", "rarity": 1}, {"lat": 62.2775, "lng": -51.1783, "id": "137091", "name": "Balaenoptera physalus", "sprite": "sp-blue_whale.png", "group": "whale", "rarity": 1}, {"lat": 61.9406, "lng": -51.6819, "id": "137201", "name": "Puffinus gravis", "sprite": "sp-anchoviella_juruasanga.png", "group": "other", "rarity": 1}, {"lat": 61.86, "lng": -53.04, "id": "105445", "name": "Pseudosagitta maxima", "sprite": "sp-anchoviella_juruasanga.png", "group": "other", "rarity": 1}, {"lat": 61.86, "lng": -53.04, "id": "103367", "name": "Oikopleura", "sprite": "sp-anchoviella_juruasanga.png", "group": "other", "rarity": 1}, {"lat": 62.3333, "lng": -52.3167, "id": "137146", "name": "Larus marinus", "sprite": "sp-anchoviella_juruasanga.png", "group": "other", "rarity": 1}, {"lat": 62.8092, "lng": -51.0991, "id": "841259", "name": "Tripos longipes", "sprite": "sp-anchoviella_juruasanga.png", "group": "other", "rarity": 1}, {"lat": 62.3158, "lng": -51.5418, "id": "157083", "name": "Thalassiothrix longissima", "sprite": "sp-anchoviella_juruasanga.png", "group": "other", "rarity": 1}, {"lat": 62.5917, "lng": -50.6833, "id": "1806", "name": "Echinodermata", "sprite": "sp-sea_cucumber.png", "group": "starfish", "rarity": 1}]}