{"zoom": 7, "x": 45, "y": 38, "points": [{"lat": 57.9266, "lng": -51.5765, "id": "137134", "name": "Uria lomvia", "sprite": "sp-anchoviella_juruasanga.png", "group": "other", "rarity": 1}, {"lat": 58.15, "lng": -52.6167, "id": "137165", "name": "Sterna paradisaea", "sprite": "sp-anchoviella_juruasanga.png", "group": "other", "rarity": 1}, {"lat": 58.49, "lng": -52.32, "id": "104275", "name": "Aetideus armatus", "sprite": "sp-anchoviella_juruasanga.png", "group": "other", "rarity": 1}, {"lat": 58.26, "lng": -51.1978, "id": "136988", "name": "Laridae", "sprite": "sp-anchoviella_juruasanga.png", "group": "other", "rarity": 1}, {"lat": 58.1667, "lng": -52.6167, "id": "137202", "name": "Puffinus griseus", "sprite": "sp-anchoviella_juruasanga.png", "group": "other", "rarity": 1}, {"lat": 57.629, "lng": -51.5265, "id": "127782", "name": "Discoconchoecia elegans", "sprite": "sp-anchoviella_juruasanga.png", "group": "other", "rarity": 1}, {"lat": 57.838, "lng": -51.8127, "id": "104152", "name": "Calanus", "sprite": "sp-anchoviella_juruasanga.png", "group": "other", "rarity": 1}, {"lat": 57.7667, "lng": -52.0667, "id": "137174", "name": "Stercorarius skua", "sprite": "sp-anchoviella_juruasanga.png", "group": "other", "rarity": 1}, {"lat": 57.8982, "lng": -51.1425, "id": "137043", "name": "Larus", "sprite": "sp-anchoviella_juruasanga.png", "group": "other", "rarity": 1}, {"lat": 58.49, "lng": -52.32, "id": "156451", "name": "Themisto compressa", "sprite": "sp-american_lobster.png", "group": "crab_lobster", "rarity": 1}, {"lat": 58.1808, "lng": -50.9443, "id": "137142", "name": "Larus fuscus", "sprite": "sp-anchoviella_juruasanga.png", "group": "other", "rarity": 1}, {"lat": 57.8067, "lng": -51.3306, "id": "104465", "name": "Calanus glacialis", "sprite": "sp-anchoviella_juruasanga.png", "group": "other", "rarity": 1}, {"lat": 58.49, "lng": -52.32, "id": "127546", "name": "Metaconchoecia", "sprite": "sp-anchoviella_juruasanga.png", "group": "other", "rarity": 1}, {"lat": 57.9545, "lng": -51.1553, "id": "136976", "name": "Phocidae", "sprite": "sp-elephant_seal.png", "group": "seal", "rarity": 1}, {"lat": 57.9579, "lng": -51.7987, "id": "137156", "name": "Rissa tridactyla", "sprite": "sp-anchoviella_juruasanga.png", "group": "other", "rarity": 1}, {"lat": 58.49, "lng": -52.32, "id": "104566", "name": "Paraeuchaeta norvegica", "sprite": "sp-anchoviella_juruasanga.png", "group": "other", "rarity": 1}, {"lat": 57.8069, "lng": -51.3287, "id": "104165", "name": "Pseudocalanus", "sprite": "sp-anchoviella_juruasanga.png", "group": "other", "rarity": 1}, {"lat": 58.0, "lng": -53.0, "id": "127097", "name": "Lycenchelys alba", "sprite": "sp-anchoviella_juruasanga.png", "group": "other", "rarity": 1, "waterType": "Saltwater"}, {"lat": 58.3833, "lng": -52.6, "id": "137087", "name": "Balaenoptera acutorostrata", "sprite": "sp-blue_whale.png", "group": "whale", "rarity": 1}, {"lat": 57.7344, "lng": -51.405, "id": "1078", "name": "Ostracoda", "sprite": "sp-anchoviella_juruasanga.png", "group": "other", "rarity": 1}, {"lat": 57.76, "lng": -51.3779, "id": "2081", "name": "Chaetognatha", "sprite": "sp-anchoviella_juruasanga.png", "group": "other", "rarity": 1}, {"lat": 58.3916, "lng": -52.4667, "id": "114878", "name": "Agaue corollata", "sprite": "sp-anchoviella_juruasanga.png", "group": "other", "rarity": 1}, {"lat": 58.49, "lng": -52.32, "id": "117849", "name": "Aglantha digitale", "sprite": "sp-anchoviella_juruasanga.png", "group": "other", "rarity": 1}, {"lat": 57.7716, "lng": -51.4226, "id": "104464", "name": "Calanus finmarchicus", "sprite": "sp-anchoviella_juruasanga.png", "group": "other", "rarity": 1}, {"lat": 57.6935, "lng": -51.7277, "id": "146421", "name": "Appendicularia", "sprite": "sp-anchoviella_juruasanga.png", "group": "other", "rarity": 1}, {"lat": 58.79, "lng": -52.955, "id": "136330", "name": "Neotanais americanus", "sprite": "sp-american_lobster.png", "group": "crab_lobster", "rarity": 1}, {"lat": 57.8967, "lng": -51.2333, "id": "850801", "name": "Metridia lucens lucens", "sprite": "sp-anchoviella_juruasanga.png", "group": "other", "rarity": 1}, {"lat": 57.612, "lng": -53.302, "id": "840626", "name": "Tripos fusus", "sprite": "sp-anchoviella_juruasanga.png", "group": "other", "rarity": 1}, {"lat": 58.0, "lng": -53.0, "id": "107171", "name": "Munidopsis antonii", "sprite": "sp-american_lobster.png", "group": "crab_lobster", "rarity": 1}, {"lat": 57.878, "lng": -51.243, "id": "175693", "name": "Archiconchoecissa cucullata", "sprite": "sp-anchoviella_juruasanga.png", "group": "other", "rarity": 1}, {"lat": 57.784, "lng": -51.358, "id": "106673", "name": "Brachyura", "sprite": "sp-american_lobster.png", "group": "crab_lobster", "rarity": 1}, {"lat": 58.79, "lng": -52.96, "id": "136334", "name": "Neotanais hastiger", "sprite": "sp-american_lobster.png", "group": "crab_lobster", "rarity": 1}, {"lat": 57.8515, "lng": -51.4318, "id": "110671", "name": "Euphausiidae", "sprite": "sp-antarctic_krill.png", "group": "shrimp", "rarity": 1}, {"lat": 57.6795, "lng": -51.5043, "id": "137172", "name": "Stercorarius parasiticus", "sprite": "sp-anchoviella_juruasanga.png", "group": "other", "rarity": 1}, {"lat": 58.198, "lng": -51.936, "id": "1509944", "name": "Scolecithricella minor minor", "sprite": "sp-anchoviella_juruasanga.png", "group": "other", "rarity": 1}, {"lat": 57.7847, "lng": -51.3535, "id": "104164", "name": "Microcalanus", "sprite": "sp-anchoviella_juruasanga.png", "group": "other", "rarity": 1}, {"lat": 58.2448, "lng": -50.826, "id": "137168", "name": "Phalaropus fulicarius", "sprite": "sp-anchoviella_juruasanga.png", "group": "other", "rarity": 1}, {"lat": 57.7581, "lng": -51.3825, "id": "128690", "name": "Oncaea", "sprite": "sp-anchoviella_juruasanga.png", "group": "other", "rarity": 1}, {"lat": 57.8542, "lng": -51.4325, "id": "1128", "name": "Euphausiacea", "sprite": "sp-antarctic_krill.png", "group": "shrimp", "rarity": 1}, {"lat": 57.8874, "lng": -51.8215, "id": "137146", "name": "Larus marinus", "sprite": "sp-anchoviella_juruasanga.png", "group": "other", "rarity": 1}, {"lat": 57.529, "lng": -53.2945, "id": "1205", "name": "Hyperiidea", "sprite": "sp-american_lobster.png", "group": "crab_lobster", "rarity": 1}, {"lat": 57.4462, "lng": -51.7416, "id": "136973", "name": "Anatidae", "sprite": "sp-anchoviella_juruasanga.png", "group": "other", "rarity": 1}, {"lat": 57.3662, "lng": -51.8461, "id": "137049", "name": "Phalaropus", "sprite": "sp-anchoviella_juruasanga.png", "group": "other", "rarity": 1}, {"lat": 57.6115, "lng": -53.302, "id": "841259", "name": "Tripos longipes", "sprite": "sp-anchoviella_juruasanga.png", "group": "other", "rarity": 1}, {"lat": 57.9361, "lng": -51.3274, "id": "137129", "name": "Alle alle", "sprite": "sp-anchoviella_juruasanga.png", "group": "other", "rarity": 1}, {"lat": 57.7424, "lng": -51.6272, "id": "106485", "name": "Oithona", "sprite": "sp-anchoviella_juruasanga.png", "group": "other", "rarity": 1}, {"lat": 58.0, "lng": -52.0, "id": "103947", "name": "Oligotrema unigonas", "sprite": "sp-anchoviella_juruasanga.png", "group": "other", "rarity": 1}, {"lat": 58.0122, "lng": -51.0566, "id": "136980", "name": "Delphinidae", "sprite": "sp-bottlenose_dolphin.png", "group": "dolphin", "rarity": 1}, {"lat": 57.613, "lng": -53.302, "id": "119270", "name": "Nitzschia", "sprite": "sp-anchoviella_juruasanga.png", "group": "other", "rarity": 1}, {"lat": 57.76, "lng": -51.36, "id": "1130", "name": "Decapoda", "sprite": "sp-american_lobster.png", "group": "crab_lobster", "rarity": 1}, {"lat": 57.7844, "lng": -51.355, "id": "104229", "name": "Scolecithricella", "sprite": "sp-anchoviella_juruasanga.png", "group": "other", "rarity": 1}, {"lat": 57.7209, "lng": -51.2108, "id": "2688", "name": "Cetacea", "sprite": "sp-anchoviella_juruasanga.png", "group": "other", "rarity": 1}, {"lat": 57.9863, "lng": -51.8294, "id": "137138", "name": "Larus argentatus", "sprite": "sp-anchoviella_juruasanga.png", "group": "other", "rarity": 1}, {"lat": 58.39, "lng": -52.465, "id": "134692", "name": "Nymphon inerme", "sprite": "sp-anchoviella_juruasanga.png", "group": "other", "rarity": 1}, {"lat": 57.76, "lng": -51.36, "id": "137217", "name": "Salpidae", "sprite": "sp-anchoviella_juruasanga.png", "group": "other", "rarity": 1}, {"lat": 57.8761, "lng": -51.8151, "id": "137195", "name": "Fulmarus glacialis", "sprite": "sp-anchoviella_juruasanga.png", "group": "other", "rarity": 1}, {"lat": 57.9338, "lng": -52.14, "id": "137097", "name": "Globicephala melas", "sprite": "sp-bottlenose_dolphin.png", "group": "dolphin", "rarity": 1}, {"lat": 57.8967, "lng": -51.2333, "id": "103367", "name": "Oikopleura", "sprite": "sp-anchoviella_juruasanga.png", "group": "other", "rarity": 1}, {"lat": 57.9835, "lng": -52.1875, "id": "137201", "name": "Puffinus gravis", "sprite": "sp-anchoviella_juruasanga.png", "group": "other", "rarity": 1}, {"lat": 57.7269, "lng": -51.4169, "id": "104190", "name": "Metridia", "sprite": "sp-anchoviella_juruasanga.png", "group": "other", "rarity": 1}, {"lat": 58.49, "lng": -52.32, "id": "105445", "name": "Pseudosagitta maxima", "sprite": "sp-anchoviella_juruasanga.png", "group": "other", "rarity": 1}, {"lat": 57.7492, "lng": -51.3915, "id": "883", "name": "Polychaeta", "sprite": "sp-anchoviella_juruasanga.png", "group": "other", "rarity": 1}, {"lat": 58.2333, "lng": -52.2583, "id": "369025", "name": "Hymenaster quadrispinosus", "sprite": "sp-sea_cucumber.png", "group": "starfish", "rarity": 1}, {"lat": 57.529, "lng": -53.2945, "id": "109553", "name": "Protoperidinium", "sprite": "sp-anchoviella_juruasanga.png", "group": "other", "rarity": 1}, {"lat": 57.7826, "lng": -51.3542, "id": "1135", "name": "Amphipoda", "sprite": "sp-american_lobster.png", "group": "crab_lobster", "rarity": 1}, {"lat": 57.784, "lng": -51.358, "id": "104159", "name": "Centropages", "sprite": "sp-anchoviella_juruasanga.png", "group": "other", "rarity": 1}, {"lat": 57.8072, "lng": -51.3246, "id": "6", "name": "Bacteria", "sprite": "sp-anchoviella_juruasanga.png", "group": "other", "rarity": 1}, {"lat": 58.79, "lng": -52.96, "id": "136329", "name": "Neotanais affinis", "sprite": "sp-american_lobster.png", "group": "crab_lobster", "rarity": 1}, {"lat": 58.0, "lng": -53.0, "id": "266722", "name": "Alomasoma rhynchollulus", "sprite": "sp-anchoviella_juruasanga.png", "group": "other", "rarity": 1}, {"lat": 57.9333, "lng": -52.6167, "id": "137192", "name": "Oceanodroma leucorhoa", "sprite": "sp-anchoviella_juruasanga.png", "group": "other", "rarity": 1}, {"lat": 57.76, "lng": -51.36, "id": "1371", "name": "Siphonophorae", "sprite": "sp-anchoviella_juruasanga.png", "group": "other", "rarity": 1}, {"lat": 57.7421, "lng": -51.4003, "id": "2", "name": "Animalia", "sprite": "sp-anchoviella_juruasanga.png", "group": "other", "rarity": 1}, {"lat": 58.79, "lng": -52.96, "id": "136336", "name": "Neotanais micromopher", "sprite": "sp-american_lobster.png", "group": "crab_lobster", "rarity": 1}, {"lat": 58.49, "lng": -52.32, "id": "105408", "name": "Parasagitta", "sprite": "sp-anchoviella_juruasanga.png", "group": "other", "rarity": 1}, {"lat": 58.49, "lng": -52.32, "id": "175713", "name": "Conchoeciinae", "sprite": "sp-anchoviella_juruasanga.png", "group": "other", "rarity": 1}, {"lat": 57.445, "lng": -53.287, "id": "149152", "name": "Pseudo-nitzschia seriata", "sprite": "sp-anchoviella_juruasanga.png", "group": "other", "rarity": 1}, {"lat": 57.445, "lng": -53.287, "id": "109462", "name": "Dinophysis", "sprite": "sp-anchoviella_juruasanga.png", "group": "other", "rarity": 1}, {"lat": 57.445, "lng": -53.287, "id": "370366", "name": "Chaetoceros (Hyalochaete)", "sprite": "sp-anchoviella_juruasanga.png", "group": "other", "rarity": 1}, {"lat": 58.0, "lng": -53.0, "id": "1421346", "name": "Ophiuroglypha irrorata irrorata", "sprite": "sp-sea_cucumber.png", "group": "starfish", "rarity": 1}, {"lat": 57.878, "lng": -51.243, "id": "127842", "name": "Paraconchoecia mamillata", "sprite": "sp-anchoviella_juruasanga.png", "group": "other", "rarity": 1}, {"lat": 57.92, "lng": -51.2811, "id": "137041", "name": "Uria", "sprite": "sp-anchoviella_juruasanga.png", "group": "other", "rarity": 1}, {"lat": 57.8346, "lng": -51.4323, "id": "1082", "name": "Cirripedia", "sprite": "sp-anchoviella_juruasanga.png", "group": "other", "rarity": 1}, {"lat": 58.0, "lng": -52.0, "id": "123942", "name": "Styracaster chuni", "sprite": "sp-sea_cucumber.png", "group": "starfish", "rarity": 1}, {"lat": 57.509, "lng": -51.6678, "id": "136987", "name": "Alcidae", "sprite": "sp-anchoviella_juruasanga.png", "group": "other", "rarity": 1}, {"lat": 58.0271, "lng": -51.58, "id": "104632", "name": "Metridia longa", "sprite": "sp-anchoviella_juruasanga.png", "group": "other", "rarity": 1}, {"lat": 58.49, "lng": -52.32, "id": "106642", "name": "Oithona atlantica", "sprite": "sp-anchoviella_juruasanga.png", "group": "other", "rarity": 1}, {"lat": 57.629, "lng": -51.5265, "id": "127828", "name": "Obtusoecia obtusata", "sprite": "sp-anchoviella_juruasanga.png", "group": "other", "rarity": 1}, {"lat": 57.8043, "lng": -51.5471, "id": "1080", "name": "Copepoda", "sprite": "sp-anchoviella_juruasanga.png", "group": "other", "rarity": 1}, {"lat": 58.0, "lng": -52.0, "id": "183223", "name": "Jakobia similaris", "sprite": "sp-anchoviella_juruasanga.png", "group": "other", "rarity": 1}, {"lat": 57.8967, "lng": -51.2333, "id": "103358", "name": "Fritillaria", "sprite": "sp-anchoviella_juruasanga.png", "group": "other", "rarity": 1}, {"lat": 58.49, "lng": -52.32, "id": "104086", "name": "Euchaetidae", "sprite": "sp-anchoviella_juruasanga.png", "group": "other", "rarity": 1}, {"lat": 57.7499, "lng": -51.3841, "id": "137133", "name": "Uria aalge", "sprite": "sp-anchoviella_juruasanga.png", "group": "other", "rarity": 1}, {"lat": 57.8375, "lng": -51.2849, "id": "137167", "name": "Xema sabini", "sprite": "sp-anchoviella_juruasanga.png", "group": "other", "rarity": 1}, {"lat": 57.744, "lng": -51.3907, "id": "137203", "name": "Puffinus puffinus", "sprite": "sp-anchoviella_juruasanga.png", "group": "other", "rarity": 1}, {"lat": 58.49, "lng": -52.32, "id": "105416", "name": "Eukrohnia hamata", "sprite": "sp-anchoviella_juruasanga.png", "group": "other", "rarity": 1}, {"lat": 57.6955, "lng": -53.3095, "id": "156509", "name": "Ceratium arcticum", "sprite": "sp-anchoviella_juruasanga.png", "group": "other", "rarity": 1}, {"lat": 58.49, "lng": -52.32, "id": "157675", "name": "Microcalanus pusillus", "sprite": "sp-anchoviella_juruasanga.png", "group": "other", "rarity": 1}, {"lat": 57.878, "lng": -51.243, "id": "127804", "name": "Metaconchoecia discoveryi", "sprite": "sp-anchoviella_juruasanga.png", "group": "other", "rarity": 1}, {"lat": 58.0, "lng": -52.0, "id": "136052", "name": "Nephasoma (Nephasoma) capilleforme", "sprite": "sp-anchoviella_juruasanga.png", "group": "other", "rarity": 1}, {"lat": 57.445, "lng": -53.287, "id": "179596", "name": "Corethron hystrix", "sprite": "sp-anchoviella_juruasanga.png", "group": "other", "rarity": 1}, {"lat": 58.49, "lng": -52.32, "id": "106656", "name": "Oithona similis", "sprite": "sp-anchoviella_juruasanga.png", "group": "other", "rarity": 1}, {"lat": 57.8022, "lng": -51.3342, "id": "104467", "name": "Calanus hyperboreus", "sprite": "sp-anchoviella_juruasanga.png", "group": "other", "rarity": 1}, {"lat": 58.0, "lng": -52.0, "id": "138913", "name": "Mohnia abyssorum", "sprite": "sp-cowrie_shell.png", "group": "sea_snail", "rarity": 1}, {"lat": 57.89, "lng": -51.22, "id": "104108", "name": "Acartia", "sprite": "sp-anchoviella_juruasanga.png", "group": "other", "rarity": 1}, {"lat": 58.1404, "lng": -51.6131, "id": "137145", "name": "Larus hyperboreus", "sprite": "sp-anchoviella_juruasanga.png", "group": "other", "rarity": 1}, {"lat": 57.784, "lng": -51.358, "id": "104241", "name": "Temora", "sprite": "sp-anchoviella_juruasanga.png", "group": "other", "rarity": 1}, {"lat": 58.0, "lng": -52.0, "id": "175030", "name": "Golfingia (Golfingia) muricaudata", "sprite": "sp-anchoviella_juruasanga.png", "group": "other", "rarity": 1}, {"lat": 58.4433, "lng": -52.2589, "id": "137131", "name": "Fratercula arctica", "sprite": "sp-anchoviella_juruasanga.png", "group": "other", "rarity": 1}, {"lat": 57.778, "lng": -53.317, "id": "149153", "name": "Pseudo-nitzschia delicatissima", "sprite": "sp-anchoviella_juruasanga.png", "group": "other", "rarity": 1}, {"lat": 57.7751, "lng": -51.3662, "id": "104174", "name": "Euchaeta", "sprite": "sp-anchoviella_juruasanga.png", "group": "other", "rarity": 1}, {"lat": 57.445, "lng": -53.287, "id": "841263", "name": "Tripos minutus", "sprite": "sp-anchoviella_juruasanga.png", "group": "other", "rarity": 1}, {"lat": 58.49, "lng": -52.32, "id": "156452", "name": "Themisto libellula", "sprite": "sp-american_lobster.png", "group": "crab_lobster", "rarity": 1}, {"lat": 57.7982, "lng": -51.3382, "id": "101", "name": "Gastropoda", "sprite": "sp-cowrie_shell.png", "group": "sea_snail", "rarity": 1}, {"lat": 57.878, "lng": -51.243, "id": "535999", "name": "Deeveyoecia arcuata", "sprite": "sp-anchoviella_juruasanga.png", "group": "other", "rarity": 1}, {"lat": 57.629, "lng": -51.4765, "id": "127766", "name": "Boroecia borealis", "sprite": "sp-anchoviella_juruasanga.png", "group": "other", "rarity": 1}, {"lat": 58.45, "lng": -52.75, "id": "137169", "name": "Phalaropus lobatus", "sprite": "sp-anchoviella_juruasanga.png", "group": "other", "rarity": 1}, {"lat": 57.4398, "lng": -51.4476, "id": "137171", "name": "Stercorarius longicaudus", "sprite": "sp-anchoviella_juruasanga.png", "group": "other", "rarity": 1}, {"lat": 58.0, "lng": -52.0, "id": "410734", "name": "Nephasoma (Nephasoma) diaphanes diaphanes", "sprite": "sp-anchoviella_juruasanga.png", "group": "other", "rarity": 1}, {"lat": 58.7333, "lng": -52.5667, "id": "136979", "name": "Balaenopteridae", "sprite": "sp-blue_whale.png", "group": "whale", "rarity": 1}, {"lat": 57.629, "lng": -51.5265, "id": "127823", "name": "Mikroconchoecia stigmatica", "sprite": "sp-anchoviella_juruasanga.png", "group": "other", "rarity": 1}]}