{"zoom": 7, "x": 45, "y": 56, "points": [{"lat": 20.2133, "lng": -51.8233, "id": "127018", "name": "Skipjack tuna", "thumb": "tn_Kapel_m0.jpg", "sprite": "sp-bluefin_tuna.png", "group": "tuna_mackerel", "rarity": 1, "waterType": "Saltwater"}, {"lat": 20.1044, "lng": -52.2661, "id": "126846", "name": "Common dolphinfish", "thumb": "tn_Cohip_ud.jpg", "sprite": "sp-anchoviella_juruasanga.png", "group": "other", "rarity": 1, "waterType": "Brackish"}, {"lat": 20.0833, "lng": -53.3583, "id": "105840", "name": "Longfin mako", "thumb": "tn_Ispau_u2.jpg", "sprite": "sp-great_white_shark.png", "group": "shark", "rarity": 1, "waterType": "Saltwater"}, {"lat": 20.23, "lng": -53.15, "id": "159343", "name": "Blackfin tuna", "thumb": "tn_Thatl_u4.jpg", "sprite": "sp-bluefin_tuna.png", "group": "tuna_mackerel", "rarity": 1, "waterType": "Saltwater"}, {"lat": 19.9533, "lng": -53.0383, "id": "368409", "name": "Batoidea", "sprite": "sp-anchoviella_juruasanga.png", "group": "other", "rarity": 1}, {"lat": 20.1332, "lng": -52.1218, "id": "127027", "name": "Yellowfin tuna", "thumb": "tn_Thalb_u0.jpg", "sprite": "sp-bluefin_tuna.png", "group": "tuna_mackerel", "rarity": 1, "waterType": "Brackish"}, {"lat": 20.6333, "lng": -53.2667, "id": "126851", "name": "Spearfish remora", "thumb": "tn_Rebra_u1.jpg", "sprite": "sp-anchoviella_juruasanga.png", "group": "other", "rarity": 1, "waterType": "Saltwater"}, {"lat": 19.976, "lng": -52.4648, "id": "127026", "name": "Albacore", "thumb": "tn_Thala_u4.jpg", "sprite": "sp-bluefin_tuna.png", "group": "tuna_mackerel", "rarity": 1, "waterType": "Saltwater"}, {"lat": 19.8667, "lng": -53.2583, "id": "125661", "name": "Alepisaurus", "sprite": "sp-anchoviella_juruasanga.png", "group": "other", "rarity": 1}, {"lat": 21.45, "lng": -50.9, "id": "126387", "name": "Mirrorwing flyingfish", "thumb": "tn_Hispe_u1.jpg", "sprite": "sp-flying_fish.png", "group": "flying_fish", "rarity": 1, "waterType": "Saltwater"}, {"lat": 19.4083, "lng": -51.6083, "id": "126014", "name": "Tetrapturus", "sprite": "sp-blue_marlin.png", "group": "swordfish", "rarity": 1}, {"lat": 20.06, "lng": -52.91, "id": "137209", "name": "Dermochelys coriacea", "sprite": "sp-green_sea_turtle.png", "group": "sea_turtle", "rarity": 1}, {"lat": 20.0, "lng": -52.5, "id": "2", "name": "Animalia", "sprite": "sp-anchoviella_juruasanga.png", "group": "other", "rarity": 1}, {"lat": 19.7708, "lng": -52.5083, "id": "105801", "name": "Blue shark", "thumb": "tn_Prgla_j1.jpg", "sprite": "sp-great_white_shark.png", "group": "shark", "rarity": 1, "waterType": "Brackish"}, {"lat": 19.3833, "lng": -53.0083, "id": "126953", "name": "Roundscale spearfish", "thumb": "tn_Tegeo_u0.gif", "sprite": "sp-blue_marlin.png", "group": "swordfish", "rarity": 1, "waterType": "Saltwater"}, {"lat": 20.2767, "lng": -52.2933, "id": "137206", "name": "Chelonia mydas", "sprite": "sp-green_sea_turtle.png", "group": "sea_turtle", "rarity": 1}, {"lat": 20.5632, "lng": -52.1146, "id": "137119", "name": "Physeter macrocephalus", "sprite": "sp-blue_whale.png", "group": "whale", "rarity": 1}, {"lat": 20.0165, "lng": -52.6565, "id": "127094", "name": "Swordfish", "thumb": "tn_Xigla_u5.jpg", "sprite": "sp-blue_marlin.png", "group": "swordfish", "rarity": 1, "waterType": "Saltwater"}, {"lat": 19.7525, "lng": -52.595, "id": "137205", "name": "Caretta caretta", "sprite": "sp-green_sea_turtle.png", "group": "sea_turtle", "rarity": 1}, {"lat": 21.0, "lng": -51.0, "id": "159427", "name": "Freckled driftfish", "thumb": "tn_Parot_u0.gif", "sprite": "sp-anchoviella_juruasanga.png", "group": "other", "rarity": 1, "waterType": "Saltwater"}, {"lat": 19.9919, "lng": -52.9579, "id": "126863", "name": "Escolar", "thumb": "tn_Lefla_u1.jpg", "sprite": "sp-anchoviella_juruasanga.png", "group": "other", "rarity": 1, "waterType": "Saltwater"}, {"lat": 19.8125, "lng": -52.8667, "id": "125960", "name": "Coryphaena", "sprite": "sp-anchoviella_juruasanga.png", "group": "other", "rarity": 1}, {"lat": 20.1333, "lng": -53.4083, "id": "126954", "name": "Longbill spearfish", "thumb": "tn_Tepfl_u1.jpg", "sprite": "sp-blue_marlin.png", "group": "swordfish", "rarity": 1, "waterType": "Saltwater"}, {"lat": 21.45, "lng": -50.9, "id": "277924", "name": "Bluntnose flyingfish", "thumb": "tn_Prgib_u0.gif", "sprite": "sp-flying_fish.png", "group": "flying_fish", "rarity": 1, "waterType": "Saltwater"}, {"lat": 20.0917, "lng": -53.4083, "id": "126950", "name": "Blue marlin", "thumb": "tn_Manig_f0.jpg", "sprite": "sp-blue_marlin.png", "group": "swordfish", "rarity": 1, "waterType": "Saltwater"}, {"lat": 20.55, "lng": -52.71, "id": "137208", "name": "Lepidochelys kempii", "sprite": "sp-green_sea_turtle.png", "group": "sea_turtle", "rarity": 1}, {"lat": 20.1133, "lng": -53.0917, "id": "127021", "name": "Atlantic bonito", "thumb": "tn_Sasar_u3.jpg", "sprite": "sp-bluefin_tuna.png", "group": "tuna_mackerel", "rarity": 1, "waterType": "Brackish"}, {"lat": 21.45, "lng": -50.9, "id": "126381", "name": "Bandwing flyingfish", "thumb": "tn_Chexs_u0.jpg", "sprite": "sp-flying_fish.png", "group": "flying_fish", "rarity": 1, "waterType": "Saltwater"}, {"lat": 19.87, "lng": -52.52, "id": "127014", "name": "Wahoo", "thumb": "tn_Acsol_ua.jpg", "sprite": "sp-bluefin_tuna.png", "group": "tuna_mackerel", "rarity": 1, "waterType": "Saltwater"}, {"lat": 20.0721, "lng": -52.5561, "id": "127028", "name": "Bigeye tuna", "thumb": "tn_Thobe_u1.jpg", "sprite": "sp-bluefin_tuna.png", "group": "tuna_mackerel", "rarity": 1, "waterType": "Saltwater"}, {"lat": 20.74, "lng": -52.91, "id": "137165", "name": "Sterna paradisaea", "sprite": "sp-anchoviella_juruasanga.png", "group": "other", "rarity": 1}, {"lat": 21.45, "lng": -50.9, "id": "126385", "name": "Tropical two-wing flyingfish", "thumb": "tn_Exvol_u2.gif", "sprite": "sp-flying_fish.png", "group": "flying_fish", "rarity": 1, "waterType": "Saltwater"}]}