{"zoom": 7, "x": 45, "y": 64, "points": [{"lat": -0.7167, "lng": -50.8, "id": "126430", "name": "Tarpon", "thumb": "tn_Meatl_u8.jpg", "sprite": "sp-anchoviella_juruasanga.png", "group": "other", "rarity": 1, "waterType": "Brackish"}, {"lat": -0.7167, "lng": -50.8, "id": "276151", "name": "Stellifer brasiliensis", "thumb": "tn_Stbra_u1.jpg", "sprite": "sp-anchoviella_juruasanga.png", "group": "other", "rarity": 1, "waterType": "Saltwater"}, {"lat": -0.7167, "lng": -50.8, "id": "159854", "name": "Barbu", "thumb": "tn_Povir_u6.jpg", "sprite": "sp-anchoviella_juruasanga.png", "group": "other", "rarity": 1, "waterType": "Brackish"}, {"lat": -0.7167, "lng": -50.8, "id": "276094", "name": "Green weakfish", "thumb": "tn_Cyvir_u0.jpg", "sprite": "sp-anchoviella_juruasanga.png", "group": "other", "rarity": 1, "waterType": "Brackish"}, {"lat": -0.7167, "lng": -50.8, "id": "275276", "name": "Green puffer", "thumb": "tn_Spgre_u1.jpg", "sprite": "sp-fahaka_pufferfish.png", "group": "pufferfish", "rarity": 1, "waterType": "Brackish"}, {"lat": -2.2874, "lng": -52.1735, "id": "270160", "name": "Pachypops", "sprite": "sp-anchoviella_juruasanga.png", "group": "other", "rarity": 1}, {"lat": -0.7167, "lng": -50.8, "id": "271947", "name": "Dusky snake eel", "thumb": "tn_Opcyl_u1.jpg", "sprite": "sp-electric_eel.png", "group": "eel", "rarity": 1, "waterType": "Saltwater"}, {"lat": 0.0, "lng": -52.4375, "id": "623771", "name": "Impagidinium sphaericum", "sprite": "sp-anchoviella_juruasanga.png", "group": "other", "rarity": 1}, {"lat": -0.7167, "lng": -50.8, "id": "275987", "name": "Timucu", "thumb": "tn_Sttim_u1.jpg", "sprite": "sp-anchoviella_juruasanga.png", "group": "other", "rarity": 1, "waterType": "Brackish"}, {"lat": -2.2167, "lng": -51.2667, "id": "409280", "name": "Meiosquilla quadridens", "sprite": "sp-american_lobster.png", "group": "crab_lobster", "rarity": 1}, {"lat": -0.7167, "lng": -50.8, "id": "159195", "name": "Seadevil", "thumb": "tn_Ogves_u1.jpg", "sprite": "sp-deep_sea_anglerfish.png", "group": "anglerfish", "rarity": 1, "waterType": "Saltwater"}, {"lat": -0.7167, "lng": -50.8, "id": "279493", "name": "Lined sole", "thumb": "tn_Aclin_u8.jpg", "sprite": "sp-atlantic_halibut.png", "group": "flatfish", "rarity": 1, "waterType": "Brackish"}, {"lat": -0.7167, "lng": -50.8, "id": "159231", "name": "Black grouper", "thumb": "tn_Mybon_u0.jpg", "sprite": "sp-chelidoperca_santosi.png", "group": "grouper", "rarity": 1, "waterType": "Saltwater"}, {"lat": -0.7167, "lng": -50.8, "id": "126973", "name": "Tripletail", "thumb": "tn_Losur_u7.jpg", "sprite": "sp-anchoviella_juruasanga.png", "group": "other", "rarity": 1, "waterType": "Brackish"}, {"lat": 0.0, "lng": -52.5807, "id": "110213", "name": "Protoperidinium conicum", "sprite": "sp-anchoviella_juruasanga.png", "group": "other", "rarity": 1}, {"lat": -0.4167, "lng": -50.8778, "id": "279759", "name": "Tenbarbed banjo", "thumb": "tn_Astib_u0.gif", "sprite": "sp-blue_catfish.png", "group": "catfish", "rarity": 1, "waterType": "Brackish"}, {"lat": 0.0, "lng": -52.8672, "id": "835691", "name": "Algidasphaeridium minutum var. cezare", "sprite": "sp-anchoviella_juruasanga.png", "group": "other", "rarity": 1}, {"lat": -2.0653, "lng": -51.2417, "id": "409352", "name": "Squilla lijdingi", "sprite": "sp-american_lobster.png", "group": "crab_lobster", "rarity": 1}, {"lat": -0.7167, "lng": -50.8, "id": "273658", "name": "Redeye mullet", "thumb": "tn_Murub_u0.jpg", "sprite": "sp-anchoviella_juruasanga.png", "group": "other", "rarity": 1, "waterType": "Saltwater"}, {"lat": -0.7167, "lng": -50.8, "id": "281187", "name": "Bigtooth corvina", "thumb": "tn_Ispar_u1.jpg", "sprite": "sp-anchoviella_juruasanga.png", "group": "other", "rarity": 1, "waterType": "Brackish"}, {"lat": -1.3394, "lng": -51.8217, "id": "279985", "name": "Laulao catfish", "thumb": "tn_Brvai_u1.jpg", "sprite": "sp-blue_catfish.png", "group": "catfish", "rarity": 1, "waterType": "Brackish"}, {"lat": -0.7167, "lng": -50.8, "id": "277805", "name": "Spinycheek sleeper", "thumb": "tn_Elpis_u0.jpg", "sprite": "sp-anchoviella_juruasanga.png", "group": "other", "rarity": 1, "waterType": "Brackish"}, {"lat": -0.7167, "lng": -50.8, "id": "159353", "name": "Atlantic goliath grouper", "thumb": "tn_Epita_u2.jpg", "sprite": "sp-chelidoperca_santosi.png", "group": "grouper", "rarity": 1, "waterType": "Brackish"}, {"lat": -0.7167, "lng": -50.8, "id": "279587", "name": "Softhead sea catfish", "thumb": "tn_Amrug_u0.jpg", "sprite": "sp-blue_catfish.png", "group": "catfish", "rarity": 1, "waterType": "Brackish"}, {"lat": -0.7167, "lng": -50.8, "id": "276508", "name": "Half naked goby", "thumb": "tn_Gopar_u0.jpg", "sprite": "sp-eviota_bipunctata.png", "group": "goby", "rarity": 1, "waterType": "Brackish"}, {"lat": -0.7167, "lng": -50.8, "id": "281766", "name": "Thomas sea catfish", "thumb": "tn_Nogra_u0.jpg", "sprite": "sp-blue_catfish.png", "group": "catfish", "rarity": 1, "waterType": "Brackish"}, {"lat": -0.7167, "lng": -50.8, "id": "159238", "name": "Sheepshead", "thumb": "tn_Arpro_u3.jpg", "sprite": "sp-anchoviella_juruasanga.png", "group": "other", "rarity": 1, "waterType": "Brackish"}, {"lat": -2.285, "lng": -52.1544, "id": "282268", "name": "Pacora", "thumb": "tn_Plsur_u1.jpg", "sprite": "sp-anchoviella_juruasanga.png", "group": "other", "rarity": 1, "waterType": "Brackish"}, {"lat": -1.8782, "lng": -53.3822, "id": "269382", "name": "Heros", "sprite": "sp-coptodon_louka.png", "group": "cichlid", "rarity": 1}, {"lat": -0.7167, "lng": -50.8, "id": "276003", "name": "Slipper sole", "thumb": "tn_Trpau_u3.jpg", "sprite": "sp-atlantic_halibut.png", "group": "flatfish", "rarity": 1, "waterType": "Brackish"}, {"lat": -1.4647, "lng": -52.0536, "id": "269489", "name": "Ilisha", "sprite": "sp-anchoviella_juruasanga.png", "group": "other", "rarity": 1}, {"lat": -0.7167, "lng": -50.8, "id": "280049", "name": "Madamango sea catfish", "thumb": "tn_Caspi_u2.jpg", "sprite": "sp-blue_catfish.png", "group": "catfish", "rarity": 1, "waterType": "Brackish"}, {"lat": -0.7167, "lng": -50.8, "id": "159166", "name": "Bay whiff", "thumb": "tn_Cispi_u1.jpg", "sprite": "sp-atlantic_halibut.png", "group": "flatfish", "rarity": 1, "waterType": "Brackish"}, {"lat": -0.7167, "lng": -50.8, "id": "159649", "name": "Lookdown", "thumb": "tn_Sevom_u3.jpg", "sprite": "sp-anchoviella_juruasanga.png", "group": "other", "rarity": 1, "waterType": "Brackish"}, {"lat": 0.0, "lng": -52.5807, "id": "109925", "name": "Pentapharsodinium dalei", "sprite": "sp-anchoviella_juruasanga.png", "group": "other", "rarity": 1}, {"lat": -0.7167, "lng": -50.8, "id": "159827", "name": "American harvestfish", "thumb": "tn_Peale_u0.jpg", "sprite": "sp-anchoviella_juruasanga.png", "group": "other", "rarity": 1, "waterType": "Brackish"}, {"lat": -0.7167, "lng": -50.8, "id": "281639", "name": "Smalleye croaker", "thumb": "tn_Nemic_u4.jpg", "sprite": "sp-anchoviella_juruasanga.png", "group": "other", "rarity": 1, "waterType": "Brackish"}, {"lat": -0.7167, "lng": -50.8, "id": "276163", "name": "Smalleye stardrum", "thumb": "tn_Stmic_u1.jpg", "sprite": "sp-anchoviella_juruasanga.png", "group": "other", "rarity": 1, "waterType": "Brackish"}, {"lat": -0.0333, "lng": -51.0833, "id": "270412", "name": "Pimelodus", "sprite": "sp-blue_catfish.png", "group": "catfish", "rarity": 1}, {"lat": -0.7167, "lng": -50.8, "id": "158799", "name": "Fringed flounder", "thumb": "tn_Etcro_u2.jpg", "sprite": "sp-atlantic_halibut.png", "group": "flatfish", "rarity": 1, "waterType": "Brackish"}, {"lat": -0.7167, "lng": -50.8, "id": "401818", "name": "Corocoro grunt", "thumb": "tn_Orrub_u1.jpg", "sprite": "sp-anchoviella_juruasanga.png", "group": "other", "rarity": 1, "waterType": "Brackish"}, {"lat": -0.7167, "lng": -50.8, "id": "159732", "name": "Silver mojarra", "thumb": "tn_Euarg_u2.jpg", "sprite": "sp-anchoviella_juruasanga.png", "group": "other", "rarity": 1, "waterType": "Brackish"}, {"lat": -0.7167, "lng": -50.8, "id": "276168", "name": "Rake stardrum", "thumb": "tn_Stras_u1.jpg", "sprite": "sp-anchoviella_juruasanga.png", "group": "other", "rarity": 1, "waterType": "Brackish"}, {"lat": -2.1292, "lng": -50.7197, "id": "137192", "name": "Oceanodroma leucorhoa", "sprite": "sp-anchoviella_juruasanga.png", "group": "other", "rarity": 1}, {"lat": -0.7167, "lng": -50.8, "id": "159798", "name": "Dog snapper", "thumb": "tn_Lujoc_u0.jpg", "sprite": "sp-mutton_snapper.png", "group": "snapper", "rarity": 1, "waterType": "Brackish"}, {"lat": -0.7167, "lng": -50.8, "id": "276415", "name": "Caitipa mojarra", "thumb": "tn_Dirho_u1.jpg", "sprite": "sp-anchoviella_juruasanga.png", "group": "other", "rarity": 1, "waterType": "Brackish"}, {"lat": -0.7167, "lng": -50.8, "id": "158758", "name": "Inshore lizardfish", "thumb": "tn_Syfoe_u3.jpg", "sprite": "sp-anchoviella_juruasanga.png", "group": "other", "rarity": 1, "waterType": "Brackish"}, {"lat": -0.7167, "lng": -50.8, "id": "275587", "name": "Coco sea catfish", "thumb": "tn_Babag_u5.jpg", "sprite": "sp-blue_catfish.png", "group": "catfish", "rarity": 1, "waterType": "Brackish"}, {"lat": -0.7167, "lng": -50.8, "id": "281389", "name": "Longtail croaker", "thumb": "tn_Lolan_u0.gif", "sprite": "sp-anchoviella_juruasanga.png", "group": "other", "rarity": 1, "waterType": "Brackish"}, {"lat": -0.7167, "lng": -50.8, "id": "280367", "name": "Banded puffer", "thumb": "tn_Copsi_u4.jpg", "sprite": "sp-fahaka_pufferfish.png", "group": "pufferfish", "rarity": 1, "waterType": "Brackish"}, {"lat": -0.7167, "lng": -50.8, "id": "281904", "name": "Spotted croaker", "thumb": "tn_Oppun_u5.jpg", "sprite": "sp-anchoviella_juruasanga.png", "group": "other", "rarity": 1, "waterType": "Saltwater"}, {"lat": -0.7167, "lng": -50.8, "id": "276072", "name": "Ground croaker", "thumb": "tn_Baron_u1.jpg", "sprite": "sp-anchoviella_juruasanga.png", "group": "other", "rarity": 1, "waterType": "Brackish"}, {"lat": 0.0, "lng": -52.4375, "id": "835690", "name": "Algidasphaeridium minutum", "sprite": "sp-anchoviella_juruasanga.png", "group": "other", "rarity": 1}, {"lat": -0.7167, "lng": -50.8, "id": "282954", "name": "Cano toadfish", "thumb": "tn_Thmac_u0.jpg", "sprite": "sp-anchoviella_juruasanga.png", "group": "other", "rarity": 1, "waterType": "Saltwater"}, {"lat": -0.7167, "lng": -50.8, "id": "158583", "name": "Green moray", "thumb": "tn_Gyfun_u0.jpg", "sprite": "sp-anarchias.png", "group": "moray", "rarity": 1, "waterType": "Saltwater"}, {"lat": -0.7167, "lng": -50.8, "id": "279758", "name": "Sevenbarbed banjo", "thumb": "tn_Asfil_u0.jpg", "sprite": "sp-blue_catfish.png", "group": "catfish", "rarity": 1, "waterType": "Brackish"}, {"lat": -0.7167, "lng": -50.8, "id": "275962", "name": "Rypticus randalli", "thumb": "tn_Ryran_u0.jpg", "sprite": "sp-chelidoperca_santosi.png", "group": "grouper", "rarity": 1, "waterType": "Saltwater"}, {"lat": -0.7167, "lng": -50.8, "id": "279757", "name": "Bressou sea catfish", "thumb": "tn_Asqua_u0.jpg", "sprite": "sp-blue_catfish.png", "group": "catfish", "rarity": 1, "waterType": "Brackish"}, {"lat": 0.0, "lng": -52.8062, "id": "657391", "name": "Impagidinium pallidum", "sprite": "sp-anchoviella_juruasanga.png", "group": "other", "rarity": 1}, {"lat": -0.7167, "lng": -50.8, "id": "159416", "name": "White mullet", "thumb": "tn_Mucur_u0.jpg", "sprite": "sp-anchoviella_juruasanga.png", "group": "other", "rarity": 1, "waterType": "Brackish"}, {"lat": -0.7167, "lng": -50.8, "id": "274269", "name": "Duskycheek tonguefish", "thumb": "tn_Sypla_u1.jpg", "sprite": "sp-atlantic_halibut.png", "group": "flatfish", "rarity": 1, "waterType": "Brackish"}, {"lat": -0.7167, "lng": -50.8, "id": "282693", "name": "Couma sea catfish", "thumb": "tn_Sccou_u0.jpg", "sprite": "sp-blue_catfish.png", "group": "catfish", "rarity": 1, "waterType": "Brackish"}, {"lat": -0.7167, "lng": -50.8, "id": "276080", "name": "Smooth weakfish", "thumb": "tn_Cylei_u3.jpg", "sprite": "sp-anchoviella_juruasanga.png", "group": "other", "rarity": 1, "waterType": "Brackish"}, {"lat": -0.7167, "lng": -50.8, "id": "159703", "name": "Atlantic spadefish", "thumb": "tn_Chfab_u0.jpg", "sprite": "sp-anchoviella_juruasanga.png", "group": "other", "rarity": 1, "waterType": "Brackish"}, {"lat": -0.2433, "lng": -50.6894, "id": "419550", "name": "Petaloconchus erectus", "sprite": "sp-cowrie_shell.png", "group": "sea_snail", "rarity": 1}, {"lat": -0.7167, "lng": -50.8, "id": "275307", "name": "Whitemouth croaker", "thumb": "tn_Miman_u1.jpg", "sprite": "sp-anchoviella_juruasanga.png", "group": "other", "rarity": 1, "waterType": "Brackish"}, {"lat": -0.7167, "lng": -50.8, "id": "282697", "name": "Pemecou sea catfish", "thumb": "tn_Scher_u1.jpg", "sprite": "sp-blue_catfish.png", "group": "catfish", "rarity": 1, "waterType": "Brackish"}, {"lat": -1.7797, "lng": -52.2197, "id": "1258644", "name": "Drulia cristinae", "sprite": "sp-barrel_sponge.png", "group": "sponge", "rarity": 1}, {"lat": -0.7167, "lng": -50.8, "id": "159800", "name": "Lane snapper", "thumb": "tn_Lusyn_u0.jpg", "sprite": "sp-mutton_snapper.png", "group": "snapper", "rarity": 1, "waterType": "Saltwater"}, {"lat": -1.75, "lng": -52.216, "id": "1821", "name": "Chordata", "sprite": "sp-anchoviella_juruasanga.png", "group": "other", "rarity": 1}, {"lat": -0.7167, "lng": -50.8, "id": "275240", "name": "Web burrfish", "thumb": "tn_Chant_u3.jpg", "sprite": "sp-fahaka_pufferfish.png", "group": "pufferfish", "rarity": 1, "waterType": "Saltwater"}, {"lat": -0.7167, "lng": -50.8, "id": "276423", "name": "Flagfin mojarra", "thumb": "tn_Eumel_u0.jpg", "sprite": "sp-anchoviella_juruasanga.png", "group": "other", "rarity": 1, "waterType": "Brackish"}, {"lat": -0.7167, "lng": -50.8, "id": "275716", "name": "Microgobius meeki", "thumb": "tn_Mimee_u0.jpg", "sprite": "sp-eviota_bipunctata.png", "group": "goby", "rarity": 1, "waterType": "Saltwater"}, {"lat": -0.7167, "lng": -50.8, "id": "159743", "name": "Lyre goby", "thumb": "tn_Evlyr_u0.jpg", "sprite": "sp-eviota_bipunctata.png", "group": "goby", "rarity": 1, "waterType": "Brackish"}, {"lat": -0.7167, "lng": -50.8, "id": "276596", "name": "Littlescale threadfin", "thumb": "tn_Pooli_u6.jpg", "sprite": "sp-anchoviella_juruasanga.png", "group": "other", "rarity": 1, "waterType": "Brackish"}, {"lat": -0.7167, "lng": -50.8, "id": "273654", "name": "Parassi mullet", "thumb": "tn_Muinc_u1.jpg", "sprite": "sp-anchoviella_juruasanga.png", "group": "other", "rarity": 1, "waterType": "Brackish"}, {"lat": -0.7167, "lng": -50.8, "id": "276129", "name": "Shorthead drum", "thumb": "tn_Labre_u1.jpg", "sprite": "sp-anchoviella_juruasanga.png", "group": "other", "rarity": 1, "waterType": "Brackish"}, {"lat": -0.7167, "lng": -50.8, "id": "159753", "name": "Highfin goby", "thumb": "tn_Gooce_u0.jpg", "sprite": "sp-eviota_bipunctata.png", "group": "goby", "rarity": 1, "waterType": "Brackish"}, {"lat": -0.7167, "lng": -50.8, "id": "279586", "name": "Kukwari sea catfish", "thumb": "tn_Amphr_u0.jpg", "sprite": "sp-blue_catfish.png", "group": "catfish", "rarity": 1, "waterType": "Brackish"}, {"lat": -0.0582, "lng": -51.178, "id": "422192", "name": "Armases benedicti", "sprite": "sp-american_lobster.png", "group": "crab_lobster", "rarity": 1}, {"lat": -0.7167, "lng": -50.8, "id": "159564", "name": "Spotted scorpionfish", "thumb": "tn_Scplu_u0.jpg", "sprite": "sp-parascorpaena_moultoni.png", "group": "scorpionfish", "rarity": 1, "waterType": "Saltwater"}, {"lat": -0.7167, "lng": -50.8, "id": "159326", "name": "Southern kingcroaker", "thumb": "tn_Meame_u5.jpg", "sprite": "sp-anchoviella_juruasanga.png", "group": "other", "rarity": 1, "waterType": "Brackish"}, {"lat": -0.7167, "lng": -50.8, "id": "276288", "name": "Bluewing searobin", "thumb": "tn_Prpun_u2.jpg", "sprite": "sp-anchoviella_juruasanga.png", "group": "other", "rarity": 1, "waterType": "Brackish"}, {"lat": -0.7167, "lng": -50.8, "id": "280386", "name": "Barred grunt", "thumb": "tn_Conob_u2.jpg", "sprite": "sp-anchoviella_juruasanga.png", "group": "other", "rarity": 1, "waterType": "Saltwater"}, {"lat": -0.7167, "lng": -50.8, "id": "276091", "name": "Smalltooth weakfish", "thumb": "tn_Cyste_u0.jpg", "sprite": "sp-anchoviella_juruasanga.png", "group": "other", "rarity": 1, "waterType": "Brackish"}, {"lat": -0.7167, "lng": -50.8, "id": "282263", "name": "Bloch's catfish", "thumb": "tn_Piblo_u1.jpg", "sprite": "sp-blue_catfish.png", "group": "catfish", "rarity": 1, "waterType": "Brackish"}, {"lat": -0.7167, "lng": -50.8, "id": "280829", "name": "Torroto grunt", "thumb": "tn_Gelut_u2.jpg", "sprite": "sp-anchoviella_juruasanga.png", "group": "other", "rarity": 1, "waterType": "Brackish"}, {"lat": 0.0, "lng": -52.8062, "id": "233522", "name": "Gonyaulax elongata", "sprite": "sp-anchoviella_juruasanga.png", "group": "other", "rarity": 1}, {"lat": -0.7167, "lng": -50.8, "id": "282702", "name": "Crucifix sea catfish", "thumb": "tn_Scpro_u1.jpg", "sprite": "sp-blue_catfish.png", "group": "catfish", "rarity": 1, "waterType": "Brackish"}, {"lat": -0.7167, "lng": -50.8, "id": "279797", "name": "Brazilian silversides", "thumb": "tn_Atbra_u1.jpg", "sprite": "sp-anchoviella_juruasanga.png", "group": "other", "rarity": 1, "waterType": "Brackish"}, {"lat": -0.7167, "lng": -50.8, "id": "151169", "name": "Snubnose pompano", "thumb": "tn_Trblo_u5.jpg", "sprite": "sp-anchoviella_juruasanga.png", "group": "other", "rarity": 1, "waterType": "Brackish"}, {"lat": 0.0, "lng": -52.5807, "id": "603684", "name": "Brigantedinium", "sprite": "sp-anchoviella_juruasanga.png", "group": "other", "rarity": 1}, {"lat": -0.7167, "lng": -50.8, "id": "158877", "name": "Channel flounder", "thumb": "tn_Symic_u2.jpg", "sprite": "sp-atlantic_halibut.png", "group": "flatfish", "rarity": 1, "waterType": "Saltwater"}, {"lat": -0.7167, "lng": -50.8, "id": "158936", "name": "Checkered puffer", "thumb": "tn_Sptes_u2.jpg", "sprite": "sp-fahaka_pufferfish.png", "group": "pufferfish", "rarity": 1, "waterType": "Brackish"}, {"lat": -0.7167, "lng": -50.8, "id": "276169", "name": "Little croaker", "thumb": "tn_Stste_u1.jpg", "sprite": "sp-anchoviella_juruasanga.png", "group": "other", "rarity": 1, "waterType": "Brackish"}, {"lat": -0.7167, "lng": -50.8, "id": "276074", "name": "Acoupa weakfish", "thumb": "tn_Cyaco_u2.jpg", "sprite": "sp-anchoviella_juruasanga.png", "group": "other", "rarity": 1, "waterType": "Brackish"}, {"lat": -0.7167, "lng": -50.8, "id": "280942", "name": "Guavina", "thumb": "tn_Gugua_u0.jpg", "sprite": "sp-anchoviella_juruasanga.png", "group": "other", "rarity": 1, "waterType": "Brackish"}, {"lat": -1.5978, "lng": -51.9526, "id": "279760", "name": "Banjo catfish", "thumb": "tn_Asasp_u1.jpg", "sprite": "sp-blue_catfish.png", "group": "catfish", "rarity": 1, "waterType": "Brackish"}, {"lat": -0.7167, "lng": -50.8, "id": "712442", "name": "Gillbacker sea catfish", "thumb": "tn_Scpar_ub.jpg", "sprite": "sp-blue_catfish.png", "group": "catfish", "rarity": 1, "waterType": "Brackish"}, {"lat": -2.2181, "lng": -52.4667, "id": "408949", "name": "Neogonodactylus oerstedii", "sprite": "sp-american_lobster.png", "group": "crab_lobster", "rarity": 1}, {"lat": -0.7167, "lng": -50.8, "id": "1020759", "name": "Roughneck grunt", "thumb": "tn_Hacor_u0.jpg", "sprite": "sp-anchoviella_juruasanga.png", "group": "other", "rarity": 1, "waterType": "Brackish"}, {"lat": -0.7167, "lng": -50.8, "id": "280064", "name": "Fat snook", "thumb": "tn_Cepar_u2.jpg", "sprite": "sp-anchoviella_juruasanga.png", "group": "other", "rarity": 1, "waterType": "Brackish"}, {"lat": -0.7167, "lng": -50.8, "id": "278668", "name": "Pacuma toadfish", "thumb": "tn_Basur_u0.jpg", "sprite": "sp-anchoviella_juruasanga.png", "group": "other", "rarity": 1, "waterType": "Brackish"}, {"lat": -0.7167, "lng": -50.8, "id": "159256", "name": "Atlantic needlefish", "thumb": "tn_Stmar_u5.jpg", "sprite": "sp-anchoviella_juruasanga.png", "group": "other", "rarity": 1, "waterType": "Brackish"}, {"lat": -0.7167, "lng": -50.8, "id": "273655", "name": "Lebranche mullet", "thumb": "tn_Muliz_u0.jpg", "sprite": "sp-anchoviella_juruasanga.png", "group": "other", "rarity": 1, "waterType": "Brackish"}, {"lat": -0.7167, "lng": -50.8, "id": "281837", "name": "Reef croaker", "thumb": "tn_Odden_u2.jpg", "sprite": "sp-anchoviella_juruasanga.png", "group": "other", "rarity": 1, "waterType": "Saltwater"}, {"lat": -0.7167, "lng": -50.8, "id": "281477", "name": "King weakfish", "thumb": "tn_Maanc_u0.jpg", "sprite": "sp-anchoviella_juruasanga.png", "group": "other", "rarity": 1, "waterType": "Brackish"}, {"lat": -0.7167, "lng": -50.8, "id": "157875", "name": "Ladyfish", "thumb": "tn_Elsau_u3.jpg", "sprite": "sp-anchoviella_juruasanga.png", "group": "other", "rarity": 1, "waterType": "Brackish"}, {"lat": -0.7167, "lng": -50.8, "id": "279490", "name": "Drab sole", "thumb": "tn_Acach_u4.jpg", "sprite": "sp-atlantic_halibut.png", "group": "flatfish", "rarity": 1, "waterType": "Brackish"}, {"lat": -0.7167, "lng": -50.8, "id": "282957", "name": "Thalassophryne nattereri", "thumb": "tn_Thnat_u1.jpg", "sprite": "sp-anchoviella_juruasanga.png", "group": "other", "rarity": 1, "waterType": "Brackish"}, {"lat": -0.7167, "lng": -50.8, "id": "159733", "name": "Jenny mojarra", "thumb": "tn_Eugul_u3.jpg", "sprite": "sp-anchoviella_juruasanga.png", "group": "other", "rarity": 1, "waterType": "Brackish"}, {"lat": -1.3783, "lng": -52.1366, "id": "282281", "name": "Banded banjo", "thumb": "tn_Plcot_u1.jpg", "sprite": "sp-blue_catfish.png", "group": "catfish", "rarity": 1, "waterType": "Brackish"}, {"lat": -1.8448, "lng": -52.0448, "id": "279609", "name": "Surinam anchovy", "thumb": "tn_Ansur_u4.jpg", "sprite": "sp-anchoviella_juruasanga.png", "group": "anchovy", "rarity": 1, "waterType": "Brackish"}, {"lat": -0.7167, "lng": -50.8, "id": "276491", "name": "Emerald goby", "thumb": "tn_Ctsma_u0.jpg", "sprite": "sp-eviota_bipunctata.png", "group": "goby", "rarity": 1, "waterType": "Brackish"}, {"lat": -0.7167, "lng": -50.8, "id": "126998", "name": "Wreckfish", "thumb": "tn_Poame_f0.jpg", "sprite": "sp-anchoviella_juruasanga.png", "group": "other", "rarity": 1, "waterType": "Saltwater"}, {"lat": -0.7167, "lng": -50.8, "id": "212256", "name": "Bonefish", "thumb": "tn_Alvul_u0.jpg", "sprite": "sp-anchoviella_juruasanga.png", "group": "other", "rarity": 1, "waterType": "Brackish"}, {"lat": -0.7167, "lng": -50.8, "id": "280068", "name": "Common snook", "thumb": "tn_Ceund_u1.jpg", "sprite": "sp-anchoviella_juruasanga.png", "group": "other", "rarity": 1, "waterType": "Brackish"}, {"lat": -0.7167, "lng": -50.8, "id": "127089", "name": "Largehead hairtail", "thumb": "tn_Trlep_u0.jpg", "sprite": "sp-anchoviella_juruasanga.png", "group": "other", "rarity": 1, "waterType": "Brackish"}, {"lat": -0.7167, "lng": -50.8, "id": "276165", "name": "Stellifer naso", "thumb": "tn_Stnas_u1.jpg", "sprite": "sp-anchoviella_juruasanga.png", "group": "other", "rarity": 1, "waterType": "Brackish"}, {"lat": -1.7619, "lng": -52.1687, "id": "270424", "name": "Plagioscion", "sprite": "sp-anchoviella_juruasanga.png", "group": "other", "rarity": 1}]}