{"zoom": 7, "x": 45, "y": 62, "points": [{"lat": 4.9479, "lng": -52.2567, "id": "977151", "name": "Nitzschia sigma var. indica", "sprite": "sp-anchoviella_juruasanga.png", "group": "other", "rarity": 1}, {"lat": 4.9311, "lng": -52.2629, "id": "156586", "name": "Pleurosigma strigosum", "sprite": "sp-anchoviella_juruasanga.png", "group": "other", "rarity": 1}, {"lat": 5.5441, "lng": -52.8518, "id": "392752", "name": "Rhodospirillaceae", "sprite": "sp-anchoviella_juruasanga.png", "group": "other", "rarity": 1}, {"lat": 5.5439, "lng": -52.7583, "id": "564124", "name": "Lewinella", "sprite": "sp-anchoviella_juruasanga.png", "group": "other", "rarity": 1}, {"lat": 5.2667, "lng": -52.55, "id": "249721", "name": "Mallomonas", "sprite": "sp-anchoviella_juruasanga.png", "group": "other", "rarity": 1}, {"lat": 5.2667, "lng": -52.55, "id": "146538", "name": "Lyngbya", "sprite": "sp-anchoviella_juruasanga.png", "group": "other", "rarity": 1}, {"lat": 5.5438, "lng": -52.6882, "id": "567971", "name": "Stappia", "sprite": "sp-anchoviella_juruasanga.png", "group": "other", "rarity": 1}, {"lat": 5.0537, "lng": -52.6486, "id": "282281", "name": "Banded banjo", "thumb": "tn_Plcot_u1.jpg", "sprite": "sp-blue_catfish.png", "group": "catfish", "rarity": 1, "waterType": "Brackish"}, {"lat": 4.767, "lng": -51.35, "id": "421957", "name": "Stenorhynchus seticornis", "sprite": "sp-american_lobster.png", "group": "crab_lobster", "rarity": 1}, {"lat": 5.0707, "lng": -52.3751, "id": "149042", "name": "Melosira", "sprite": "sp-anchoviella_juruasanga.png", "group": "other", "rarity": 1}, {"lat": 5.2667, "lng": -52.55, "id": "149402", "name": "Eunotia", "sprite": "sp-anchoviella_juruasanga.png", "group": "other", "rarity": 1}, {"lat": 5.4904, "lng": -50.9717, "id": "178804", "name": "Sclerasterias contorta", "sprite": "sp-sea_cucumber.png", "group": "starfish", "rarity": 1}, {"lat": 5.0002, "lng": -52.4102, "id": "279609", "name": "Surinam anchovy", "thumb": "tn_Ansur_u4.jpg", "sprite": "sp-anchoviella_juruasanga.png", "group": "anchovy", "rarity": 1, "waterType": "Brackish"}, {"lat": 5.5436, "lng": -52.6181, "id": "559998", "name": "Flavobacteriales", "sprite": "sp-anchoviella_juruasanga.png", "group": "other", "rarity": 1}, {"lat": 4.8717, "lng": -52.12, "id": "977967", "name": "Pleurosigma speciosum var. majus", "sprite": "sp-anchoviella_juruasanga.png", "group": "other", "rarity": 1}, {"lat": 5.2273, "lng": -51.6992, "id": "137111", "name": "Tursiops truncatus", "sprite": "sp-bottlenose_dolphin.png", "group": "dolphin", "rarity": 1}, {"lat": 5.49, "lng": -50.9715, "id": "607338", "name": "Zoantharia", "sprite": "sp-actiniidae.png", "group": "coral", "rarity": 1}, {"lat": 4.65, "lng": -50.7333, "id": "105435", "name": "Flaccisagitta hexaptera", "sprite": "sp-anchoviella_juruasanga.png", "group": "other", "rarity": 1}, {"lat": 4.8593, "lng": -52.3573, "id": "159509", "name": "Trichechus manatus", "sprite": "sp-giant_river_otter.png", "group": "sea_otter", "rarity": 1}, {"lat": 5.2238, "lng": -52.3224, "id": "159245", "name": "Sheepshead porgy", "thumb": "tn_Capen_u4.jpg", "sprite": "sp-anchoviella_juruasanga.png", "group": "other", "rarity": 1, "waterType": "Saltwater"}, {"lat": 5.0867, "lng": -52.3683, "id": "110133", "name": "Diplopelta bomba", "sprite": "sp-anchoviella_juruasanga.png", "group": "other", "rarity": 1}, {"lat": 4.55, "lng": -52.1333, "id": "282700", "name": "Passany sea catfish", "thumb": "tn_Arpas_u0.jpg", "sprite": "sp-blue_catfish.png", "group": "catfish", "rarity": 1, "waterType": "Brackish"}, {"lat": 4.7667, "lng": -51.5167, "id": "126373", "name": "Diamond lizardfish", "thumb": "tn_Sysyn_u2.jpg", "sprite": "sp-anchoviella_juruasanga.png", "group": "other", "rarity": 1, "waterType": "Saltwater"}, {"lat": 4.5666, "lng": -51.5722, "id": "279642", "name": "Longtail sole", "thumb": "tn_Apdum_u0.jpg", "sprite": "sp-atlantic_halibut.png", "group": "flatfish", "rarity": 1, "waterType": "Brackish"}, {"lat": 5.2833, "lng": -52.0, "id": "574541", "name": "Doryteuthis pealeii", "sprite": "sp-giant_pacific_octopus.png", "group": "octopus_squid", "rarity": 1}, {"lat": 5.5444, "lng": -53.0154, "id": "570208", "name": "Syntrophobacteraceae", "sprite": "sp-anchoviella_juruasanga.png", "group": "other", "rarity": 1}, {"lat": 3.9833, "lng": -50.65, "id": "129613", "name": "Laonice", "sprite": "sp-anchoviella_juruasanga.png", "group": "other", "rarity": 1}, {"lat": 4.6333, "lng": -51.0833, "id": "151158", "name": "Atlantic croaker", "thumb": "tn_Miund_u0.jpg", "sprite": "sp-anchoviella_juruasanga.png", "group": "other", "rarity": 1, "waterType": "Brackish"}, {"lat": 4.65, "lng": -50.7333, "id": "101563", "name": "Photis", "sprite": "sp-american_lobster.png", "group": "crab_lobster", "rarity": 1}, {"lat": 5.3317, "lng": -51.5784, "id": "159350", "name": "Sand perch", "thumb": "tn_Difor_u2.jpg", "sprite": "sp-chelidoperca_santosi.png", "group": "grouper", "rarity": 1, "waterType": "Saltwater"}, {"lat": 5.5428, "lng": -52.1974, "id": "559897", "name": "Adhaeribacter", "sprite": "sp-anchoviella_juruasanga.png", "group": "other", "rarity": 1}, {"lat": 4.9837, "lng": -52.301, "id": "178059", "name": "Campyloneis", "sprite": "sp-anchoviella_juruasanga.png", "group": "other", "rarity": 1}, {"lat": 5.5441, "lng": -52.8518, "id": "570965", "name": "Lachnospiraceae", "sprite": "sp-anchoviella_juruasanga.png", "group": "other", "rarity": 1}, {"lat": 5.5437, "lng": -52.6597, "id": "559844", "name": "Bacteroidetes", "sprite": "sp-anchoviella_juruasanga.png", "group": "other", "rarity": 1}, {"lat": 5.5448, "lng": -53.179, "id": "571006", "name": "Azovibrio", "sprite": "sp-anchoviella_juruasanga.png", "group": "other", "rarity": 1}, {"lat": 4.8189, "lng": -52.1261, "id": "149028", "name": "Fragilaria", "sprite": "sp-anchoviella_juruasanga.png", "group": "other", "rarity": 1}, {"lat": 4.9297, "lng": -52.3529, "id": "159753", "name": "Highfin goby", "thumb": "tn_Gooce_u0.jpg", "sprite": "sp-eviota_bipunctata.png", "group": "goby", "rarity": 1, "waterType": "Brackish"}, {"lat": 4.9671, "lng": -52.3725, "id": "273289", "name": "Cayenne pompano", "thumb": "tn_Trcay_u1.jpg", "sprite": "sp-anchoviella_juruasanga.png", "group": "other", "rarity": 1, "waterType": "Brackish"}, {"lat": 5.5432, "lng": -52.3937, "id": "570028", "name": "Bacteriovoracaceae", "sprite": "sp-anchoviella_juruasanga.png", "group": "other", "rarity": 1}, {"lat": 5.5434, "lng": -52.4919, "id": "570983", "name": "Coxiellaceae", "sprite": "sp-anchoviella_juruasanga.png", "group": "other", "rarity": 1}, {"lat": 4.65, "lng": -50.7333, "id": "106978", "name": "Alpheus", "sprite": "sp-american_lobster.png", "group": "crab_lobster", "rarity": 1}, {"lat": 4.8345, "lng": -52.3083, "id": "279600", "name": "Foureyes", "thumb": "tn_Anmic_u0.jpg", "sprite": "sp-anchoviella_juruasanga.png", "group": "other", "rarity": 1, "waterType": "Brackish"}, {"lat": 5.5438, "lng": -52.6882, "id": "570416", "name": "Methylococcaceae", "sprite": "sp-anchoviella_juruasanga.png", "group": "other", "rarity": 1}, {"lat": 5.1717, "lng": -52.63, "id": "975336", "name": "Guinardia blavyana var. blavyana", "sprite": "sp-anchoviella_juruasanga.png", "group": "other", "rarity": 1}, {"lat": 4.8539, "lng": -52.2773, "id": "106057", "name": "Balanidae", "sprite": "sp-anchoviella_juruasanga.png", "group": "other", "rarity": 1}, {"lat": 5.4378, "lng": -52.5177, "id": "110900", "name": "Cupuladria", "sprite": "sp-anchoviella_juruasanga.png", "group": "other", "rarity": 1}, {"lat": 5.0948, "lng": -51.8604, "id": "271387", "name": "Smalleye smooth-hound", "thumb": "tn_Muhig_m1.jpg", "sprite": "sp-great_white_shark.png", "group": "shark", "rarity": 1, "waterType": "Brackish"}, {"lat": 5.5438, "lng": -52.6882, "id": "564100", "name": "Sphingobacteriales", "sprite": "sp-anchoviella_juruasanga.png", "group": "other", "rarity": 1}, {"lat": 4.9042, "lng": -52.1996, "id": "602392", "name": "Cymatotheca", "sprite": "sp-anchoviella_juruasanga.png", "group": "other", "rarity": 1}, {"lat": 4.65, "lng": -50.7333, "id": "129156", "name": "Amphicteis", "sprite": "sp-anchoviella_juruasanga.png", "group": "other", "rarity": 1}, {"lat": 5.5438, "lng": -52.6882, "id": "559723", "name": "Leucobacter", "sprite": "sp-anchoviella_juruasanga.png", "group": "other", "rarity": 1}, {"lat": 5.2192, "lng": -52.59, "id": "573543", "name": "Pseudoguinardia recta", "sprite": "sp-anchoviella_juruasanga.png", "group": "other", "rarity": 1}, {"lat": 5.5441, "lng": -52.8518, "id": "571124", "name": "Peptococcaceae", "sprite": "sp-anchoviella_juruasanga.png", "group": "other", "rarity": 1}, {"lat": 5.5448, "lng": -53.179, "id": "559869", "name": "Porphyromonas", "sprite": "sp-anchoviella_juruasanga.png", "group": "other", "rarity": 1}, {"lat": 4.9169, "lng": -52.1331, "id": "276357", "name": "Maracaibo leatherjacket", "thumb": "tn_Olpal_j0.jpg", "sprite": "sp-anchoviella_juruasanga.png", "group": "other", "rarity": 1, "waterType": "Brackish"}, {"lat": 5.4514, "lng": -51.3244, "id": "178632", "name": "Luidia ludwigi", "sprite": "sp-sea_cucumber.png", "group": "starfish", "rarity": 1}, {"lat": 5.0046, "lng": -52.3137, "id": "163226", "name": "Lauderia pumila", "sprite": "sp-anchoviella_juruasanga.png", "group": "other", "rarity": 1}, {"lat": 5.4274, "lng": -51.9213, "id": "158497", "name": "Luidia clathrata", "sprite": "sp-sea_cucumber.png", "group": "starfish", "rarity": 1}, {"lat": 5.5448, "lng": -53.179, "id": "393044", "name": "Halomonas", "sprite": "sp-anchoviella_juruasanga.png", "group": "other", "rarity": 1}, {"lat": 5.5437, "lng": -52.6504, "id": "567417", "name": "Hyphomicrobiaceae", "sprite": "sp-anchoviella_juruasanga.png", "group": "other", "rarity": 1}, {"lat": 5.5438, "lng": -52.6854, "id": "178054", "name": "Proteobacteria", "sprite": "sp-anchoviella_juruasanga.png", "group": "other", "rarity": 1}, {"lat": 5.5436, "lng": -52.6242, "id": "571506", "name": "Truepera", "sprite": "sp-anchoviella_juruasanga.png", "group": "other", "rarity": 1}, {"lat": 5.5428, "lng": -52.1974, "id": "391950", "name": "Thermosediminibacter", "sprite": "sp-anchoviella_juruasanga.png", "group": "other", "rarity": 1}, {"lat": 5.5428, "lng": -52.1974, "id": "571478", "name": "Lactococcus", "sprite": "sp-anchoviella_juruasanga.png", "group": "other", "rarity": 1}, {"lat": 4.3925, "lng": -51.0348, "id": "105732", "name": "Mustelus", "sprite": "sp-great_white_shark.png", "group": "shark", "rarity": 1}, {"lat": 4.8833, "lng": -52.24, "id": "17639", "name": "Cryptophyceae", "sprite": "sp-anchoviella_juruasanga.png", "group": "other", "rarity": 1}, {"lat": 5.583, "lng": -51.133, "id": "126304", "name": "Avocet snipe eel", "thumb": "tn_Avinf_u0.jpg", "sprite": "sp-electric_eel.png", "group": "eel", "rarity": 1, "waterType": "Saltwater"}, {"lat": 4.8525, "lng": -52.2707, "id": "154394", "name": "Poecilia", "sprite": "sp-anchoviella_juruasanga.png", "group": "other", "rarity": 1}, {"lat": 4.3987, "lng": -51.0263, "id": "105730", "name": "Sphyrna", "sprite": "sp-great_white_shark.png", "group": "shark", "rarity": 1}, {"lat": 5.0, "lng": -51.25, "id": "282055", "name": "Vieja", "thumb": "tn_Sedew_u0.jpg", "sprite": "sp-chelidoperca_santosi.png", "group": "grouper", "rarity": 1, "waterType": "Brackish"}, {"lat": 4.65, "lng": -50.7333, "id": "138095", "name": "Kellia", "sprite": "sp-blue_mussel.png", "group": "clam_mussel", "rarity": 1}, {"lat": 5.4, "lng": -52.117, "id": "411859", "name": "Aplustridae", "sprite": "sp-cowrie_shell.png", "group": "sea_snail", "rarity": 1}, {"lat": 5.5428, "lng": -52.1974, "id": "393947", "name": "Herbaspirillum", "sprite": "sp-anchoviella_juruasanga.png", "group": "other", "rarity": 1}, {"lat": 4.9638, "lng": -52.2331, "id": "163132", "name": "Chaetoceros subtilis var. abnormis", "sprite": "sp-anchoviella_juruasanga.png", "group": "other", "rarity": 1}, {"lat": 4.8833, "lng": -52.24, "id": "160595", "name": "Pterosperma", "sprite": "sp-anchoviella_juruasanga.png", "group": "other", "rarity": 1}, {"lat": 5.5436, "lng": -52.59, "id": "571022", "name": "Bradyrhizobium", "sprite": "sp-anchoviella_juruasanga.png", "group": "other", "rarity": 1}, {"lat": 4.9333, "lng": -52.875, "id": "159081", "name": "Actitis macularius", "sprite": "sp-anchoviella_juruasanga.png", "group": "other", "rarity": 1}, {"lat": 5.5438, "lng": -52.6882, "id": "571196", "name": "Leptolinea", "sprite": "sp-anchoviella_juruasanga.png", "group": "other", "rarity": 1}, {"lat": 4.65, "lng": -50.7333, "id": "1263832", "name": "Cypridina noctiluca", "sprite": "sp-anchoviella_juruasanga.png", "group": "other", "rarity": 1}, {"lat": 4.8769, "lng": -51.8053, "id": "148746", "name": "Ciconiiformes", "sprite": "sp-anchoviella_juruasanga.png", "group": "other", "rarity": 1}, {"lat": 5.4282, "lng": -52.3915, "id": "159422", "name": "Dwarf goatfish", "thumb": "tn_Uppar_u3.jpg", "sprite": "sp-anchoviella_juruasanga.png", "group": "other", "rarity": 1, "waterType": "Saltwater"}, {"lat": 4.9189, "lng": -52.2123, "id": "712889", "name": "Sperm goby", "sprite": "sp-eviota_bipunctata.png", "group": "goby", "rarity": 1, "waterType": "Brackish"}, {"lat": 5.5438, "lng": -52.6882, "id": "571482", "name": "Synergistes", "sprite": "sp-anchoviella_juruasanga.png", "group": "other", "rarity": 1}, {"lat": 5.4, "lng": -51.567, "id": "367596", "name": "Dardanus venosus", "sprite": "sp-american_lobster.png", "group": "crab_lobster", "rarity": 1}, {"lat": 5.2833, "lng": -52.0, "id": "126808", "name": "Round scad", "thumb": "tn_Depun_u3.jpg", "sprite": "sp-anchoviella_juruasanga.png", "group": "other", "rarity": 1, "waterType": "Saltwater"}, {"lat": 4.8552, "lng": -52.2594, "id": "275495", "name": "Leaden worm eel", "sprite": "sp-electric_eel.png", "group": "eel", "rarity": 1, "waterType": "Brackish"}, {"lat": 4.993, "lng": -52.2725, "id": "148985", "name": "Chaetoceros", "sprite": "sp-anchoviella_juruasanga.png", "group": "other", "rarity": 1}, {"lat": 5.5434, "lng": -52.5246, "id": "567355", "name": "Lactobacillus", "sprite": "sp-anchoviella_juruasanga.png", "group": "other", "rarity": 1}, {"lat": 4.4644, "lng": -51.2114, "id": "275307", "name": "Whitemouth croaker", "thumb": "tn_Miman_u1.jpg", "sprite": "sp-anchoviella_juruasanga.png", "group": "other", "rarity": 1, "waterType": "Brackish"}, {"lat": 5.5438, "lng": -52.6944, "id": "393944", "name": "Betaproteobacteria", "sprite": "sp-anchoviella_juruasanga.png", "group": "other", "rarity": 1}, {"lat": 4.9169, "lng": -52.1331, "id": "126819", "name": "Pompano", "thumb": "tn_Trova_u3.jpg", "sprite": "sp-anchoviella_juruasanga.png", "group": "other", "rarity": 1, "waterType": "Brackish"}, {"lat": 4.9594, "lng": -52.1842, "id": "681595", "name": "Coscinodiscus jonesianus var. aculeata", "sprite": "sp-anchoviella_juruasanga.png", "group": "other", "rarity": 1}, {"lat": 5.0069, "lng": -52.2197, "id": "125523", "name": "Carangidae", "sprite": "sp-anchoviella_juruasanga.png", "group": "other", "rarity": 1}, {"lat": 5.5438, "lng": -52.6882, "id": "570910", "name": "Acidiphilium", "sprite": "sp-anchoviella_juruasanga.png", "group": "other", "rarity": 1}, {"lat": 5.4583, "lng": -51.7667, "id": "272824", "name": "Band cusk-eel", "thumb": "tn_Ophol_u1.jpg", "sprite": "sp-anchoviella_juruasanga.png", "group": "other", "rarity": 1, "waterType": "Saltwater"}, {"lat": 5.5438, "lng": -52.6882, "id": "567623", "name": "Ahrensia", "sprite": "sp-anchoviella_juruasanga.png", "group": "other", "rarity": 1}, {"lat": 5.45, "lng": -52.4667, "id": "125484", "name": "Antennariidae", "sprite": "sp-deep_sea_anglerfish.png", "group": "anglerfish", "rarity": 1}, {"lat": 5.5438, "lng": -52.6882, "id": "571174", "name": "Stella", "sprite": "sp-anchoviella_juruasanga.png", "group": "other", "rarity": 1}, {"lat": 4.65, "lng": -50.7333, "id": "131471", "name": "Amaeana trilobata", "sprite": "sp-anchoviella_juruasanga.png", "group": "other", "rarity": 1}, {"lat": 5.3223, "lng": -52.3279, "id": "136980", "name": "Delphinidae", "sprite": "sp-bottlenose_dolphin.png", "group": "dolphin", "rarity": 1}, {"lat": 5.5438, "lng": -52.6882, "id": "571359", "name": "Methylophilus", "sprite": "sp-anchoviella_juruasanga.png", "group": "other", "rarity": 1}, {"lat": 5.5438, "lng": -52.6882, "id": "146540", "name": "Microcoleus", "sprite": "sp-anchoviella_juruasanga.png", "group": "other", "rarity": 1}, {"lat": 5.5436, "lng": -52.59, "id": "393075", "name": "Erythrobacter", "sprite": "sp-anchoviella_juruasanga.png", "group": "other", "rarity": 1}, {"lat": 5.4763, "lng": -51.0317, "id": "1341", "name": "Octocorallia", "sprite": "sp-actiniidae.png", "group": "coral", "rarity": 1}, {"lat": 4.0417, "lng": -53.162, "id": "269200", "name": "Geophagus", "sprite": "sp-coptodon_louka.png", "group": "cichlid", "rarity": 1}, {"lat": 5.5428, "lng": -52.1974, "id": "570987", "name": "Arcobacter", "sprite": "sp-anchoviella_juruasanga.png", "group": "other", "rarity": 1}, {"lat": 5.5441, "lng": -52.8518, "id": "564201", "name": "Opitutaceae", "sprite": "sp-anchoviella_juruasanga.png", "group": "other", "rarity": 1}, {"lat": 5.4793, "lng": -52.0201, "id": "275995", "name": "Naked sole", "thumb": "tn_Gynud_u7.jpg", "sprite": "sp-atlantic_halibut.png", "group": "flatfish", "rarity": 1, "waterType": "Saltwater"}, {"lat": 4.5869, "lng": -52.279, "id": "282263", "name": "Bloch's catfish", "thumb": "tn_Piblo_u1.jpg", "sprite": "sp-blue_catfish.png", "group": "catfish", "rarity": 1, "waterType": "Brackish"}, {"lat": 4.9003, "lng": -52.1469, "id": "149018", "name": "Diploneis", "sprite": "sp-anchoviella_juruasanga.png", "group": "other", "rarity": 1}, {"lat": 5.0122, "lng": -52.4566, "id": "276091", "name": "Smalltooth weakfish", "thumb": "tn_Cyste_u0.jpg", "sprite": "sp-anchoviella_juruasanga.png", "group": "other", "rarity": 1, "waterType": "Brackish"}, {"lat": 4.9912, "lng": -52.2695, "id": "667189", "name": "Navicula biblos", "sprite": "sp-anchoviella_juruasanga.png", "group": "other", "rarity": 1}, {"lat": 5.5437, "lng": -52.6337, "id": "569927", "name": "Nitrosomonas", "sprite": "sp-anchoviella_juruasanga.png", "group": "other", "rarity": 1}, {"lat": 4.9778, "lng": -52.3856, "id": "282496", "name": "Wingfin anchovy", "thumb": "tn_Ptath_u0.jpg", "sprite": "sp-anchoviella_juruasanga.png", "group": "anchovy", "rarity": 1, "waterType": "Brackish"}, {"lat": 5.3833, "lng": -52.445, "id": "159702", "name": "Chaetodipterus", "sprite": "sp-anchoviella_juruasanga.png", "group": "other", "rarity": 1}, {"lat": 5.5428, "lng": -52.1974, "id": "571203", "name": "Methylocella", "sprite": "sp-anchoviella_juruasanga.png", "group": "other", "rarity": 1}, {"lat": 4.4904, "lng": -51.243, "id": "158784", "name": "Atlantic midshipman", "thumb": "tn_Pople_u6.jpg", "sprite": "sp-anchoviella_juruasanga.png", "group": "other", "rarity": 1, "waterType": "Saltwater"}, {"lat": 5.1152, "lng": -52.2571, "id": "277287", "name": "American coastal pellona", "thumb": "tn_Pehar_u3.jpg", "sprite": "sp-anchoviella_juruasanga.png", "group": "other", "rarity": 1, "waterType": "Brackish"}, {"lat": 5.2451, "lng": -51.7133, "id": "213331", "name": "Tropiometra carinata", "sprite": "sp-sea_cucumber.png", "group": "starfish", "rarity": 1}, {"lat": 5.5438, "lng": -52.6882, "id": "564176", "name": "Opitutae", "sprite": "sp-anchoviella_juruasanga.png", "group": "other", "rarity": 1}]}