{"zoom": 7, "x": 45, "y": 92, "points": [{"lat": -62.1443, "lng": -51.9001, "id": "212639", "name": "Thalassoica antarctica", "sprite": "sp-anchoviella_juruasanga.png", "group": "other", "rarity": 1}, {"lat": -61.765, "lng": -51.8267, "id": "178005", "name": "Glabraster antarctica", "sprite": "sp-sea_cucumber.png", "group": "starfish", "rarity": 1}, {"lat": -62.0344, "lng": -53.2719, "id": "344712", "name": "Oithona frigida", "sprite": "sp-anchoviella_juruasanga.png", "group": "other", "rarity": 1}, {"lat": -61.8345, "lng": -53.2333, "id": "266545", "name": "Salpa thompsoni", "sprite": "sp-anchoviella_juruasanga.png", "group": "other", "rarity": 1}, {"lat": -62.0, "lng": -53.0, "id": "341296", "name": "Cymatocylis", "sprite": "sp-anchoviella_juruasanga.png", "group": "other", "rarity": 1}, {"lat": -62.2866, "lng": -52.5779, "id": "136159", "name": "Anarthruridae", "sprite": "sp-american_lobster.png", "group": "crab_lobster", "rarity": 1}, {"lat": -62.4344, "lng": -53.3493, "id": "104103", "name": "Scolecitrichidae", "sprite": "sp-anchoviella_juruasanga.png", "group": "other", "rarity": 1}, {"lat": -62.1036, "lng": -52.596, "id": "137092", "name": "Megaptera novaeangliae", "sprite": "sp-blue_whale.png", "group": "whale", "rarity": 1}, {"lat": -62.802, "lng": -52.768, "id": "137233", "name": "Salpa", "sprite": "sp-anchoviella_juruasanga.png", "group": "other", "rarity": 1}, {"lat": -62.7727, "lng": -53.0583, "id": "132127", "name": "Rossella", "sprite": "sp-barrel_sponge.png", "group": "sponge", "rarity": 1}, {"lat": -62.802, "lng": -52.768, "id": "105416", "name": "Eukrohnia hamata", "sprite": "sp-anchoviella_juruasanga.png", "group": "other", "rarity": 1}, {"lat": -62.3492, "lng": -51.4883, "id": "172769", "name": "Acodontaster elongatus", "sprite": "sp-sea_cucumber.png", "group": "starfish", "rarity": 1}, {"lat": -62.3384, "lng": -52.6171, "id": "236217", "name": "Euphausia superba", "sprite": "sp-antarctic_krill.png", "group": "shrimp", "rarity": 1}, {"lat": -62.1199, "lng": -51.9001, "id": "137190", "name": "Oceanites oceanicus", "sprite": "sp-anchoviella_juruasanga.png", "group": "other", "rarity": 1}, {"lat": -61.8345, "lng": -53.2333, "id": "237719", "name": "Eusirus antarcticus", "sprite": "sp-american_lobster.png", "group": "crab_lobster", "rarity": 1}, {"lat": -62.802, "lng": -52.768, "id": "140223", "name": "Limacina helicina", "sprite": "sp-cowrie_shell.png", "group": "sea_snail", "rarity": 1}, {"lat": -62.1027, "lng": -51.6612, "id": "212640", "name": "Daption capense", "sprite": "sp-anchoviella_juruasanga.png", "group": "other", "rarity": 1}, {"lat": -62.7783, "lng": -53.0428, "id": "172857", "name": "Ampharete kerguelensis", "sprite": "sp-anchoviella_juruasanga.png", "group": "other", "rarity": 1}, {"lat": -61.765, "lng": -51.8267, "id": "178097", "name": "Cladaster analogus", "sprite": "sp-sea_cucumber.png", "group": "starfish", "rarity": 1}, {"lat": -61.8345, "lng": -53.2333, "id": "129715", "name": "Tomopteris", "sprite": "sp-anchoviella_juruasanga.png", "group": "other", "rarity": 1}, {"lat": -62.802, "lng": -52.768, "id": "103357", "name": "Appendicularia", "sprite": "sp-anchoviella_juruasanga.png", "group": "other", "rarity": 1}, {"lat": -61.9625, "lng": -51.9833, "id": "149288", "name": "Chaetoceros atlanticus", "sprite": "sp-anchoviella_juruasanga.png", "group": "other", "rarity": 1}, {"lat": -61.8345, "lng": -53.2333, "id": "127544", "name": "Loricoecia", "sprite": "sp-anchoviella_juruasanga.png", "group": "other", "rarity": 1}, {"lat": -62.7783, "lng": -53.0428, "id": "174891", "name": "Sphaerosyllis joinvillensis", "sprite": "sp-anchoviella_juruasanga.png", "group": "other", "rarity": 1}, {"lat": -62.802, "lng": -52.768, "id": "135333", "name": "Calycophorae", "sprite": "sp-anchoviella_juruasanga.png", "group": "other", "rarity": 1}, {"lat": -62.802, "lng": -52.768, "id": "325383", "name": "Hyperiella dilatata", "sprite": "sp-american_lobster.png", "group": "crab_lobster", "rarity": 1}, {"lat": -62.0917, "lng": -52.0834, "id": "344020", "name": "Aphrodroma brevirostris", "sprite": "sp-anchoviella_juruasanga.png", "group": "other", "rarity": 1}, {"lat": -62.233, "lng": -51.167, "id": "212631", "name": "Phoebetria palpebrata", "sprite": "sp-anchoviella_juruasanga.png", "group": "other", "rarity": 1}, {"lat": -62.2926, "lng": -52.5968, "id": "136209", "name": "Filitanais", "sprite": "sp-american_lobster.png", "group": "crab_lobster", "rarity": 1}, {"lat": -62.7727, "lng": -53.0583, "id": "172101", "name": "Rossella nuda", "sprite": "sp-barrel_sponge.png", "group": "sponge", "rarity": 1}, {"lat": -62.4344, "lng": -53.3493, "id": "103358", "name": "Fritillaria", "sprite": "sp-anchoviella_juruasanga.png", "group": "other", "rarity": 1}, {"lat": -62.0833, "lng": -53.3833, "id": "167428", "name": "Iophon unicorne", "sprite": "sp-barrel_sponge.png", "group": "sponge", "rarity": 1}, {"lat": -61.9625, "lng": -51.9833, "id": "341540", "name": "Thalassiothrix antarctica", "sprite": "sp-anchoviella_juruasanga.png", "group": "other", "rarity": 1}, {"lat": -62.1018, "lng": -51.863, "id": "212638", "name": "Fulmarus glacialoides", "sprite": "sp-anchoviella_juruasanga.png", "group": "other", "rarity": 1}, {"lat": -62.7783, "lng": -53.0428, "id": "174855", "name": "Syllides articulosus", "sprite": "sp-anchoviella_juruasanga.png", "group": "other", "rarity": 1}, {"lat": -62.7783, "lng": -53.0428, "id": "817988", "name": "Eusyllis maxima", "sprite": "sp-anchoviella_juruasanga.png", "group": "other", "rarity": 1}, {"lat": -62.4344, "lng": -53.3493, "id": "129150", "name": "Vanadis", "sprite": "sp-anchoviella_juruasanga.png", "group": "other", "rarity": 1}, {"lat": -62.767, "lng": -51.233, "id": "174405", "name": "Austrolaenilla hastulifera", "sprite": "sp-anchoviella_juruasanga.png", "group": "other", "rarity": 1}, {"lat": -62.1825, "lng": -51.6034, "id": "172715", "name": "Bathybiaster loripes", "sprite": "sp-sea_cucumber.png", "group": "starfish", "rarity": 1}, {"lat": -61.7003, "lng": -52.688, "id": "225760", "name": "Thalassarche chrysostoma", "sprite": "sp-anchoviella_juruasanga.png", "group": "other", "rarity": 1}, {"lat": -61.6967, "lng": -50.9683, "id": "172700", "name": "Smilasterias scalprifera", "sprite": "sp-sea_cucumber.png", "group": "starfish", "rarity": 1}, {"lat": -61.6967, "lng": -50.9683, "id": "123276", "name": "Henricia", "sprite": "sp-sea_cucumber.png", "group": "starfish", "rarity": 1}, {"lat": -61.9813, "lng": -51.9916, "id": "236218", "name": "Euphausia frigida", "sprite": "sp-antarctic_krill.png", "group": "shrimp", "rarity": 1}, {"lat": -62.7783, "lng": -53.0428, "id": "598657", "name": "Axiokebuita minuta", "sprite": "sp-anchoviella_juruasanga.png", "group": "other", "rarity": 1}, {"lat": -62.0567, "lng": -51.6317, "id": "178790", "name": "Diplasterias brandti", "sprite": "sp-sea_cucumber.png", "group": "starfish", "rarity": 1}, {"lat": -62.0983, "lng": -51.8333, "id": "136205", "name": "Akanthophoreus", "sprite": "sp-american_lobster.png", "group": "crab_lobster", "rarity": 1}, {"lat": -61.8345, "lng": -53.2333, "id": "135365", "name": "Lensia", "sprite": "sp-anchoviella_juruasanga.png", "group": "other", "rarity": 1}, {"lat": -62.7788, "lng": -53.0428, "id": "411068", "name": "Holodentata caeca", "sprite": "sp-american_lobster.png", "group": "crab_lobster", "rarity": 1}, {"lat": -62.2866, "lng": -50.7892, "id": "136219", "name": "Subulella", "sprite": "sp-american_lobster.png", "group": "crab_lobster", "rarity": 1}, {"lat": -62.2771, "lng": -52.894, "id": "110679", "name": "Thysanoessa", "sprite": "sp-antarctic_krill.png", "group": "shrimp", "rarity": 1}, {"lat": -62.802, "lng": -52.768, "id": "266258", "name": "Pseudosagitta gazellae", "sprite": "sp-anchoviella_juruasanga.png", "group": "other", "rarity": 1}, {"lat": -62.7783, "lng": -53.0428, "id": "172923", "name": "Neosabellides elongatus", "sprite": "sp-anchoviella_juruasanga.png", "group": "other", "rarity": 1}, {"lat": -62.2771, "lng": -52.894, "id": "342435", "name": "Calanus propinquus", "sprite": "sp-anchoviella_juruasanga.png", "group": "other", "rarity": 1}, {"lat": -62.233, "lng": -51.167, "id": "225783", "name": "Pygoscelis antarcticus", "sprite": "sp-anchoviella_juruasanga.png", "group": "other", "rarity": 1}, {"lat": -62.802, "lng": -52.768, "id": "13551", "name": "Anthoathecata", "sprite": "sp-anchoviella_juruasanga.png", "group": "other", "rarity": 1}, {"lat": -62.233, "lng": -51.167, "id": "212636", "name": "Macronectes giganteus", "sprite": "sp-anchoviella_juruasanga.png", "group": "other", "rarity": 1}, {"lat": -62.7783, "lng": -53.0428, "id": "130980", "name": "Scalibregma inflatum", "sprite": "sp-anchoviella_juruasanga.png", "group": "other", "rarity": 1}, {"lat": -62.4344, "lng": -53.3493, "id": "1371", "name": "Siphonophorae", "sprite": "sp-anchoviella_juruasanga.png", "group": "other", "rarity": 1}, {"lat": -62.7783, "lng": -53.0428, "id": "174963", "name": "Polycirrus antarcticus", "sprite": "sp-anchoviella_juruasanga.png", "group": "other", "rarity": 1}, {"lat": -62.7666, "lng": -51.2333, "id": "173500", "name": "Nymphon proceroides", "sprite": "sp-anchoviella_juruasanga.png", "group": "other", "rarity": 1}, {"lat": -61.9625, "lng": -51.9833, "id": "148917", "name": "Coscinodiscus", "sprite": "sp-anchoviella_juruasanga.png", "group": "other", "rarity": 1}, {"lat": -62.767, "lng": -51.233, "id": "123561", "name": "Ophiocten", "sprite": "sp-sea_cucumber.png", "group": "starfish", "rarity": 1}, {"lat": -61.9625, "lng": -51.9833, "id": "418468", "name": "Asteromphalus regularis", "sprite": "sp-anchoviella_juruasanga.png", "group": "other", "rarity": 1}, {"lat": -62.7755, "lng": -53.0559, "id": "1308022", "name": "Iolanthe matsi", "sprite": "sp-american_lobster.png", "group": "crab_lobster", "rarity": 1}, {"lat": -62.7783, "lng": -53.0428, "id": "173369", "name": "Glycera kerguelensis", "sprite": "sp-anchoviella_juruasanga.png", "group": "other", "rarity": 1}, {"lat": -61.8345, "lng": -53.2333, "id": "345368", "name": "Triconia antarctica", "sprite": "sp-anchoviella_juruasanga.png", "group": "other", "rarity": 1}, {"lat": -62.7845, "lng": -52.9265, "id": "172467", "name": "Boroecia antipoda", "sprite": "sp-anchoviella_juruasanga.png", "group": "other", "rarity": 1}, {"lat": -62.7727, "lng": -53.0583, "id": "164205", "name": "Amphoriscus gastrorhabdifer", "sprite": "sp-barrel_sponge.png", "group": "sponge", "rarity": 1}, {"lat": -61.6967, "lng": -50.9683, "id": "172792", "name": "Solaster regularis", "sprite": "sp-sea_cucumber.png", "group": "starfish", "rarity": 1}, {"lat": -62.7675, "lng": -51.7177, "id": "101810", "name": "Scina", "sprite": "sp-american_lobster.png", "group": "crab_lobster", "rarity": 1}, {"lat": -62.79, "lng": -52.81, "id": "536012", "name": "Austrinoecia isocheira", "sprite": "sp-anchoviella_juruasanga.png", "group": "other", "rarity": 1}, {"lat": -62.7783, "lng": -53.0428, "id": "756944", "name": "Anguillosyllis palpata", "sprite": "sp-anchoviella_juruasanga.png", "group": "other", "rarity": 1}, {"lat": -61.9625, "lng": -51.9833, "id": "137270", "name": "Salpa aspera", "sprite": "sp-anchoviella_juruasanga.png", "group": "other", "rarity": 1}, {"lat": -61.8772, "lng": -52.8167, "id": "344689", "name": "Metridia gerlachei", "sprite": "sp-anchoviella_juruasanga.png", "group": "other", "rarity": 1}, {"lat": -62.1226, "lng": -52.2375, "id": "850774", "name": "Tanaopsis bamberi", "sprite": "sp-american_lobster.png", "group": "crab_lobster", "rarity": 1}, {"lat": -61.8345, "lng": -53.2333, "id": "104086", "name": "Euchaetidae", "sprite": "sp-anchoviella_juruasanga.png", "group": "other", "rarity": 1}, {"lat": -62.7738, "lng": -53.0622, "id": "472972", "name": "Liljeborgia bathysciarum", "sprite": "sp-american_lobster.png", "group": "crab_lobster", "rarity": 1}, {"lat": -62.1044, "lng": -51.2556, "id": "478753", "name": "Typhlotanais greenwichensis", "sprite": "sp-american_lobster.png", "group": "crab_lobster", "rarity": 1}, {"lat": -62.2911, "lng": -51.6801, "id": "178730", "name": "Ctenodiscus australis", "sprite": "sp-sea_cucumber.png", "group": "starfish", "rarity": 1}, {"lat": -61.7532, "lng": -52.9958, "id": "234788", "name": "Grey rockcod", "thumb": "tn_Lesqu_u1.jpg", "sprite": "sp-anchoviella_juruasanga.png", "group": "other", "rarity": 1, "waterType": "Saltwater"}, {"lat": -61.9625, "lng": -51.9833, "id": "183533", "name": "Tintinnidae", "sprite": "sp-anchoviella_juruasanga.png", "group": "other", "rarity": 1}, {"lat": -62.7727, "lng": -53.0583, "id": "1613681", "name": "Latrunculia (Aciculatrunculia) apicalis", "sprite": "sp-barrel_sponge.png", "group": "sponge", "rarity": 1}, {"lat": -61.8345, "lng": -53.2333, "id": "135420", "name": "Diphyes dispar", "sprite": "sp-anchoviella_juruasanga.png", "group": "other", "rarity": 1}, {"lat": -62.0833, "lng": -51.9, "id": "212649", "name": "Pachyptila desolata", "sprite": "sp-anchoviella_juruasanga.png", "group": "other", "rarity": 1}, {"lat": -62.802, "lng": -52.768, "id": "1080", "name": "Copepoda", "sprite": "sp-anchoviella_juruasanga.png", "group": "other", "rarity": 1}, {"lat": -61.9625, "lng": -51.9833, "id": "109549", "name": "Peridinium", "sprite": "sp-anchoviella_juruasanga.png", "group": "other", "rarity": 1}, {"lat": -62.4079, "lng": -51.1767, "id": "213335", "name": "Ceramaster patagonicus", "sprite": "sp-sea_cucumber.png", "group": "starfish", "rarity": 1}, {"lat": -62.7748, "lng": -53.0583, "id": "247890", "name": "Typhlotanais andeepae", "sprite": "sp-american_lobster.png", "group": "crab_lobster", "rarity": 1}, {"lat": -61.8089, "lng": -51.6294, "id": "172789", "name": "Paralophaster antarcticus", "sprite": "sp-sea_cucumber.png", "group": "starfish", "rarity": 1}, {"lat": -61.6967, "lng": -50.9683, "id": "172748", "name": "Cycethra verrucosa", "sprite": "sp-sea_cucumber.png", "group": "starfish", "rarity": 1}, {"lat": -62.2562, "lng": -52.5779, "id": "244594", "name": "Araphura joubinensis", "sprite": "sp-american_lobster.png", "group": "crab_lobster", "rarity": 1}, {"lat": -62.4344, "lng": -53.3493, "id": "104227", "name": "Racovitzanus", "sprite": "sp-anchoviella_juruasanga.png", "group": "other", "rarity": 1}, {"lat": -62.7845, "lng": -52.9265, "id": "172456", "name": "Alacia hettacra", "sprite": "sp-anchoviella_juruasanga.png", "group": "other", "rarity": 1}, {"lat": -62.7783, "lng": -53.0428, "id": "862615", "name": "Pseudoscalibregma hartmanae", "sprite": "sp-anchoviella_juruasanga.png", "group": "other", "rarity": 1}, {"lat": -62.6522, "lng": -52.4222, "id": "237746", "name": "Eusirus propeperdentatus", "sprite": "sp-american_lobster.png", "group": "crab_lobster", "rarity": 1}, {"lat": -62.802, "lng": -52.768, "id": "2", "name": "Animalia", "sprite": "sp-anchoviella_juruasanga.png", "group": "other", "rarity": 1}, {"lat": -61.7529, "lng": -52.0085, "id": "234734", "name": "Artedidraco mirus", "thumb": "tn_Armir_u3.jpg", "sprite": "sp-anchoviella_juruasanga.png", "group": "other", "rarity": 1, "waterType": "Saltwater"}, {"lat": -61.9625, "lng": -51.9833, "id": "149152", "name": "Pseudo-nitzschia seriata", "sprite": "sp-anchoviella_juruasanga.png", "group": "other", "rarity": 1}, {"lat": -61.74, "lng": -53.0433, "id": "178251", "name": "Cheiraster (Luidiaster) planeta", "sprite": "sp-sea_cucumber.png", "group": "starfish", "rarity": 1}, {"lat": -62.7783, "lng": -53.0428, "id": "477209", "name": "Oligobregma quadrispinosa", "sprite": "sp-anchoviella_juruasanga.png", "group": "other", "rarity": 1}, {"lat": -62.8143, "lng": -51.4344, "id": "325386", "name": "Hyperoche capucinus", "sprite": "sp-american_lobster.png", "group": "crab_lobster", "rarity": 1}, {"lat": -62.78, "lng": -53.04, "id": "155957", "name": "Halocyprida", "sprite": "sp-anchoviella_juruasanga.png", "group": "other", "rarity": 1}, {"lat": -62.775, "lng": -53.058, "id": "196968", "name": "Microdiscula", "sprite": "sp-cowrie_shell.png", "group": "sea_snail", "rarity": 1}, {"lat": -62.7788, "lng": -53.0428, "id": "819353", "name": "Tytthocope longitelson", "sprite": "sp-american_lobster.png", "group": "crab_lobster", "rarity": 1}, {"lat": -62.1504, "lng": -53.1351, "id": "220837", "name": "Rhincalanus gigas", "sprite": "sp-anchoviella_juruasanga.png", "group": "other", "rarity": 1}, {"lat": -62.2344, "lng": -53.3105, "id": "106656", "name": "Oithona similis", "sprite": "sp-anchoviella_juruasanga.png", "group": "other", "rarity": 1}, {"lat": -61.74, "lng": -53.0433, "id": "172780", "name": "Pteraster affinis", "sprite": "sp-sea_cucumber.png", "group": "starfish", "rarity": 1}, {"lat": -62.7748, "lng": -53.0583, "id": "247871", "name": "Pulcherella juraszi", "sprite": "sp-american_lobster.png", "group": "crab_lobster", "rarity": 1}, {"lat": -61.7532, "lng": -52.9958, "id": "843664", "name": "Actinopteri", "sprite": "sp-anchoviella_juruasanga.png", "group": "other", "rarity": 1}, {"lat": -62.7727, "lng": -53.0583, "id": "172104", "name": "Rossella racovitzae", "sprite": "sp-barrel_sponge.png", "group": "sponge", "rarity": 1}, {"lat": -62.085, "lng": -52.3867, "id": "172991", "name": "Apistobranchus glacierae", "sprite": "sp-anchoviella_juruasanga.png", "group": "other", "rarity": 1}, {"lat": -61.9625, "lng": -51.9833, "id": "341480", "name": "Coscinodiscus bouvet", "sprite": "sp-anchoviella_juruasanga.png", "group": "other", "rarity": 1}, {"lat": -62.767, "lng": -51.233, "id": "931", "name": "Phyllodocidae", "sprite": "sp-anchoviella_juruasanga.png", "group": "other", "rarity": 1}, {"lat": -62.78, "lng": -53.04, "id": "127500", "name": "Hemicytheridae", "sprite": "sp-anchoviella_juruasanga.png", "group": "other", "rarity": 1}, {"lat": -61.9006, "lng": -51.8892, "id": "231404", "name": "Arctocephalus gazella", "sprite": "sp-elephant_seal.png", "group": "seal", "rarity": 1}, {"lat": -62.78, "lng": -53.04, "id": "460363", "name": "Macroscapha walterae", "sprite": "sp-anchoviella_juruasanga.png", "group": "other", "rarity": 1}, {"lat": -62.7727, "lng": -53.0583, "id": "134224", "name": "Tentorium semisuberites", "sprite": "sp-barrel_sponge.png", "group": "sponge", "rarity": 1}, {"lat": -62.7788, "lng": -53.0428, "id": "819352", "name": "Tytthocope fahrbachi", "sprite": "sp-american_lobster.png", "group": "crab_lobster", "rarity": 1}, {"lat": -62.8376, "lng": -51.2928, "id": "325406", "name": "Cyllopus lucasii", "sprite": "sp-american_lobster.png", "group": "crab_lobster", "rarity": 1}, {"lat": -62.0833, "lng": -53.3833, "id": "170758", "name": "Homaxinella balfourensis", "sprite": "sp-barrel_sponge.png", "group": "sponge", "rarity": 1}]}