{"zoom": 7, "x": 47, "y": 49, "points": [{"lat": 38.1229, "lng": -46.8396, "id": "104552", "name": "Euchaeta marina", "sprite": "sp-anchoviella_juruasanga.png", "group": "other", "rarity": 1}, {"lat": 37.9017, "lng": -46.3667, "id": "841261", "name": "Tripos massiliensis", "sprite": "sp-anchoviella_juruasanga.png", "group": "other", "rarity": 1}, {"lat": 38.2667, "lng": -47.0333, "id": "140649", "name": "Onychoteuthis banksii", "sprite": "sp-giant_pacific_octopus.png", "group": "octopus_squid", "rarity": 1}, {"lat": 38.0, "lng": -46.0, "id": "124834", "name": "Amphiophiura bullata", "sprite": "sp-sea_cucumber.png", "group": "starfish", "rarity": 1}, {"lat": 37.433, "lng": -45.233, "id": "181286", "name": "Parvamussium", "sprite": "sp-blue_mussel.png", "group": "clam_mussel", "rarity": 1}, {"lat": 38.4239, "lng": -46.4445, "id": "136980", "name": "Delphinidae", "sprite": "sp-bottlenose_dolphin.png", "group": "dolphin", "rarity": 1}, {"lat": 36.6583, "lng": -47.6033, "id": "148912", "name": "Thalassiosira", "sprite": "sp-anchoviella_juruasanga.png", "group": "other", "rarity": 1}, {"lat": 37.686, "lng": -46.1727, "id": "104469", "name": "Nannocalanus minor", "sprite": "sp-anchoviella_juruasanga.png", "group": "other", "rarity": 1}, {"lat": 36.783, "lng": -46.517, "id": "129765", "name": "Vanadis formosa", "sprite": "sp-anchoviella_juruasanga.png", "group": "other", "rarity": 1}, {"lat": 37.1267, "lng": -45.55, "id": "104108", "name": "Acartia", "sprite": "sp-anchoviella_juruasanga.png", "group": "other", "rarity": 1}, {"lat": 37.7867, "lng": -46.8131, "id": "596242", "name": "Pleuromamma abdominalis abdominalis", "sprite": "sp-anchoviella_juruasanga.png", "group": "other", "rarity": 1}, {"lat": 37.4117, "lng": -45.8422, "id": "495363", "name": "Tripos muelleri", "sprite": "sp-anchoviella_juruasanga.png", "group": "other", "rarity": 1}, {"lat": 37.1117, "lng": -45.6067, "id": "1207", "name": "Gammaridea", "sprite": "sp-american_lobster.png", "group": "crab_lobster", "rarity": 1}, {"lat": 38.6285, "lng": -47.456, "id": "146421", "name": "Appendicularia", "sprite": "sp-anchoviella_juruasanga.png", "group": "other", "rarity": 1}, {"lat": 37.3172, "lng": -45.7434, "id": "10194", "name": "Actinopterygii", "sprite": "sp-anchoviella_juruasanga.png", "group": "other", "rarity": 1}, {"lat": 37.2033, "lng": -45.2067, "id": "106087", "name": "Lepas", "sprite": "sp-anchoviella_juruasanga.png", "group": "other", "rarity": 1}, {"lat": 38.0346, "lng": -46.8562, "id": "128690", "name": "Oncaea", "sprite": "sp-anchoviella_juruasanga.png", "group": "other", "rarity": 1}, {"lat": 37.4067, "lng": -45.4433, "id": "841259", "name": "Tripos longipes", "sprite": "sp-anchoviella_juruasanga.png", "group": "other", "rarity": 1}, {"lat": 37.7885, "lng": -46.2974, "id": "137205", "name": "Caretta caretta", "sprite": "sp-green_sea_turtle.png", "group": "sea_turtle", "rarity": 1}, {"lat": 38.815, "lng": -47.102, "id": "109553", "name": "Protoperidinium", "sprite": "sp-anchoviella_juruasanga.png", "group": "other", "rarity": 1}, {"lat": 38.5425, "lng": -47.0725, "id": "127094", "name": "Swordfish", "thumb": "tn_Xigla_u5.jpg", "sprite": "sp-blue_marlin.png", "group": "swordfish", "rarity": 1, "waterType": "Saltwater"}, {"lat": 37.9017, "lng": -46.3667, "id": "104473", "name": "Undinula vulgaris", "sprite": "sp-anchoviella_juruasanga.png", "group": "other", "rarity": 1}, {"lat": 37.5342, "lng": -45.65, "id": "840626", "name": "Tripos fusus", "sprite": "sp-anchoviella_juruasanga.png", "group": "other", "rarity": 1}, {"lat": 37.0467, "lng": -45.3267, "id": "109509", "name": "Cladopyxis", "sprite": "sp-anchoviella_juruasanga.png", "group": "other", "rarity": 1}, {"lat": 37.9833, "lng": -45.3333, "id": "1348497", "name": "Calonectris borealis", "sprite": "sp-anchoviella_juruasanga.png", "group": "other", "rarity": 1}, {"lat": 37.9, "lng": -46.7833, "id": "125620", "name": "Anguilla", "sprite": "sp-electric_eel.png", "group": "eel", "rarity": 1}, {"lat": 38.5277, "lng": -47.4382, "id": "2688", "name": "Cetacea", "sprite": "sp-anchoviella_juruasanga.png", "group": "other", "rarity": 1}, {"lat": 36.8467, "lng": -45.6567, "id": "128722", "name": "Sapphirina", "sprite": "sp-anchoviella_juruasanga.png", "group": "other", "rarity": 1}, {"lat": 38.4437, "lng": -45.3376, "id": "2", "name": "Animalia", "sprite": "sp-anchoviella_juruasanga.png", "group": "other", "rarity": 1}, {"lat": 36.783, "lng": -46.517, "id": "155459", "name": "Sagitella kowalewskii", "sprite": "sp-anchoviella_juruasanga.png", "group": "other", "rarity": 1}, {"lat": 37.9017, "lng": -46.3667, "id": "149093", "name": "Thalassionema nitzschioides", "sprite": "sp-anchoviella_juruasanga.png", "group": "other", "rarity": 1}, {"lat": 38.815, "lng": -47.102, "id": "1381154", "name": "Tripos teres", "sprite": "sp-anchoviella_juruasanga.png", "group": "other", "rarity": 1}, {"lat": 36.8467, "lng": -45.6567, "id": "104464", "name": "Calanus finmarchicus", "sprite": "sp-anchoviella_juruasanga.png", "group": "other", "rarity": 1}, {"lat": 37.1125, "lng": -45.6067, "id": "1078", "name": "Ostracoda", "sprite": "sp-anchoviella_juruasanga.png", "group": "other", "rarity": 1}, {"lat": 36.7947, "lng": -45.9931, "id": "126852", "name": "Marlin sucker", "thumb": "tn_Reost_u3.jpg", "sprite": "sp-anchoviella_juruasanga.png", "group": "other", "rarity": 1, "waterType": "Saltwater"}, {"lat": 36.783, "lng": -46.517, "id": "416504", "name": "Rhynchonereella angelini", "sprite": "sp-anchoviella_juruasanga.png", "group": "other", "rarity": 1}, {"lat": 37.4067, "lng": -45.4433, "id": "106485", "name": "Oithona", "sprite": "sp-anchoviella_juruasanga.png", "group": "other", "rarity": 1}, {"lat": 37.7817, "lng": -46.7583, "id": "104275", "name": "Aetideus armatus", "sprite": "sp-anchoviella_juruasanga.png", "group": "other", "rarity": 1}, {"lat": 37.3453, "lng": -45.9722, "id": "104152", "name": "Calanus", "sprite": "sp-anchoviella_juruasanga.png", "group": "other", "rarity": 1}, {"lat": 37.9017, "lng": -46.3667, "id": "104471", "name": "Neocalanus gracilis", "sprite": "sp-anchoviella_juruasanga.png", "group": "other", "rarity": 1}, {"lat": 38.2667, "lng": -47.0333, "id": "51", "name": "Mollusca", "sprite": "sp-anchoviella_juruasanga.png", "group": "other", "rarity": 1}, {"lat": 38.73, "lng": -47.28, "id": "137209", "name": "Dermochelys coriacea", "sprite": "sp-green_sea_turtle.png", "group": "sea_turtle", "rarity": 1}, {"lat": 38.815, "lng": -47.102, "id": "220914", "name": "Candacia simplex", "sprite": "sp-anchoviella_juruasanga.png", "group": "other", "rarity": 1}, {"lat": 38.0217, "lng": -45.9733, "id": "104193", "name": "Calocalanus", "sprite": "sp-anchoviella_juruasanga.png", "group": "other", "rarity": 1}, {"lat": 37.8275, "lng": -46.9544, "id": "104821", "name": "Scolecithrix danae", "sprite": "sp-anchoviella_juruasanga.png", "group": "other", "rarity": 1}, {"lat": 38.3333, "lng": -45.6, "id": "137051", "name": "Stercorarius", "sprite": "sp-anchoviella_juruasanga.png", "group": "other", "rarity": 1}, {"lat": 37.9833, "lng": -45.3333, "id": "232052", "name": "Larus michahellis", "sprite": "sp-anchoviella_juruasanga.png", "group": "other", "rarity": 1}, {"lat": 37.62, "lng": -46.57, "id": "137165", "name": "Sterna paradisaea", "sprite": "sp-anchoviella_juruasanga.png", "group": "other", "rarity": 1}, {"lat": 37.2867, "lng": -45.8333, "id": "850801", "name": "Metridia lucens lucens", "sprite": "sp-anchoviella_juruasanga.png", "group": "other", "rarity": 1}, {"lat": 38.0, "lng": -46.0, "id": "273823", "name": "Pacific bluefin tuna", "thumb": "tn_Thori_u1.gif", "sprite": "sp-bluefin_tuna.png", "group": "tuna_mackerel", "rarity": 1, "waterType": "Brackish"}, {"lat": 37.3305, "lng": -45.6, "id": "1100", "name": "Calanoida", "sprite": "sp-anchoviella_juruasanga.png", "group": "other", "rarity": 1}, {"lat": 37.3467, "lng": -45.6383, "id": "841260", "name": "Tripos macroceros", "sprite": "sp-anchoviella_juruasanga.png", "group": "other", "rarity": 1}, {"lat": 37.1267, "lng": -45.55, "id": "104161", "name": "Clausocalanus", "sprite": "sp-anchoviella_juruasanga.png", "group": "other", "rarity": 1}, {"lat": 37.4016, "lng": -46.5797, "id": "104183", "name": "Lucicutia", "sprite": "sp-anchoviella_juruasanga.png", "group": "other", "rarity": 1}, {"lat": 38.1719, "lng": -47.0884, "id": "883", "name": "Polychaeta", "sprite": "sp-anchoviella_juruasanga.png", "group": "other", "rarity": 1}, {"lat": 37.6633, "lng": -47.15, "id": "129715", "name": "Tomopteris", "sprite": "sp-anchoviella_juruasanga.png", "group": "other", "rarity": 1}, {"lat": 38.75, "lng": -47.46, "id": "127026", "name": "Albacore", "thumb": "tn_Thala_u4.jpg", "sprite": "sp-bluefin_tuna.png", "group": "tuna_mackerel", "rarity": 1, "waterType": "Saltwater"}, {"lat": 37.1575, "lng": -45.4067, "id": "104343", "name": "Undeuchaeta plumosa", "sprite": "sp-anchoviella_juruasanga.png", "group": "other", "rarity": 1}, {"lat": 38.815, "lng": -47.102, "id": "104640", "name": "Pleuromamma piseki", "sprite": "sp-anchoviella_juruasanga.png", "group": "other", "rarity": 1}, {"lat": 37.3145, "lng": -46.1961, "id": "2081", "name": "Chaetognatha", "sprite": "sp-anchoviella_juruasanga.png", "group": "other", "rarity": 1}, {"lat": 38.815, "lng": -47.102, "id": "104191", "name": "Pleuromamma", "sprite": "sp-anchoviella_juruasanga.png", "group": "other", "rarity": 1}, {"lat": 38.2668, "lng": -47.484, "id": "104638", "name": "Pleuromamma borealis", "sprite": "sp-anchoviella_juruasanga.png", "group": "other", "rarity": 1}, {"lat": 37.433, "lng": -45.233, "id": "140714", "name": "Propeamussium lucidum", "sprite": "sp-blue_mussel.png", "group": "clam_mussel", "rarity": 1}, {"lat": 37.3253, "lng": -46.1698, "id": "1205", "name": "Hyperiidea", "sprite": "sp-american_lobster.png", "group": "crab_lobster", "rarity": 1}, {"lat": 38.5717, "lng": -47.3175, "id": "137091", "name": "Balaenoptera physalus", "sprite": "sp-blue_whale.png", "group": "whale", "rarity": 1}, {"lat": 36.9667, "lng": -45.5917, "id": "275872", "name": "Whiptail ribbonfish", "sprite": "sp-anchoviella_juruasanga.png", "group": "other", "rarity": 1, "waterType": "Saltwater"}, {"lat": 38.0, "lng": -46.0, "id": "103847", "name": "Minipera papillosa", "sprite": "sp-anchoviella_juruasanga.png", "group": "other", "rarity": 1}, {"lat": 38.815, "lng": -47.102, "id": "163261", "name": "Lauderia mediterranea", "sprite": "sp-anchoviella_juruasanga.png", "group": "other", "rarity": 1}, {"lat": 36.6, "lng": -47.466, "id": "159129", "name": "Dicrolene", "sprite": "sp-anchoviella_juruasanga.png", "group": "other", "rarity": 1}, {"lat": 37.2867, "lng": -45.8333, "id": "149629", "name": "Rhizosolenia styliformis", "sprite": "sp-anchoviella_juruasanga.png", "group": "other", "rarity": 1}, {"lat": 37.6725, "lng": -45.3934, "id": "128634", "name": "Corycaeus", "sprite": "sp-anchoviella_juruasanga.png", "group": "other", "rarity": 1}, {"lat": 38.4783, "lng": -46.341, "id": "1080", "name": "Copepoda", "sprite": "sp-anchoviella_juruasanga.png", "group": "other", "rarity": 1}, {"lat": 37.9345, "lng": -46.1129, "id": "1130", "name": "Decapoda", "sprite": "sp-american_lobster.png", "group": "crab_lobster", "rarity": 1}, {"lat": 37.2179, "lng": -46.0299, "id": "1128", "name": "Euphausiacea", "sprite": "sp-antarctic_krill.png", "group": "shrimp", "rarity": 1}, {"lat": 36.783, "lng": -46.517, "id": "106656", "name": "Oithona similis", "sprite": "sp-anchoviella_juruasanga.png", "group": "other", "rarity": 1}, {"lat": 36.783, "lng": -46.517, "id": "104879", "name": "Temora stylifera", "sprite": "sp-anchoviella_juruasanga.png", "group": "other", "rarity": 1}, {"lat": 38.5425, "lng": -47.0725, "id": "127027", "name": "Yellowfin tuna", "thumb": "tn_Thalb_u0.jpg", "sprite": "sp-bluefin_tuna.png", "group": "tuna_mackerel", "rarity": 1, "waterType": "Brackish"}, {"lat": 38.5229, "lng": -47.4527, "id": "137094", "name": "Delphinus delphis", "sprite": "sp-bottlenose_dolphin.png", "group": "dolphin", "rarity": 1}, {"lat": 37.7863, "lng": -46.0553, "id": "157083", "name": "Thalassiothrix longissima", "sprite": "sp-anchoviella_juruasanga.png", "group": "other", "rarity": 1}, {"lat": 38.815, "lng": -47.102, "id": "1102", "name": "Harpacticoida", "sprite": "sp-anchoviella_juruasanga.png", "group": "other", "rarity": 1}, {"lat": 37.9017, "lng": -46.3667, "id": "163030", "name": "Phaeoceros", "sprite": "sp-anchoviella_juruasanga.png", "group": "other", "rarity": 1}, {"lat": 37.4067, "lng": -45.4433, "id": "11707", "name": "Cephalopoda", "sprite": "sp-giant_pacific_octopus.png", "group": "octopus_squid", "rarity": 1}, {"lat": 37.5941, "lng": -46.4835, "id": "137119", "name": "Physeter macrocephalus", "sprite": "sp-blue_whale.png", "group": "whale", "rarity": 1}, {"lat": 37.4067, "lng": -45.4433, "id": "837448", "name": "Tripos carriensis", "sprite": "sp-anchoviella_juruasanga.png", "group": "other", "rarity": 1}, {"lat": 38.0217, "lng": -45.9733, "id": "370366", "name": "Chaetoceros (Hyalochaete)", "sprite": "sp-anchoviella_juruasanga.png", "group": "other", "rarity": 1}, {"lat": 37.4447, "lng": -46.1575, "id": "1436445", "name": "Pleuromamma gracilis gracilis", "sprite": "sp-anchoviella_juruasanga.png", "group": "other", "rarity": 1}, {"lat": 38.5206, "lng": -47.4583, "id": "137090", "name": "Balaenoptera musculus", "sprite": "sp-blue_whale.png", "group": "whale", "rarity": 1}]}