{"zoom": 7, "x": 47, "y": 51, "points": [{"lat": 31.9608, "lng": -47.3675, "id": "126604", "name": "Reinhardt's lantern fish", "thumb": "tn_Larei_u1.gif", "sprite": "sp-anchoviella_juruasanga.png", "group": "other", "rarity": 1, "waterType": "Saltwater"}, {"lat": 33.2036, "lng": -46.3493, "id": "104152", "name": "Calanus", "sprite": "sp-anchoviella_juruasanga.png", "group": "other", "rarity": 1}, {"lat": 31.9654, "lng": -47.3377, "id": "127798", "name": "Loricoecia loricata", "sprite": "sp-anchoviella_juruasanga.png", "group": "other", "rarity": 1}, {"lat": 31.9608, "lng": -47.3675, "id": "128957", "name": "Triconia conifera", "sprite": "sp-anchoviella_juruasanga.png", "group": "other", "rarity": 1}, {"lat": 31.97, "lng": -47.308, "id": "127857", "name": "Proceroecia brachyaskos", "sprite": "sp-anchoviella_juruasanga.png", "group": "other", "rarity": 1}, {"lat": 31.9608, "lng": -47.3675, "id": "107097", "name": "Gennadas tinayrei", "sprite": "sp-american_lobster.png", "group": "crab_lobster", "rarity": 1}, {"lat": 31.9608, "lng": -47.3675, "id": "110699", "name": "Stylocheiron abbreviatum", "sprite": "sp-antarctic_krill.png", "group": "shrimp", "rarity": 1}, {"lat": 33.1339, "lng": -46.7367, "id": "104616", "name": "Mecynocera clausi", "sprite": "sp-anchoviella_juruasanga.png", "group": "other", "rarity": 1}, {"lat": 33.1864, "lng": -46.5797, "id": "104469", "name": "Nannocalanus minor", "sprite": "sp-anchoviella_juruasanga.png", "group": "other", "rarity": 1}, {"lat": 32.3167, "lng": -47.65, "id": "158562", "name": "American eel", "thumb": "tn_Anros_u1.jpg", "sprite": "sp-electric_eel.png", "group": "eel", "rarity": 1, "waterType": "Brackish"}, {"lat": 31.9608, "lng": -47.3675, "id": "127275", "name": "Scopeloberyx opisthopterus", "thumb": "tn_Scopi_u0.gif", "sprite": "sp-anchoviella_juruasanga.png", "group": "other", "rarity": 1, "waterType": "Saltwater"}, {"lat": 31.9608, "lng": -47.3675, "id": "126194", "name": "Vinciguerria", "sprite": "sp-anchoviella_juruasanga.png", "group": "other", "rarity": 1}, {"lat": 31.9654, "lng": -47.3377, "id": "127861", "name": "Proceroecia procera", "sprite": "sp-anchoviella_juruasanga.png", "group": "other", "rarity": 1}, {"lat": 31.9608, "lng": -47.3675, "id": "126748", "name": "Schnakenbeck's searsid", "thumb": "tn_Sasch_u1.gif", "sprite": "sp-anchoviella_juruasanga.png", "group": "other", "rarity": 1, "waterType": "Saltwater"}, {"lat": 33.065, "lng": -47.125, "id": "837460", "name": "Tripos extensus", "sprite": "sp-anchoviella_juruasanga.png", "group": "other", "rarity": 1}, {"lat": 31.9654, "lng": -47.3377, "id": "127829", "name": "Orthoconchoecia atlantica", "sprite": "sp-anchoviella_juruasanga.png", "group": "other", "rarity": 1}, {"lat": 31.9654, "lng": -47.3377, "id": "127768", "name": "Conchoecetta acuminata", "sprite": "sp-anchoviella_juruasanga.png", "group": "other", "rarity": 1}, {"lat": 31.9608, "lng": -47.3675, "id": "126602", "name": "Benoit's lanternfish", "thumb": "tn_Hyben_m0.jpg", "sprite": "sp-anchoviella_juruasanga.png", "group": "other", "rarity": 1, "waterType": "Saltwater"}, {"lat": 31.9608, "lng": -47.3675, "id": "126181", "name": "Melamphaes", "sprite": "sp-anchoviella_juruasanga.png", "group": "other", "rarity": 1}, {"lat": 31.9608, "lng": -47.3675, "id": "119921", "name": "Eucopia unguiculata", "sprite": "sp-american_lobster.png", "group": "crab_lobster", "rarity": 1}, {"lat": 33.226, "lng": -46.393, "id": "840626", "name": "Tripos fusus", "sprite": "sp-anchoviella_juruasanga.png", "group": "other", "rarity": 1}, {"lat": 31.9608, "lng": -47.3675, "id": "126581", "name": "Smallfin lanternfish", "thumb": "tn_Besub_u1.gif", "sprite": "sp-anchoviella_juruasanga.png", "group": "other", "rarity": 1, "waterType": "Saltwater"}, {"lat": 31.97, "lng": -47.308, "id": "127543", "name": "Halocypris", "sprite": "sp-anchoviella_juruasanga.png", "group": "other", "rarity": 1}, {"lat": 33.53, "lng": -45.405, "id": "104500", "name": "Centropages violaceus", "sprite": "sp-anchoviella_juruasanga.png", "group": "other", "rarity": 1}, {"lat": 31.9608, "lng": -47.3675, "id": "106829", "name": "Sergestes", "sprite": "sp-american_lobster.png", "group": "crab_lobster", "rarity": 1}, {"lat": 33.162, "lng": -46.582, "id": "104108", "name": "Acartia", "sprite": "sp-anchoviella_juruasanga.png", "group": "other", "rarity": 1}, {"lat": 31.97, "lng": -47.308, "id": "127795", "name": "Halocypris pelagica", "sprite": "sp-anchoviella_juruasanga.png", "group": "other", "rarity": 1}, {"lat": 31.9654, "lng": -47.3377, "id": "127830", "name": "Orthoconchoecia bispinosa", "sprite": "sp-anchoviella_juruasanga.png", "group": "other", "rarity": 1}, {"lat": 33.717, "lng": -47.75, "id": "514136", "name": "Parasergestes armatus", "sprite": "sp-american_lobster.png", "group": "crab_lobster", "rarity": 1}, {"lat": 33.0167, "lng": -47.7, "id": "125620", "name": "Anguilla", "sprite": "sp-electric_eel.png", "group": "eel", "rarity": 1}, {"lat": 31.9608, "lng": -47.3675, "id": "107098", "name": "Gennadas valens", "sprite": "sp-american_lobster.png", "group": "crab_lobster", "rarity": 1}, {"lat": 31.9608, "lng": -47.3675, "id": "135403", "name": "Abylopsis tetragona", "sprite": "sp-anchoviella_juruasanga.png", "group": "other", "rarity": 1}, {"lat": 33.2216, "lng": -46.6525, "id": "128722", "name": "Sapphirina", "sprite": "sp-anchoviella_juruasanga.png", "group": "other", "rarity": 1}, {"lat": 31.9608, "lng": -47.3675, "id": "125683", "name": "Scopelarchus", "sprite": "sp-anchoviella_juruasanga.png", "group": "other", "rarity": 1}, {"lat": 31.9608, "lng": -47.3675, "id": "135417", "name": "Chelophyes appendiculata", "sprite": "sp-anchoviella_juruasanga.png", "group": "other", "rarity": 1}, {"lat": 31.9608, "lng": -47.3675, "id": "135406", "name": "Ceratocymba sagittata", "sprite": "sp-anchoviella_juruasanga.png", "group": "other", "rarity": 1}, {"lat": 31.9608, "lng": -47.3675, "id": "127354", "name": "Ribbon sawtail fish", "thumb": "tn_Idfas_u1.jpg", "sprite": "sp-anchoviella_juruasanga.png", "group": "other", "rarity": 1, "waterType": "Saltwater"}, {"lat": 33.2125, "lng": -46.5004, "id": "128690", "name": "Oncaea", "sprite": "sp-anchoviella_juruasanga.png", "group": "other", "rarity": 1}, {"lat": 31.9608, "lng": -47.3675, "id": "127372", "name": "Photostomias guernei", "thumb": "tn_Phgue_u0.jpg", "sprite": "sp-anchoviella_juruasanga.png", "group": "other", "rarity": 1, "waterType": "Saltwater"}, {"lat": 33.065, "lng": -47.125, "id": "841259", "name": "Tripos longipes", "sprite": "sp-anchoviella_juruasanga.png", "group": "other", "rarity": 1}, {"lat": 31.9608, "lng": -47.3675, "id": "110686", "name": "Euphausia hemigibba", "sprite": "sp-antarctic_krill.png", "group": "shrimp", "rarity": 1}, {"lat": 33.1572, "lng": -46.6078, "id": "149093", "name": "Thalassionema nitzschioides", "sprite": "sp-anchoviella_juruasanga.png", "group": "other", "rarity": 1}, {"lat": 31.9608, "lng": -47.3675, "id": "135450", "name": "Vogtia glabra", "sprite": "sp-anchoviella_juruasanga.png", "group": "other", "rarity": 1}, {"lat": 32.8389, "lng": -47.5588, "id": "1056510", "name": "Phorcosergia grandis", "sprite": "sp-american_lobster.png", "group": "crab_lobster", "rarity": 1}, {"lat": 31.9608, "lng": -47.3675, "id": "126319", "name": "Stout sawpalate", "thumb": "tn_Sebea_u2.jpg", "sprite": "sp-electric_eel.png", "group": "eel", "rarity": 1, "waterType": "Saltwater"}, {"lat": 31.9608, "lng": -47.3675, "id": "126596", "name": "White-spotted lantern fish", "thumb": "tn_Diraf_j0.jpg", "sprite": "sp-anchoviella_juruasanga.png", "group": "other", "rarity": 1, "waterType": "Saltwater"}, {"lat": 33.25, "lng": -46.25, "id": "137205", "name": "Caretta caretta", "sprite": "sp-green_sea_turtle.png", "group": "sea_turtle", "rarity": 1}, {"lat": 33.03, "lng": -47.3183, "id": "109553", "name": "Protoperidinium", "sprite": "sp-anchoviella_juruasanga.png", "group": "other", "rarity": 1}, {"lat": 31.9608, "lng": -47.3675, "id": "322499", "name": "Zaphotias pedaliotus", "sprite": "sp-anchoviella_juruasanga.png", "group": "other", "rarity": 1}, {"lat": 31.9608, "lng": -47.3675, "id": "119937", "name": "Paralophogaster glaber", "sprite": "sp-american_lobster.png", "group": "crab_lobster", "rarity": 1}, {"lat": 31.9608, "lng": -47.3675, "id": "127746", "name": "Archiconchoecia striata", "sprite": "sp-anchoviella_juruasanga.png", "group": "other", "rarity": 1}, {"lat": 31.9654, "lng": -47.3377, "id": "127832", "name": "Orthoconchoecia secernenda", "sprite": "sp-anchoviella_juruasanga.png", "group": "other", "rarity": 1}, {"lat": 31.9608, "lng": -47.3675, "id": "107673", "name": "Parapasiphae sulcatifrons", "sprite": "sp-american_lobster.png", "group": "crab_lobster", "rarity": 1}, {"lat": 31.9608, "lng": -47.3675, "id": "128939", "name": "Oncaea mediterranea", "sprite": "sp-anchoviella_juruasanga.png", "group": "other", "rarity": 1}, {"lat": 31.9608, "lng": -47.3675, "id": "110706", "name": "Stylocheiron suhmii", "sprite": "sp-antarctic_krill.png", "group": "shrimp", "rarity": 1}, {"lat": 33.1967, "lng": -46.548, "id": "106485", "name": "Oithona", "sprite": "sp-anchoviella_juruasanga.png", "group": "other", "rarity": 1}, {"lat": 31.9608, "lng": -47.3675, "id": "126613", "name": "Lampanyctus cuprarius", "sprite": "sp-anchoviella_juruasanga.png", "group": "other", "rarity": 1, "waterType": "Saltwater"}, {"lat": 31.9608, "lng": -47.3675, "id": "135425", "name": "Lensia achilles", "sprite": "sp-anchoviella_juruasanga.png", "group": "other", "rarity": 1}, {"lat": 33.165, "lng": -47.6282, "id": "514112", "name": "Allosergestes pectinatus", "sprite": "sp-american_lobster.png", "group": "crab_lobster", "rarity": 1}, {"lat": 31.9608, "lng": -47.3675, "id": "1649790", "name": "Hansarsia microps", "sprite": "sp-antarctic_krill.png", "group": "shrimp", "rarity": 1}, {"lat": 32.995, "lng": -47.5117, "id": "104464", "name": "Calanus finmarchicus", "sprite": "sp-anchoviella_juruasanga.png", "group": "other", "rarity": 1}, {"lat": 31.9654, "lng": -47.3377, "id": "127852", "name": "Paramollicia rhynchena", "sprite": "sp-anchoviella_juruasanga.png", "group": "other", "rarity": 1}, {"lat": 31.9654, "lng": -47.3377, "id": "536008", "name": "Clausoecia pusilla", "sprite": "sp-anchoviella_juruasanga.png", "group": "other", "rarity": 1}, {"lat": 31.9639, "lng": -47.3477, "id": "127845", "name": "Paraconchoecia oblonga", "sprite": "sp-anchoviella_juruasanga.png", "group": "other", "rarity": 1}, {"lat": 31.9608, "lng": -47.3675, "id": "319394", "name": "Mirrorbelly", "thumb": "tn_Opgri_u0.jpg", "sprite": "sp-anchoviella_juruasanga.png", "group": "other", "rarity": 1, "waterType": "Saltwater"}, {"lat": 31.9608, "lng": -47.3675, "id": "126629", "name": "Topside lampfish", "thumb": "tn_Noval_m0.gif", "sprite": "sp-anchoviella_juruasanga.png", "group": "other", "rarity": 1, "waterType": "Saltwater"}, {"lat": 31.9608, "lng": -47.3675, "id": "135451", "name": "Vogtia pentacantha", "sprite": "sp-anchoviella_juruasanga.png", "group": "other", "rarity": 1}, {"lat": 33.1805, "lng": -46.4789, "id": "148912", "name": "Thalassiosira", "sprite": "sp-anchoviella_juruasanga.png", "group": "other", "rarity": 1}, {"lat": 31.9654, "lng": -47.3377, "id": "127823", "name": "Mikroconchoecia stigmatica", "sprite": "sp-anchoviella_juruasanga.png", "group": "other", "rarity": 1}, {"lat": 31.9608, "lng": -47.3675, "id": "126618", "name": "Lampanyctus photonotus", "thumb": "tn_Lapho_u0.gif", "sprite": "sp-anchoviella_juruasanga.png", "group": "other", "rarity": 1, "waterType": "Saltwater"}, {"lat": 31.9654, "lng": -47.3377, "id": "127776", "name": "Conchoecilla daphnoides", "sprite": "sp-anchoviella_juruasanga.png", "group": "other", "rarity": 1}, {"lat": 31.9608, "lng": -47.3675, "id": "127272", "name": "Poromitra capito", "thumb": "tn_Pocap_u0.gif", "sprite": "sp-anchoviella_juruasanga.png", "group": "other", "rarity": 1, "waterType": "Saltwater"}, {"lat": 33.2383, "lng": -46.1556, "id": "104466", "name": "Calanus helgolandicus", "sprite": "sp-anchoviella_juruasanga.png", "group": "other", "rarity": 1}, {"lat": 31.9654, "lng": -47.3377, "id": "127860", "name": "Proceroecia microprocera", "sprite": "sp-anchoviella_juruasanga.png", "group": "other", "rarity": 1}, {"lat": 31.9654, "lng": -47.3377, "id": "127775", "name": "Conchoecia subarcuata", "sprite": "sp-anchoviella_juruasanga.png", "group": "other", "rarity": 1}, {"lat": 33.7835, "lng": -47.779, "id": "127318", "name": "Aristostomias lunifer", "thumb": "tn_Arlun_u0.gif", "sprite": "sp-anchoviella_juruasanga.png", "group": "other", "rarity": 1, "waterType": "Saltwater"}, {"lat": 31.9654, "lng": -47.3377, "id": "127778", "name": "Conchoecissa imbricata", "sprite": "sp-anchoviella_juruasanga.png", "group": "other", "rarity": 1}, {"lat": 31.9654, "lng": -47.3377, "id": "127856", "name": "Porroecia spinirostris", "sprite": "sp-anchoviella_juruasanga.png", "group": "other", "rarity": 1}, {"lat": 31.9608, "lng": -47.3675, "id": "110715", "name": "Thysanopoda cristata", "sprite": "sp-antarctic_krill.png", "group": "shrimp", "rarity": 1}, {"lat": 31.9608, "lng": -47.3675, "id": "135434", "name": "Lensia lelouveteau", "sprite": "sp-anchoviella_juruasanga.png", "group": "other", "rarity": 1}, {"lat": 31.9608, "lng": -47.3675, "id": "127533", "name": "Conchoecia", "sprite": "sp-anchoviella_juruasanga.png", "group": "other", "rarity": 1}, {"lat": 32.953, "lng": -47.6336, "id": "514141", "name": "Parasergestes vigilax", "sprite": "sp-american_lobster.png", "group": "crab_lobster", "rarity": 1}, {"lat": 31.9608, "lng": -47.3675, "id": "387273", "name": "Kephyes ovata", "sprite": "sp-anchoviella_juruasanga.png", "group": "other", "rarity": 1}, {"lat": 31.9608, "lng": -47.3675, "id": "110704", "name": "Stylocheiron maximum", "sprite": "sp-antarctic_krill.png", "group": "shrimp", "rarity": 1}, {"lat": 31.9608, "lng": -47.3675, "id": "110713", "name": "Thysanopoda aequalis", "sprite": "sp-antarctic_krill.png", "group": "shrimp", "rarity": 1}, {"lat": 31.9608, "lng": -47.3675, "id": "110717", "name": "Thysanopoda microphthalma", "sprite": "sp-antarctic_krill.png", "group": "shrimp", "rarity": 1}, {"lat": 31.9608, "lng": -47.3675, "id": "135404", "name": "Bassia bassensis", "sprite": "sp-anchoviella_juruasanga.png", "group": "other", "rarity": 1}, {"lat": 31.9608, "lng": -47.3675, "id": "431217", "name": "Lophogaster spinosus", "sprite": "sp-american_lobster.png", "group": "crab_lobster", "rarity": 1}, {"lat": 31.97, "lng": -47.308, "id": "127791", "name": "Gaussicia subedentata", "sprite": "sp-anchoviella_juruasanga.png", "group": "other", "rarity": 1}, {"lat": 31.9608, "lng": -47.3675, "id": "126632", "name": "Waistcoat lanternfish", "thumb": "tn_Tamin_f0.gif", "sprite": "sp-anchoviella_juruasanga.png", "group": "other", "rarity": 1, "waterType": "Saltwater"}, {"lat": 33.4117, "lng": -45.185, "id": "837453", "name": "Tripos horridus", "sprite": "sp-anchoviella_juruasanga.png", "group": "other", "rarity": 1}, {"lat": 31.9608, "lng": -47.3675, "id": "135448", "name": "Sulculeolaria turgida", "sprite": "sp-anchoviella_juruasanga.png", "group": "other", "rarity": 1}, {"lat": 32.31, "lng": -45.28, "id": "126863", "name": "Escolar", "thumb": "tn_Lefla_u1.jpg", "sprite": "sp-anchoviella_juruasanga.png", "group": "other", "rarity": 1, "waterType": "Saltwater"}, {"lat": 31.9639, "lng": -47.3477, "id": "127782", "name": "Discoconchoecia elegans", "sprite": "sp-anchoviella_juruasanga.png", "group": "other", "rarity": 1}, {"lat": 31.9608, "lng": -47.3675, "id": "127314", "name": "Diaphanous hatchet fish", "thumb": "tn_Stdia_u7.jpg", "sprite": "sp-anchoviella_juruasanga.png", "group": "other", "rarity": 1, "waterType": "Saltwater"}, {"lat": 31.9608, "lng": -47.3675, "id": "126603", "name": "Bermuda lantern fish", "thumb": "tn_Hyhyg_u1.jpg", "sprite": "sp-anchoviella_juruasanga.png", "group": "other", "rarity": 1, "waterType": "Saltwater"}, {"lat": 31.9608, "lng": -47.3675, "id": "126621", "name": "Günther’s lanternfish", "thumb": "tn_Legue_u2.jpg", "sprite": "sp-anchoviella_juruasanga.png", "group": "other", "rarity": 1, "waterType": "Saltwater"}, {"lat": 32.995, "lng": -47.5117, "id": "841198", "name": "Tripos concilians", "sprite": "sp-anchoviella_juruasanga.png", "group": "other", "rarity": 1}, {"lat": 31.9608, "lng": -47.3675, "id": "125834", "name": "Taaningichthys", "sprite": "sp-anchoviella_juruasanga.png", "group": "other", "rarity": 1}, {"lat": 31.9608, "lng": -47.3675, "id": "127788", "name": "Gaussicia edentata", "sprite": "sp-anchoviella_juruasanga.png", "group": "other", "rarity": 1}, {"lat": 31.9608, "lng": -47.3675, "id": "126586", "name": "Warming's lantern fish", "thumb": "tn_Cewar_u0.jpg", "sprite": "sp-anchoviella_juruasanga.png", "group": "other", "rarity": 1, "waterType": "Saltwater"}, {"lat": 33.065, "lng": -47.125, "id": "146142", "name": "Bryozoa", "sprite": "sp-anchoviella_juruasanga.png", "group": "other", "rarity": 1}, {"lat": 31.9608, "lng": -47.3675, "id": "126620", "name": "Lepidophanes gaussi", "sprite": "sp-anchoviella_juruasanga.png", "group": "other", "rarity": 1, "waterType": "Saltwater"}, {"lat": 32.305, "lng": -46.04, "id": "127094", "name": "Swordfish", "thumb": "tn_Xigla_u5.jpg", "sprite": "sp-blue_marlin.png", "group": "swordfish", "rarity": 1, "waterType": "Saltwater"}, {"lat": 31.9608, "lng": -47.3675, "id": "126393", "name": "Common fangtooth", "thumb": "tn_Ancor_u1.jpg", "sprite": "sp-anchoviella_juruasanga.png", "group": "other", "rarity": 1, "waterType": "Saltwater"}, {"lat": 31.9654, "lng": -47.3377, "id": "127854", "name": "Porroecia porrecta", "sprite": "sp-anchoviella_juruasanga.png", "group": "other", "rarity": 1}, {"lat": 31.9608, "lng": -47.3675, "id": "127338", "name": "Sloane's viperfish", "thumb": "tn_Chslo_u5.jpg", "sprite": "sp-anchoviella_juruasanga.png", "group": "other", "rarity": 1, "waterType": "Saltwater"}, {"lat": 31.9608, "lng": -47.3675, "id": "126619", "name": "Pygmy lanternfish", "thumb": "tn_Lapus_u0.jpg", "sprite": "sp-anchoviella_juruasanga.png", "group": "other", "rarity": 1, "waterType": "Saltwater"}, {"lat": 32.9871, "lng": -46.2273, "id": "137119", "name": "Physeter macrocephalus", "sprite": "sp-blue_whale.png", "group": "whale", "rarity": 1}, {"lat": 31.9608, "lng": -47.3675, "id": "127309", "name": "Half-naked hatchetfish", "thumb": "tn_Arhem_u6.jpg", "sprite": "sp-anchoviella_juruasanga.png", "group": "other", "rarity": 1, "waterType": "Saltwater"}, {"lat": 32.953, "lng": -47.6336, "id": "107605", "name": "Systellaspis debilis", "sprite": "sp-american_lobster.png", "group": "crab_lobster", "rarity": 1}, {"lat": 33.4117, "lng": -45.185, "id": "149629", "name": "Rhizosolenia styliformis", "sprite": "sp-anchoviella_juruasanga.png", "group": "other", "rarity": 1}, {"lat": 31.9608, "lng": -47.3675, "id": "110703", "name": "Stylocheiron longicorne", "sprite": "sp-antarctic_krill.png", "group": "shrimp", "rarity": 1}, {"lat": 31.9608, "lng": -47.3675, "id": "135461", "name": "Nectadamas diomedeae", "sprite": "sp-anchoviella_juruasanga.png", "group": "other", "rarity": 1}, {"lat": 31.9608, "lng": -47.3675, "id": "196656", "name": "Abylopsis eschscholtzii", "sprite": "sp-anchoviella_juruasanga.png", "group": "other", "rarity": 1}, {"lat": 31.9608, "lng": -47.3675, "id": "135412", "name": "Clausophyes moserae", "sprite": "sp-anchoviella_juruasanga.png", "group": "other", "rarity": 1}, {"lat": 31.9654, "lng": -47.3377, "id": "127793", "name": "Halocypria globosa", "sprite": "sp-anchoviella_juruasanga.png", "group": "other", "rarity": 1}, {"lat": 31.9608, "lng": -47.3675, "id": "126201", "name": "Aristostomias", "sprite": "sp-anchoviella_juruasanga.png", "group": "other", "rarity": 1}, {"lat": 33.455, "lng": -45.7933, "id": "104478", "name": "Candacia ethiopica", "sprite": "sp-anchoviella_juruasanga.png", "group": "other", "rarity": 1}, {"lat": 31.9608, "lng": -47.3675, "id": "135419", "name": "Diphyes bojani", "sprite": "sp-anchoviella_juruasanga.png", "group": "other", "rarity": 1}]}