{"zoom": 7, "x": 47, "y": 70, "points": [{"lat": -17.1074, "lng": -47.3192, "id": "270410", "name": "Pimelodella", "sprite": "sp-blue_catfish.png", "group": "catfish", "rarity": 1}, {"lat": -17.7098, "lng": -47.5159, "id": "269463", "name": "Hypostomus", "sprite": "sp-blue_catfish.png", "group": "catfish", "rarity": 1}, {"lat": -18.8, "lng": -45.15, "id": "269449", "name": "Hyphessobrycon", "sprite": "sp-astyanax.png", "group": "piranha", "rarity": 1}, {"lat": -17.3775, "lng": -47.5206, "id": "268211", "name": "Achirus", "sprite": "sp-atlantic_halibut.png", "group": "flatfish", "rarity": 1}, {"lat": -17.7747, "lng": -47.7167, "id": "196161", "name": "Pseudozeuxidae", "sprite": "sp-american_lobster.png", "group": "crab_lobster", "rarity": 1}, {"lat": -16.7869, "lng": -46.6167, "id": "101364", "name": "Ampeliscidae", "sprite": "sp-american_lobster.png", "group": "crab_lobster", "rarity": 1}, {"lat": -16.7203, "lng": -45.9483, "id": "488296", "name": "Amaryllis atlantica", "sprite": "sp-american_lobster.png", "group": "crab_lobster", "rarity": 1}, {"lat": -16.8369, "lng": -47.1181, "id": "280831", "name": "Pearl cichlid", "thumb": "tn_Gebra_u7.jpg", "sprite": "sp-coptodon_louka.png", "group": "cichlid", "rarity": 1, "waterType": "Brackish"}, {"lat": -18.315, "lng": -45.94, "id": "137165", "name": "Sterna paradisaea", "sprite": "sp-anchoviella_juruasanga.png", "group": "other", "rarity": 1}, {"lat": -16.9386, "lng": -47.5792, "id": "270361", "name": "Phalloceros", "sprite": "sp-anchoviella_juruasanga.png", "group": "other", "rarity": 1}, {"lat": -17.105, "lng": -46.0153, "id": "1070", "name": "Maxillopoda", "sprite": "sp-anchoviella_juruasanga.png", "group": "other", "rarity": 1}, {"lat": -18.8, "lng": -45.15, "id": "154389", "name": "Poeciliidae", "sprite": "sp-anchoviella_juruasanga.png", "group": "other", "rarity": 1}, {"lat": -18.6333, "lng": -47.4, "id": "260372", "name": "Excorallana oculata", "sprite": "sp-american_lobster.png", "group": "crab_lobster", "rarity": 1}, {"lat": -17.3775, "lng": -47.5206, "id": "159700", "name": "Fat sleeper", "thumb": "tn_Domac_u1.jpg", "sprite": "sp-anchoviella_juruasanga.png", "group": "other", "rarity": 1, "waterType": "Brackish"}, {"lat": -17.3775, "lng": -47.5206, "id": "277805", "name": "Spinycheek sleeper", "thumb": "tn_Elpis_u0.jpg", "sprite": "sp-anchoviella_juruasanga.png", "group": "other", "rarity": 1, "waterType": "Brackish"}, {"lat": -17.9222, "lng": -47.6613, "id": "270515", "name": "Prochilodus", "sprite": "sp-anchoviella_juruasanga.png", "group": "other", "rarity": 1}, {"lat": -16.7869, "lng": -47.6973, "id": "101402", "name": "Phliantidae", "sprite": "sp-american_lobster.png", "group": "crab_lobster", "rarity": 1}, {"lat": -16.7869, "lng": -46.6167, "id": "101388", "name": "Isaeidae", "sprite": "sp-american_lobster.png", "group": "crab_lobster", "rarity": 1}, {"lat": -18.2, "lng": -45.2333, "id": "270882", "name": "Serrasalmus", "sprite": "sp-astyanax.png", "group": "piranha", "rarity": 1}, {"lat": -17.3775, "lng": -47.5206, "id": "282464", "name": "Pseudophallus mindii", "thumb": "tn_Psmin_u1.jpg", "sprite": "sp-cosmocampus_coccineus.png", "group": "seahorse", "rarity": 1, "waterType": "Brackish"}, {"lat": -17.3775, "lng": -47.5206, "id": "275353", "name": "Poecilia vivipara", "thumb": "tn_Poviv_f0.jpg", "sprite": "sp-anchoviella_juruasanga.png", "group": "other", "rarity": 1, "waterType": "Brackish"}, {"lat": -17.9714, "lng": -47.1355, "id": "268424", "name": "Astyanax", "sprite": "sp-astyanax.png", "group": "piranha", "rarity": 1}, {"lat": -17.3775, "lng": -47.5206, "id": "400978", "name": "Opossum pipefish", "thumb": "tn_Mibra_u1.gif", "sprite": "sp-cosmocampus_coccineus.png", "group": "seahorse", "rarity": 1, "waterType": "Brackish"}, {"lat": -18.8, "lng": -45.15, "id": "269419", "name": "Hoplias", "sprite": "sp-anchoviella_juruasanga.png", "group": "other", "rarity": 1}, {"lat": -18.9222, "lng": -45.0669, "id": "370509", "name": "Acasta cyathus", "sprite": "sp-anchoviella_juruasanga.png", "group": "other", "rarity": 1}, {"lat": -17.3775, "lng": -47.5206, "id": "277426", "name": "Sand fish", "thumb": "tn_Awtaj_u1.jpg", "sprite": "sp-eviota_bipunctata.png", "group": "goby", "rarity": 1, "waterType": "Brackish"}, {"lat": -16.7869, "lng": -47.6973, "id": "101410", "name": "Synopiidae", "sprite": "sp-american_lobster.png", "group": "crab_lobster", "rarity": 1}, {"lat": -16.7869, "lng": -47.7459, "id": "101393", "name": "Leucothoidae", "sprite": "sp-american_lobster.png", "group": "crab_lobster", "rarity": 1}, {"lat": -17.9675, "lng": -47.6716, "id": "267155", "name": "Hypoptopomatinae", "sprite": "sp-blue_catfish.png", "group": "catfish", "rarity": 1}, {"lat": -17.8822, "lng": -47.7367, "id": "154400", "name": "Guppy", "thumb": "tn_Poret_ue.jpg", "sprite": "sp-anchoviella_juruasanga.png", "group": "other", "rarity": 1, "waterType": "Brackish"}]}