{"zoom": 7, "x": 48, "y": 77, "points": [{"lat": -34.759, "lng": -43.647, "id": "137098", "name": "Grampus griseus", "sprite": "sp-bottlenose_dolphin.png", "group": "dolphin", "rarity": 1}, {"lat": -36.1868, "lng": -43.7932, "id": "220222", "name": "Eubalaena australis", "sprite": "sp-blue_whale.png", "group": "whale", "rarity": 1}, {"lat": -36.5, "lng": -45.0, "id": "1314243", "name": "Parthenoecia parthenoda", "sprite": "sp-anchoviella_juruasanga.png", "group": "other", "rarity": 1}, {"lat": -36.5, "lng": -43.917, "id": "127819", "name": "Mikroconchoecia acuticosta", "sprite": "sp-anchoviella_juruasanga.png", "group": "other", "rarity": 1}, {"lat": -34.888, "lng": -43.958, "id": "136980", "name": "Delphinidae", "sprite": "sp-bottlenose_dolphin.png", "group": "dolphin", "rarity": 1}, {"lat": -34.887, "lng": -43.8113, "id": "137119", "name": "Physeter macrocephalus", "sprite": "sp-blue_whale.png", "group": "whale", "rarity": 1}, {"lat": -35.3864, "lng": -43.4544, "id": "212583", "name": "Diomedea exulans", "sprite": "sp-anchoviella_juruasanga.png", "group": "other", "rarity": 1}, {"lat": -34.3836, "lng": -44.4014, "id": "135198", "name": "Javania cailleti", "sprite": "sp-actiniidae.png", "group": "coral", "rarity": 1}, {"lat": -34.528, "lng": -43.108, "id": "137094", "name": "Delphinus delphis", "sprite": "sp-bottlenose_dolphin.png", "group": "dolphin", "rarity": 1}, {"lat": -36.333, "lng": -44.0, "id": "127832", "name": "Orthoconchoecia secernenda", "sprite": "sp-anchoviella_juruasanga.png", "group": "other", "rarity": 1}]}