{"zoom": 7, "x": 48, "y": 94, "points": [{"lat": -65.0017, "lng": -42.7799, "id": "197512", "name": "Trophon geversianus", "sprite": "sp-cowrie_shell.png", "group": "sea_snail", "rarity": 1}, {"lat": -65.001, "lng": -43.0198, "id": "172896", "name": "Glyphanostomum scotiarum", "sprite": "sp-anchoviella_juruasanga.png", "group": "other", "rarity": 1}, {"lat": -64.9261, "lng": -42.7995, "id": "138228", "name": "Mytilus", "sprite": "sp-blue_mussel.png", "group": "clam_mussel", "rarity": 1}, {"lat": -65.0142, "lng": -43.0068, "id": "1460699", "name": "Hemimycale topsenti", "sprite": "sp-barrel_sponge.png", "group": "sponge", "rarity": 1}, {"lat": -64.9867, "lng": -43.0342, "id": "888238", "name": "Ophelina gymnopyge", "sprite": "sp-anchoviella_juruasanga.png", "group": "other", "rarity": 1}, {"lat": -65.0017, "lng": -42.7799, "id": "289437", "name": "Anthothoe chilensis", "sprite": "sp-actiniidae.png", "group": "coral", "rarity": 1}, {"lat": -65.0, "lng": -45.0, "id": "341678", "name": "Cymatocylis drygalskii", "sprite": "sp-anchoviella_juruasanga.png", "group": "other", "rarity": 1}, {"lat": -64.9867, "lng": -43.0342, "id": "827735", "name": "Sosane kerguelensis", "sprite": "sp-anchoviella_juruasanga.png", "group": "other", "rarity": 1}, {"lat": -64.9409, "lng": -42.7911, "id": "144253", "name": "Colpomenia", "sprite": "sp-anchoviella_juruasanga.png", "group": "other", "rarity": 1}, {"lat": -64.9543, "lng": -42.7912, "id": "234476", "name": "Ulva prolifera", "sprite": "sp-anchoviella_juruasanga.png", "group": "other", "rarity": 1}, {"lat": -65.0, "lng": -45.0, "id": "341296", "name": "Cymatocylis", "sprite": "sp-anchoviella_juruasanga.png", "group": "other", "rarity": 1}, {"lat": -64.9197, "lng": -42.8033, "id": "145984", "name": "Ulva lactuca", "sprite": "sp-anchoviella_juruasanga.png", "group": "other", "rarity": 1}, {"lat": -65.0, "lng": -43.0333, "id": "258024", "name": "Betamorpha fusiformis", "sprite": "sp-american_lobster.png", "group": "crab_lobster", "rarity": 1}, {"lat": -64.9017, "lng": -42.8112, "id": "100653", "name": "Actiniidae", "sprite": "sp-actiniidae.png", "group": "coral", "rarity": 1}, {"lat": -64.99, "lng": -43.03, "id": "579338", "name": "Poseidonamicus hunti", "sprite": "sp-anchoviella_juruasanga.png", "group": "other", "rarity": 1}, {"lat": -65.0, "lng": -45.0, "id": "341662", "name": "Laackmanniella naviculaefera", "sprite": "sp-anchoviella_juruasanga.png", "group": "other", "rarity": 1}, {"lat": -64.69, "lng": -43.3494, "id": "225757", "name": "Pygoscelis adeliae", "sprite": "sp-anchoviella_juruasanga.png", "group": "other", "rarity": 1}, {"lat": -64.8, "lng": -44.4333, "id": "117621", "name": "Haliscera racovitzae", "sprite": "sp-anchoviella_juruasanga.png", "group": "other", "rarity": 1}, {"lat": -64.959, "lng": -42.7889, "id": "106122", "name": "Balanus", "sprite": "sp-anchoviella_juruasanga.png", "group": "other", "rarity": 1}, {"lat": -64.9853, "lng": -43.0088, "id": "172036", "name": "Bathydorus spinosus", "sprite": "sp-barrel_sponge.png", "group": "sponge", "rarity": 1}, {"lat": -64.9938, "lng": -43.027, "id": "474814", "name": "Ammotrypanella princessa", "sprite": "sp-anchoviella_juruasanga.png", "group": "other", "rarity": 1}, {"lat": -65.0029, "lng": -43.0112, "id": "247783", "name": "Radiella antarctica", "sprite": "sp-barrel_sponge.png", "group": "sponge", "rarity": 1}, {"lat": -64.5, "lng": -44.12, "id": "103357", "name": "Appendicularia", "sprite": "sp-anchoviella_juruasanga.png", "group": "other", "rarity": 1}, {"lat": -64.9817, "lng": -43.0033, "id": "197541", "name": "Yoldiella valettei", "sprite": "sp-blue_mussel.png", "group": "clam_mussel", "rarity": 1}, {"lat": -64.9454, "lng": -42.7888, "id": "290601", "name": "Parabunodactis imperfecta", "sprite": "sp-actiniidae.png", "group": "coral", "rarity": 1}, {"lat": -65.342, "lng": -42.967, "id": "173349", "name": "Swanomia brevimandibulata", "sprite": "sp-anchoviella_juruasanga.png", "group": "other", "rarity": 1}, {"lat": -64.9925, "lng": -43.0071, "id": "170671", "name": "Radiella", "sprite": "sp-barrel_sponge.png", "group": "sponge", "rarity": 1}, {"lat": -64.9272, "lng": -42.7982, "id": "138215", "name": "Brachidontes", "sprite": "sp-blue_mussel.png", "group": "clam_mussel", "rarity": 1}, {"lat": -64.7833, "lng": -43.6667, "id": "172956", "name": "Stomphia selaginella", "sprite": "sp-actiniidae.png", "group": "coral", "rarity": 1}, {"lat": -64.99, "lng": -43.03, "id": "127475", "name": "Bairdioidea", "sprite": "sp-anchoviella_juruasanga.png", "group": "other", "rarity": 1}, {"lat": -64.9484, "lng": -42.7903, "id": "144259", "name": "Scytosiphon", "sprite": "sp-anchoviella_juruasanga.png", "group": "other", "rarity": 1}, {"lat": -65.0, "lng": -43.0333, "id": "102493", "name": "Abyssorchomene chevreuxi", "sprite": "sp-american_lobster.png", "group": "crab_lobster", "rarity": 1}, {"lat": -65.0, "lng": -43.04, "id": "460349", "name": "Macrosarisa andeep", "sprite": "sp-anchoviella_juruasanga.png", "group": "other", "rarity": 1}, {"lat": -64.9867, "lng": -43.0342, "id": "173693", "name": "Aglaophamus trissophyllus", "sprite": "sp-anchoviella_juruasanga.png", "group": "other", "rarity": 1}, {"lat": -64.8, "lng": -44.4333, "id": "197021", "name": "Adamussium colbecki", "sprite": "sp-blue_mussel.png", "group": "clam_mussel", "rarity": 1}, {"lat": -65.0017, "lng": -42.7799, "id": "143995", "name": "Chaetomorpha", "sprite": "sp-anchoviella_juruasanga.png", "group": "other", "rarity": 1}, {"lat": -64.9853, "lng": -43.0072, "id": "164811", "name": "Demospongiae", "sprite": "sp-barrel_sponge.png", "group": "sponge", "rarity": 1}, {"lat": -65.0, "lng": -45.0, "id": "341659", "name": "Codonellopsis glacialis", "sprite": "sp-anchoviella_juruasanga.png", "group": "other", "rarity": 1}, {"lat": -64.8, "lng": -44.4262, "id": "171894", "name": "Docosaccus ancoratus", "sprite": "sp-barrel_sponge.png", "group": "sponge", "rarity": 1}, {"lat": -64.5, "lng": -44.12, "id": "13703", "name": "Thecosomata", "sprite": "sp-cowrie_shell.png", "group": "sea_snail", "rarity": 1}, {"lat": -65.0, "lng": -43.04, "id": "460171", "name": "Bythocypris malyutinae", "sprite": "sp-anchoviella_juruasanga.png", "group": "other", "rarity": 1}, {"lat": -64.9867, "lng": -43.0342, "id": "330975", "name": "Polygordius antarcticus", "sprite": "sp-anchoviella_juruasanga.png", "group": "other", "rarity": 1}, {"lat": -64.9867, "lng": -43.0342, "id": "130502", "name": "Ophelina breviata", "sprite": "sp-anchoviella_juruasanga.png", "group": "other", "rarity": 1}, {"lat": -64.9938, "lng": -43.027, "id": "173369", "name": "Glycera kerguelensis", "sprite": "sp-anchoviella_juruasanga.png", "group": "other", "rarity": 1}, {"lat": -64.9551, "lng": -42.7913, "id": "143834", "name": "Ceramium", "sprite": "sp-anchoviella_juruasanga.png", "group": "other", "rarity": 1}, {"lat": -65.0, "lng": -45.0, "id": "341658", "name": "Codonellopsis gaussi", "sprite": "sp-anchoviella_juruasanga.png", "group": "other", "rarity": 1}, {"lat": -64.9431, "lng": -42.795, "id": "144296", "name": "Ulva", "sprite": "sp-anchoviella_juruasanga.png", "group": "other", "rarity": 1}, {"lat": -65.0017, "lng": -42.7799, "id": "143812", "name": "Bryopsis", "sprite": "sp-anchoviella_juruasanga.png", "group": "other", "rarity": 1}, {"lat": -65.0142, "lng": -43.0068, "id": "131673", "name": "Polymastiidae", "sprite": "sp-barrel_sponge.png", "group": "sponge", "rarity": 1}, {"lat": -64.9867, "lng": -43.0342, "id": "579149", "name": "Macrostylis antennamagna", "sprite": "sp-american_lobster.png", "group": "crab_lobster", "rarity": 1}, {"lat": -65.0003, "lng": -43.0175, "id": "492213", "name": "Reloncavia", "sprite": "sp-blue_mussel.png", "group": "clam_mussel", "rarity": 1}, {"lat": -64.9867, "lng": -43.0342, "id": "173687", "name": "Aglaophamus paramalmgreni", "sprite": "sp-anchoviella_juruasanga.png", "group": "other", "rarity": 1}, {"lat": -64.9867, "lng": -43.0342, "id": "722727", "name": "Oligobregma collare", "sprite": "sp-anchoviella_juruasanga.png", "group": "other", "rarity": 1}, {"lat": -65.0, "lng": -43.0167, "id": "724698", "name": "Bathydorus laevis pseudospinosus", "sprite": "sp-barrel_sponge.png", "group": "sponge", "rarity": 1}, {"lat": -65.0003, "lng": -43.0175, "id": "156787", "name": "Limopsis tenella", "sprite": "sp-blue_mussel.png", "group": "clam_mussel", "rarity": 1}, {"lat": -64.41, "lng": -44.785, "id": "177924", "name": "Odontaster penicillatus", "sprite": "sp-sea_cucumber.png", "group": "starfish", "rarity": 1}, {"lat": -64.6953, "lng": -43.5284, "id": "236217", "name": "Euphausia superba", "sprite": "sp-antarctic_krill.png", "group": "shrimp", "rarity": 1}, {"lat": -64.5, "lng": -44.12, "id": "1080", "name": "Copepoda", "sprite": "sp-anchoviella_juruasanga.png", "group": "other", "rarity": 1}, {"lat": -64.9465, "lng": -42.7935, "id": "830", "name": "Phaeophyceae", "sprite": "sp-anchoviella_juruasanga.png", "group": "other", "rarity": 1}, {"lat": -64.9853, "lng": -43.0072, "id": "1337", "name": "Hydrozoa", "sprite": "sp-anchoviella_juruasanga.png", "group": "other", "rarity": 1}, {"lat": -64.9017, "lng": -42.8112, "id": "145721", "name": "Undaria pinnatifida", "sprite": "sp-anchoviella_juruasanga.png", "group": "other", "rarity": 1}, {"lat": -64.9287, "lng": -42.802, "id": "140480", "name": "Mytilus edulis", "sprite": "sp-blue_mussel.png", "group": "clam_mussel", "rarity": 1}, {"lat": -65.0017, "lng": -42.7799, "id": "234471", "name": "Ulva intestinalis", "sprite": "sp-anchoviella_juruasanga.png", "group": "other", "rarity": 1}, {"lat": -65.0017, "lng": -42.7799, "id": "143999", "name": "Codium", "sprite": "sp-anchoviella_juruasanga.png", "group": "other", "rarity": 1}, {"lat": -65.0087, "lng": -43.0348, "id": "571028", "name": "Paragathotanais ipy", "sprite": "sp-american_lobster.png", "group": "crab_lobster", "rarity": 1}, {"lat": -64.9925, "lng": -43.0071, "id": "134273", "name": "Suberites caminatus", "sprite": "sp-barrel_sponge.png", "group": "sponge", "rarity": 1}, {"lat": -64.9247, "lng": -42.8012, "id": "138489", "name": "Siphonaria", "sprite": "sp-cowrie_shell.png", "group": "sea_snail", "rarity": 1}, {"lat": -64.9279, "lng": -42.7978, "id": "505963", "name": "Aulacomya atra", "sprite": "sp-blue_mussel.png", "group": "clam_mussel", "rarity": 1}, {"lat": -64.9017, "lng": -42.8112, "id": "506057", "name": "Leiosolenus patagonicus", "sprite": "sp-blue_mussel.png", "group": "clam_mussel", "rarity": 1}, {"lat": -64.9867, "lng": -43.0342, "id": "337051", "name": "Travisia glandulosa", "sprite": "sp-anchoviella_juruasanga.png", "group": "other", "rarity": 1}, {"lat": -64.9867, "lng": -43.0342, "id": "477210", "name": "Ophelina ammotrypanella", "sprite": "sp-anchoviella_juruasanga.png", "group": "other", "rarity": 1}, {"lat": -64.631, "lng": -43.258, "id": "137165", "name": "Sterna paradisaea", "sprite": "sp-anchoviella_juruasanga.png", "group": "other", "rarity": 1}, {"lat": -64.9526, "lng": -42.7851, "id": "140459", "name": "Lithophaga lithophaga", "sprite": "sp-blue_mussel.png", "group": "clam_mussel", "rarity": 1}, {"lat": -65.0, "lng": -45.0, "id": "723498", "name": "Laackmanniella prolongata", "sprite": "sp-anchoviella_juruasanga.png", "group": "other", "rarity": 1}, {"lat": -64.989, "lng": -43.035, "id": "1358", "name": "Pantopoda", "sprite": "sp-anchoviella_juruasanga.png", "group": "other", "rarity": 1}, {"lat": -64.9352, "lng": -42.7988, "id": "143996", "name": "Cladophora", "sprite": "sp-anchoviella_juruasanga.png", "group": "other", "rarity": 1}, {"lat": -64.5, "lng": -44.12, "id": "2081", "name": "Chaetognatha", "sprite": "sp-anchoviella_juruasanga.png", "group": "other", "rarity": 1}, {"lat": -64.9589, "lng": -42.7896, "id": "801", "name": "Chlorophyta", "sprite": "sp-anchoviella_juruasanga.png", "group": "other", "rarity": 1}, {"lat": -65.0142, "lng": -43.0068, "id": "1340", "name": "Hexacorallia", "sprite": "sp-actiniidae.png", "group": "coral", "rarity": 1}, {"lat": -64.9867, "lng": -43.0342, "id": "260213", "name": "Dubinectes intermedius", "sprite": "sp-american_lobster.png", "group": "crab_lobster", "rarity": 1}, {"lat": -65.0017, "lng": -42.7799, "id": "144086", "name": "Dictyota", "sprite": "sp-anchoviella_juruasanga.png", "group": "other", "rarity": 1}, {"lat": -65.0003, "lng": -43.0175, "id": "506321", "name": "Ledella ecaudata", "sprite": "sp-blue_mussel.png", "group": "clam_mussel", "rarity": 1}, {"lat": -65.0, "lng": -44.0, "id": "236219", "name": "Thysanoessa macrura", "sprite": "sp-antarctic_krill.png", "group": "shrimp", "rarity": 1}, {"lat": -64.8, "lng": -44.4262, "id": "171890", "name": "Acoelocalyx brucei", "sprite": "sp-barrel_sponge.png", "group": "sponge", "rarity": 1}, {"lat": -64.9706, "lng": -42.7843, "id": "533427", "name": "Siphonaria lessonii", "sprite": "sp-cowrie_shell.png", "group": "sea_snail", "rarity": 1}, {"lat": -64.9687, "lng": -42.7861, "id": "394848", "name": "Balanus glandula", "sprite": "sp-anchoviella_juruasanga.png", "group": "other", "rarity": 1}, {"lat": -64.41, "lng": -44.785, "id": "172748", "name": "Cycethra verrucosa", "sprite": "sp-sea_cucumber.png", "group": "starfish", "rarity": 1}, {"lat": -64.9867, "lng": -43.0342, "id": "477209", "name": "Oligobregma quadrispinosa", "sprite": "sp-anchoviella_juruasanga.png", "group": "other", "rarity": 1}, {"lat": -64.99, "lng": -43.03, "id": "127484", "name": "Polycopidae", "sprite": "sp-anchoviella_juruasanga.png", "group": "other", "rarity": 1}, {"lat": -64.969, "lng": -42.8962, "id": "558", "name": "Porifera", "sprite": "sp-barrel_sponge.png", "group": "sponge", "rarity": 1}, {"lat": -64.9867, "lng": -43.0342, "id": "130484", "name": "Ammotrypanella arctica", "sprite": "sp-anchoviella_juruasanga.png", "group": "other", "rarity": 1}, {"lat": -64.9853, "lng": -43.0072, "id": "22612", "name": "Hexactinellida", "sprite": "sp-barrel_sponge.png", "group": "sponge", "rarity": 1}, {"lat": -64.5, "lng": -44.12, "id": "1371", "name": "Siphonophorae", "sprite": "sp-anchoviella_juruasanga.png", "group": "other", "rarity": 1}, {"lat": -64.9414, "lng": -42.7942, "id": "143691", "name": "Corallinaceae", "sprite": "sp-anchoviella_juruasanga.png", "group": "other", "rarity": 1}, {"lat": -65.0, "lng": -45.0, "id": "341681", "name": "Cymatocylis vanhoeffeni", "sprite": "sp-anchoviella_juruasanga.png", "group": "other", "rarity": 1}, {"lat": -65.0095, "lng": -43.0083, "id": "292705", "name": "Astrotylus astrotylus", "sprite": "sp-barrel_sponge.png", "group": "sponge", "rarity": 1}, {"lat": -64.9867, "lng": -43.0342, "id": "474812", "name": "Ammotrypanella cirrosa", "sprite": "sp-anchoviella_juruasanga.png", "group": "other", "rarity": 1}, {"lat": -64.9346, "lng": -42.7981, "id": "100728", "name": "Diadumene", "sprite": "sp-actiniidae.png", "group": "coral", "rarity": 1}, {"lat": -64.9526, "lng": -42.7851, "id": "107381", "name": "Carcinus maenas", "sprite": "sp-american_lobster.png", "group": "crab_lobster", "rarity": 1}, {"lat": -64.5, "lng": -44.12, "id": "1410", "name": "Foraminifera", "sprite": "sp-anchoviella_juruasanga.png", "group": "other", "rarity": 1}, {"lat": -64.9392, "lng": -43.1336, "id": "849546", "name": "Eurythenes maldoror", "sprite": "sp-american_lobster.png", "group": "crab_lobster", "rarity": 1}, {"lat": -65.014, "lng": -43.051, "id": "127530", "name": "Bathyconchoecia", "sprite": "sp-anchoviella_juruasanga.png", "group": "other", "rarity": 1}, {"lat": -64.9017, "lng": -42.8112, "id": "145367", "name": "Dictyota dichotoma", "sprite": "sp-anchoviella_juruasanga.png", "group": "other", "rarity": 1}, {"lat": -64.9243, "lng": -42.7996, "id": "533470", "name": "Tegula patagonica", "sprite": "sp-cowrie_shell.png", "group": "sea_snail", "rarity": 1}, {"lat": -64.9017, "lng": -42.8112, "id": "1267", "name": "Cnidaria", "sprite": "sp-anchoviella_juruasanga.png", "group": "other", "rarity": 1}, {"lat": -64.99, "lng": -43.03, "id": "127500", "name": "Hemicytheridae", "sprite": "sp-anchoviella_juruasanga.png", "group": "other", "rarity": 1}, {"lat": -64.7833, "lng": -43.6667, "id": "173128", "name": "Isosicyonis alba", "sprite": "sp-actiniidae.png", "group": "coral", "rarity": 1}, {"lat": -64.8, "lng": -44.4331, "id": "117615", "name": "Botrynema brucei", "sprite": "sp-anchoviella_juruasanga.png", "group": "other", "rarity": 1}, {"lat": -64.9853, "lng": -43.0072, "id": "123333", "name": "Hymenaster", "sprite": "sp-sea_cucumber.png", "group": "starfish", "rarity": 1}, {"lat": -64.9853, "lng": -43.0072, "id": "146142", "name": "Bryozoa", "sprite": "sp-anchoviella_juruasanga.png", "group": "other", "rarity": 1}, {"lat": -64.9853, "lng": -43.0072, "id": "123084", "name": "Ophiuroidea", "sprite": "sp-sea_cucumber.png", "group": "starfish", "rarity": 1}, {"lat": -65.1, "lng": -44.0917, "id": "258089", "name": "Mesosignum weddellensis", "sprite": "sp-american_lobster.png", "group": "crab_lobster", "rarity": 1}, {"lat": -64.9392, "lng": -43.1336, "id": "849541", "name": "Eurythenes andhakarae", "sprite": "sp-american_lobster.png", "group": "crab_lobster", "rarity": 1}, {"lat": -65.014, "lng": -43.051, "id": "172456", "name": "Alacia hettacra", "sprite": "sp-anchoviella_juruasanga.png", "group": "other", "rarity": 1}, {"lat": -64.9775, "lng": -42.8204, "id": "883", "name": "Polychaeta", "sprite": "sp-anchoviella_juruasanga.png", "group": "other", "rarity": 1}, {"lat": -64.9526, "lng": -42.7851, "id": "129445", "name": "Eulalia", "sprite": "sp-anchoviella_juruasanga.png", "group": "other", "rarity": 1}, {"lat": -64.41, "lng": -44.785, "id": "172678", "name": "Cosmasterias lurida", "sprite": "sp-sea_cucumber.png", "group": "starfish", "rarity": 1}, {"lat": -64.9853, "lng": -43.0072, "id": "559", "name": "Calcarea", "sprite": "sp-barrel_sponge.png", "group": "sponge", "rarity": 1}]}