{"zoom": 7, "x": 49, "y": 61, "points": [{"lat": 6.5045, "lng": -40.6711, "id": "127027", "name": "Yellowfin tuna", "thumb": "tn_Thalb_u0.jpg", "sprite": "sp-bluefin_tuna.png", "group": "tuna_mackerel", "rarity": 1, "waterType": "Brackish"}, {"lat": 7.42, "lng": -41.9833, "id": "125639", "name": "Nemichthys", "sprite": "sp-electric_eel.png", "group": "eel", "rarity": 1}, {"lat": 5.85, "lng": -40.267, "id": "104495", "name": "Centropages furcatus", "sprite": "sp-anchoviella_juruasanga.png", "group": "other", "rarity": 1}, {"lat": 7.42, "lng": -41.9833, "id": "127308", "name": "Hatchetfish", "thumb": "tn_Argig_u8.jpg", "sprite": "sp-anchoviella_juruasanga.png", "group": "other", "rarity": 1, "waterType": "Saltwater"}, {"lat": 5.9833, "lng": -41.4583, "id": "105839", "name": "Shortfin mako", "thumb": "tn_Isoxy_u0.jpg", "sprite": "sp-great_white_shark.png", "group": "shark", "rarity": 1, "waterType": "Saltwater"}, {"lat": 7.3021, "lng": -41.05, "id": "137119", "name": "Physeter macrocephalus", "sprite": "sp-blue_whale.png", "group": "whale", "rarity": 1}, {"lat": 7.42, "lng": -41.9833, "id": "127338", "name": "Sloane's viperfish", "thumb": "tn_Chslo_u5.jpg", "sprite": "sp-anchoviella_juruasanga.png", "group": "other", "rarity": 1, "waterType": "Saltwater"}, {"lat": 6.0167, "lng": -41.1229, "id": "105789", "name": "Silky shark", "thumb": "tn_Cafal_u4.jpg", "sprite": "sp-great_white_shark.png", "group": "shark", "rarity": 1, "waterType": "Saltwater"}, {"lat": 7.42, "lng": -41.9833, "id": "126398", "name": "Silver spinyfin", "thumb": "tn_Diarg_u5.jpg", "sprite": "sp-anchoviella_juruasanga.png", "group": "other", "rarity": 1, "waterType": "Saltwater"}, {"lat": 5.9833, "lng": -41.4583, "id": "105840", "name": "Longfin mako", "thumb": "tn_Ispau_u2.jpg", "sprite": "sp-great_white_shark.png", "group": "shark", "rarity": 1, "waterType": "Saltwater"}, {"lat": 5.7044, "lng": -39.5419, "id": "154291", "name": "Barbus", "sprite": "sp-enteromius.png", "group": "carp_minnow", "rarity": 1}, {"lat": 6.1583, "lng": -40.8467, "id": "126949", "name": "Atlantic sailfish", "thumb": "tn_Isalb_u2.jpg", "sprite": "sp-istiophorus.png", "group": "swordfish", "rarity": 1, "waterType": "Saltwater"}, {"lat": 6.4167, "lng": -40.3417, "id": "126867", "name": "Oilfish", "thumb": "tn_Rupre_f0.jpg", "sprite": "sp-anchoviella_juruasanga.png", "group": "other", "rarity": 1, "waterType": "Saltwater"}, {"lat": 6.1479, "lng": -40.6746, "id": "105801", "name": "Blue shark", "thumb": "tn_Prgla_j1.jpg", "sprite": "sp-great_white_shark.png", "group": "shark", "rarity": 1, "waterType": "Brackish"}, {"lat": 6.3222, "lng": -40.0324, "id": "217632", "name": "Crocodile shark", "thumb": "tn_Pskam_u0.jpg", "sprite": "sp-great_white_shark.png", "group": "shark", "rarity": 1, "waterType": "Saltwater"}, {"lat": 6.0056, "lng": -40.5917, "id": "126233", "name": "Mola", "sprite": "sp-ocean_sunfish_mola_mola.png", "group": "sunfish", "rarity": 1}, {"lat": 5.9833, "lng": -40.7667, "id": "125571", "name": "Trichiuridae", "sprite": "sp-anchoviella_juruasanga.png", "group": "other", "rarity": 1}, {"lat": 6.017, "lng": -41.517, "id": "1056495", "name": "Challengerosergia talismani", "sprite": "sp-american_lobster.png", "group": "crab_lobster", "rarity": 1}, {"lat": 8.1317, "lng": -40.2155, "id": "711518", "name": "Lotostomoides calomorpha", "sprite": "sp-anchoviella_juruasanga.png", "group": "other", "rarity": 1}, {"lat": 6.0167, "lng": -40.95, "id": "125960", "name": "Coryphaena", "sprite": "sp-anchoviella_juruasanga.png", "group": "other", "rarity": 1}, {"lat": 6.4499, "lng": -40.6345, "id": "127094", "name": "Swordfish", "thumb": "tn_Xigla_u5.jpg", "sprite": "sp-blue_marlin.png", "group": "swordfish", "rarity": 1, "waterType": "Saltwater"}, {"lat": 6.86, "lng": -41.6, "id": "159340", "name": "King mackerel", "thumb": "tn_Sccav_u3.jpg", "sprite": "sp-bluefin_tuna.png", "group": "tuna_mackerel", "rarity": 1, "waterType": "Saltwater"}, {"lat": 7.42, "lng": -41.9833, "id": "127307", "name": "Pacific hatchet fish", "thumb": "tn_Araff_u0.jpg", "sprite": "sp-anchoviella_juruasanga.png", "group": "other", "rarity": 1, "waterType": "Saltwater"}, {"lat": 6.5511, "lng": -40.9227, "id": "127028", "name": "Bigeye tuna", "thumb": "tn_Thobe_u1.jpg", "sprite": "sp-bluefin_tuna.png", "group": "tuna_mackerel", "rarity": 1, "waterType": "Saltwater"}, {"lat": 6.05, "lng": -39.55, "id": "126954", "name": "Longbill spearfish", "thumb": "tn_Tepfl_u1.jpg", "sprite": "sp-blue_marlin.png", "group": "swordfish", "rarity": 1, "waterType": "Saltwater"}, {"lat": 6.1238, "lng": -40.3579, "id": "368409", "name": "Batoidea", "sprite": "sp-anchoviella_juruasanga.png", "group": "other", "rarity": 1}, {"lat": 7.0733, "lng": -40.46, "id": "137165", "name": "Sterna paradisaea", "sprite": "sp-anchoviella_juruasanga.png", "group": "other", "rarity": 1}, {"lat": 6.9647, "lng": -40.8768, "id": "127014", "name": "Wahoo", "thumb": "tn_Acsol_ua.jpg", "sprite": "sp-bluefin_tuna.png", "group": "tuna_mackerel", "rarity": 1, "waterType": "Saltwater"}, {"lat": 6.017, "lng": -41.517, "id": "514121", "name": "Deosergestes henseni", "sprite": "sp-american_lobster.png", "group": "crab_lobster", "rarity": 1}, {"lat": 7.42, "lng": -41.9833, "id": "127276", "name": "Longjaw bigscale", "thumb": "tn_Scrob_u0.jpg", "sprite": "sp-anchoviella_juruasanga.png", "group": "other", "rarity": 1, "waterType": "Saltwater"}, {"lat": 7.42, "lng": -41.9833, "id": "127309", "name": "Half-naked hatchetfish", "thumb": "tn_Arhem_u6.jpg", "sprite": "sp-anchoviella_juruasanga.png", "group": "other", "rarity": 1, "waterType": "Saltwater"}, {"lat": 6.5933, "lng": -40.7957, "id": "126863", "name": "Escolar", "thumb": "tn_Lefla_u1.jpg", "sprite": "sp-anchoviella_juruasanga.png", "group": "other", "rarity": 1, "waterType": "Saltwater"}, {"lat": 7.42, "lng": -41.9833, "id": "127314", "name": "Diaphanous hatchet fish", "thumb": "tn_Stdia_u7.jpg", "sprite": "sp-anchoviella_juruasanga.png", "group": "other", "rarity": 1, "waterType": "Saltwater"}, {"lat": 6.9126, "lng": -40.7995, "id": "126846", "name": "Common dolphinfish", "thumb": "tn_Cohip_ud.jpg", "sprite": "sp-anchoviella_juruasanga.png", "group": "other", "rarity": 1, "waterType": "Brackish"}, {"lat": 6.8487, "lng": -40.8999, "id": "127026", "name": "Albacore", "thumb": "tn_Thala_u4.jpg", "sprite": "sp-bluefin_tuna.png", "group": "tuna_mackerel", "rarity": 1, "waterType": "Saltwater"}, {"lat": 6.017, "lng": -41.517, "id": "514123", "name": "Deosergestes paraseminudus", "sprite": "sp-american_lobster.png", "group": "crab_lobster", "rarity": 1}, {"lat": 6.5317, "lng": -40.8867, "id": "158775", "name": "Slender cuskeel", "thumb": "tn_Pomil_u1.gif", "sprite": "sp-anchoviella_juruasanga.png", "group": "other", "rarity": 1, "waterType": "Saltwater"}, {"lat": 6.0883, "lng": -40.6194, "id": "126950", "name": "Blue marlin", "thumb": "tn_Manig_f0.jpg", "sprite": "sp-blue_marlin.png", "group": "swordfish", "rarity": 1, "waterType": "Saltwater"}, {"lat": 5.8917, "lng": -41.5333, "id": "125559", "name": "Scombridae", "sprite": "sp-bluefin_tuna.png", "group": "tuna_mackerel", "rarity": 1}, {"lat": 7.42, "lng": -41.9833, "id": "125727", "name": "Bregmaceros", "sprite": "sp-anchoviella_juruasanga.png", "group": "other", "rarity": 1}, {"lat": 6.017, "lng": -41.517, "id": "514130", "name": "Neosergestes edwardsii", "sprite": "sp-american_lobster.png", "group": "crab_lobster", "rarity": 1}, {"lat": 6.85, "lng": -39.9167, "id": "712906", "name": "Atlantic white marlin", "thumb": "tn_Tealb_u1.jpg", "sprite": "sp-blue_marlin.png", "group": "swordfish", "rarity": 1, "waterType": "Saltwater"}, {"lat": 6.0858, "lng": -40.9789, "id": "125661", "name": "Alepisaurus", "sprite": "sp-anchoviella_juruasanga.png", "group": "other", "rarity": 1}, {"lat": 6.0017, "lng": -40.9991, "id": "105794", "name": "Oceanic whitetip shark", "thumb": "tn_Calon_u8.jpg", "sprite": "sp-great_white_shark.png", "group": "shark", "rarity": 1, "waterType": "Saltwater"}, {"lat": 6.6675, "lng": -39.6383, "id": "127018", "name": "Skipjack tuna", "thumb": "tn_Kapel_m0.jpg", "sprite": "sp-bluefin_tuna.png", "group": "tuna_mackerel", "rarity": 1, "waterType": "Saltwater"}, {"lat": 6.5317, "lng": -40.8867, "id": "272787", "name": "Abyssal assfish", "thumb": "tn_Bacom_u2.jpg", "sprite": "sp-anchoviella_juruasanga.png", "group": "other", "rarity": 1, "waterType": "Saltwater"}, {"lat": 7.42, "lng": -41.9833, "id": "127358", "name": "Stoplight loosejaw", "thumb": "tn_Manig_u6.jpg", "sprite": "sp-anchoviella_juruasanga.png", "group": "other", "rarity": 1, "waterType": "Saltwater"}, {"lat": 7.42, "lng": -41.9833, "id": "127315", "name": "Highlight hatchetfish", "thumb": "tn_Stpse_u3.jpg", "sprite": "sp-anchoviella_juruasanga.png", "group": "other", "rarity": 1, "waterType": "Saltwater"}]}