{"zoom": 7, "x": 50, "y": 40, "points": [{"lat": 55.309, "lng": -38.388, "id": "149093", "name": "Thalassionema nitzschioides", "sprite": "sp-anchoviella_juruasanga.png", "group": "other", "rarity": 1}, {"lat": 55.521, "lng": -36.591, "id": "104555", "name": "Euchaeta spinosa", "sprite": "sp-anchoviella_juruasanga.png", "group": "other", "rarity": 1}, {"lat": 55.1307, "lng": -38.4317, "id": "163348", "name": "Rhizosolenia semispina", "sprite": "sp-anchoviella_juruasanga.png", "group": "other", "rarity": 1}, {"lat": 55.604, "lng": -36.569, "id": "107603", "name": "Systellaspis braueri", "sprite": "sp-american_lobster.png", "group": "crab_lobster", "rarity": 1}, {"lat": 55.3252, "lng": -38.8272, "id": "129715", "name": "Tomopteris", "sprite": "sp-anchoviella_juruasanga.png", "group": "other", "rarity": 1}, {"lat": 55.5412, "lng": -37.0131, "id": "104579", "name": "Heterorhabdus norvegicus", "sprite": "sp-anchoviella_juruasanga.png", "group": "other", "rarity": 1}, {"lat": 55.2691, "lng": -38.4455, "id": "180727", "name": "Navicula planamembranacea", "sprite": "sp-anchoviella_juruasanga.png", "group": "other", "rarity": 1}, {"lat": 55.1697, "lng": -38.4005, "id": "370366", "name": "Chaetoceros (Hyalochaete)", "sprite": "sp-anchoviella_juruasanga.png", "group": "other", "rarity": 1}, {"lat": 55.522, "lng": -36.581, "id": "117615", "name": "Botrynema brucei", "sprite": "sp-anchoviella_juruasanga.png", "group": "other", "rarity": 1}, {"lat": 55.1774, "lng": -38.2928, "id": "137156", "name": "Rissa tridactyla", "sprite": "sp-anchoviella_juruasanga.png", "group": "other", "rarity": 1}, {"lat": 55.1733, "lng": -37.71, "id": "109566", "name": "Prorocentrum", "sprite": "sp-anchoviella_juruasanga.png", "group": "other", "rarity": 1}, {"lat": 54.7667, "lng": -37.5542, "id": "137142", "name": "Larus fuscus", "sprite": "sp-anchoviella_juruasanga.png", "group": "other", "rarity": 1}, {"lat": 55.521, "lng": -36.591, "id": "117849", "name": "Aglantha digitale", "sprite": "sp-anchoviella_juruasanga.png", "group": "other", "rarity": 1}, {"lat": 55.604, "lng": -36.569, "id": "180730", "name": "Scypholanceola aestiva", "sprite": "sp-american_lobster.png", "group": "crab_lobster", "rarity": 1}, {"lat": 55.609, "lng": -36.57, "id": "105415", "name": "Eukrohnia fowleri", "sprite": "sp-anchoviella_juruasanga.png", "group": "other", "rarity": 1}, {"lat": 55.521, "lng": -36.591, "id": "345251", "name": "Pseudoamallothrix ovata", "sprite": "sp-anchoviella_juruasanga.png", "group": "other", "rarity": 1}, {"lat": 55.521, "lng": -36.591, "id": "359879", "name": "Paraeuchaeta tonsa", "sprite": "sp-anchoviella_juruasanga.png", "group": "other", "rarity": 1}, {"lat": 55.7369, "lng": -39.1073, "id": "196813", "name": "Neodenticula seminae", "sprite": "sp-anchoviella_juruasanga.png", "group": "other", "rarity": 1}, {"lat": 55.363, "lng": -38.4528, "id": "109553", "name": "Protoperidinium", "sprite": "sp-anchoviella_juruasanga.png", "group": "other", "rarity": 1}, {"lat": 55.522, "lng": -36.581, "id": "104790", "name": "Scaphocalanus brevicornis", "sprite": "sp-anchoviella_juruasanga.png", "group": "other", "rarity": 1}, {"lat": 55.697, "lng": -39.163, "id": "231887", "name": "Rhizosolenia indica", "sprite": "sp-anchoviella_juruasanga.png", "group": "other", "rarity": 1}, {"lat": 55.0733, "lng": -38.0967, "id": "746007", "name": "Pleuromamma robusta robusta", "sprite": "sp-anchoviella_juruasanga.png", "group": "other", "rarity": 1}, {"lat": 55.2153, "lng": -38.4339, "id": "1128", "name": "Euphausiacea", "sprite": "sp-antarctic_krill.png", "group": "shrimp", "rarity": 1}, {"lat": 55.521, "lng": -36.591, "id": "104597", "name": "Lucicutia flavicornis", "sprite": "sp-anchoviella_juruasanga.png", "group": "other", "rarity": 1}, {"lat": 55.0039, "lng": -37.7583, "id": "1130", "name": "Decapoda", "sprite": "sp-american_lobster.png", "group": "crab_lobster", "rarity": 1}, {"lat": 55.604, "lng": -36.569, "id": "584920", "name": "Amalopenaeus elegans", "sprite": "sp-american_lobster.png", "group": "crab_lobster", "rarity": 1}, {"lat": 55.604, "lng": -36.569, "id": "107581", "name": "Acanthephyra pelagica", "sprite": "sp-american_lobster.png", "group": "crab_lobster", "rarity": 1}, {"lat": 55.604, "lng": -36.569, "id": "126617", "name": "Rakery beaconlamp", "thumb": "tn_Lamac_u0.gif", "sprite": "sp-anchoviella_juruasanga.png", "group": "other", "rarity": 1, "waterType": "Saltwater"}, {"lat": 55.5263, "lng": -36.5899, "id": "137088", "name": "Balaenoptera borealis", "sprite": "sp-blue_whale.png", "group": "whale", "rarity": 1}, {"lat": 55.521, "lng": -36.591, "id": "135414", "name": "Crystallophyes amygdalina", "sprite": "sp-anchoviella_juruasanga.png", "group": "other", "rarity": 1}, {"lat": 55.521, "lng": -36.591, "id": "104276", "name": "Aetideus giesbrechti", "sprite": "sp-anchoviella_juruasanga.png", "group": "other", "rarity": 1}, {"lat": 55.521, "lng": -36.591, "id": "104337", "name": "Pseudochirella pustulifera", "sprite": "sp-anchoviella_juruasanga.png", "group": "other", "rarity": 1}, {"lat": 55.2, "lng": -38.5288, "id": "149142", "name": "Navicula", "sprite": "sp-anchoviella_juruasanga.png", "group": "other", "rarity": 1}, {"lat": 55.3953, "lng": -38.7877, "id": "119270", "name": "Nitzschia", "sprite": "sp-anchoviella_juruasanga.png", "group": "other", "rarity": 1}, {"lat": 55.604, "lng": -36.569, "id": "237421", "name": "Parandania gigantea", "sprite": "sp-american_lobster.png", "group": "crab_lobster", "rarity": 1}, {"lat": 55.6065, "lng": -36.5695, "id": "398363", "name": "Spark anglemouth", "thumb": "tn_Gobat_u2.jpg", "sprite": "sp-anchoviella_juruasanga.png", "group": "other", "rarity": 1, "waterType": "Saltwater"}, {"lat": 55.5217, "lng": -36.5843, "id": "237965", "name": "Gaetanus tenuispinus", "sprite": "sp-anchoviella_juruasanga.png", "group": "other", "rarity": 1}, {"lat": 55.58, "lng": -38.8995, "id": "163261", "name": "Lauderia mediterranea", "sprite": "sp-anchoviella_juruasanga.png", "group": "other", "rarity": 1}, {"lat": 55.737, "lng": -39.128, "id": "104086", "name": "Euchaetidae", "sprite": "sp-anchoviella_juruasanga.png", "group": "other", "rarity": 1}, {"lat": 55.3279, "lng": -37.649, "id": "148992", "name": "Coscinodiscus concinnus", "sprite": "sp-anchoviella_juruasanga.png", "group": "other", "rarity": 1}, {"lat": 54.8945, "lng": -38.9407, "id": "163224", "name": "Lauderia confervacea", "sprite": "sp-anchoviella_juruasanga.png", "group": "other", "rarity": 1}, {"lat": 55.521, "lng": -36.591, "id": "104543", "name": "Rhincalanus nasutus", "sprite": "sp-anchoviella_juruasanga.png", "group": "other", "rarity": 1}, {"lat": 55.576, "lng": -39.258, "id": "149168", "name": "Proboscia alata", "sprite": "sp-anchoviella_juruasanga.png", "group": "other", "rarity": 1}, {"lat": 55.604, "lng": -36.569, "id": "156451", "name": "Themisto compressa", "sprite": "sp-american_lobster.png", "group": "crab_lobster", "rarity": 1}, {"lat": 55.604, "lng": -36.569, "id": "102557", "name": "Cyphocaris richardi", "sprite": "sp-american_lobster.png", "group": "crab_lobster", "rarity": 1}, {"lat": 55.0003, "lng": -37.0222, "id": "149028", "name": "Fragilaria", "sprite": "sp-anchoviella_juruasanga.png", "group": "other", "rarity": 1}, {"lat": 55.6057, "lng": -36.5693, "id": "126719", "name": "Goiter blacksmelt", "thumb": "tn_Baeur_u1.jpg", "sprite": "sp-anchoviella_juruasanga.png", "group": "other", "rarity": 1, "waterType": "Saltwater"}, {"lat": 55.521, "lng": -36.591, "id": "135415", "name": "Heteropyramis crystallina", "sprite": "sp-anchoviella_juruasanga.png", "group": "other", "rarity": 1}, {"lat": 55.1681, "lng": -38.4548, "id": "495363", "name": "Tripos muelleri", "sprite": "sp-anchoviella_juruasanga.png", "group": "other", "rarity": 1}, {"lat": 55.2345, "lng": -38.4147, "id": "104467", "name": "Calanus hyperboreus", "sprite": "sp-anchoviella_juruasanga.png", "group": "other", "rarity": 1}, {"lat": 55.2343, "lng": -38.6229, "id": "370367", "name": "Chaetoceros (Phaeoceros)", "sprite": "sp-anchoviella_juruasanga.png", "group": "other", "rarity": 1}, {"lat": 54.2533, "lng": -37.955, "id": "596242", "name": "Pleuromamma abdominalis abdominalis", "sprite": "sp-anchoviella_juruasanga.png", "group": "other", "rarity": 1}, {"lat": 55.299, "lng": -38.5795, "id": "104108", "name": "Acartia", "sprite": "sp-anchoviella_juruasanga.png", "group": "other", "rarity": 1}, {"lat": 55.2548, "lng": -38.5069, "id": "1080", "name": "Copepoda", "sprite": "sp-anchoviella_juruasanga.png", "group": "other", "rarity": 1}, {"lat": 55.604, "lng": -36.569, "id": "377752", "name": "Sergia remipes", "sprite": "sp-american_lobster.png", "group": "crab_lobster", "rarity": 1}, {"lat": 55.523, "lng": -36.571, "id": "254602", "name": "Gaetanus brevispinus", "sprite": "sp-anchoviella_juruasanga.png", "group": "other", "rarity": 1}, {"lat": 55.2302, "lng": -38.2741, "id": "104464", "name": "Calanus finmarchicus", "sprite": "sp-anchoviella_juruasanga.png", "group": "other", "rarity": 1}, {"lat": 55.2853, "lng": -38.6317, "id": "2081", "name": "Chaetognatha", "sprite": "sp-anchoviella_juruasanga.png", "group": "other", "rarity": 1}, {"lat": 55.7683, "lng": -38.93, "id": "104515", "name": "Pseudocalanus elongatus", "sprite": "sp-anchoviella_juruasanga.png", "group": "other", "rarity": 1}, {"lat": 55.4842, "lng": -38.3492, "id": "178597", "name": "Coccolithaceae", "sprite": "sp-anchoviella_juruasanga.png", "group": "other", "rarity": 1}, {"lat": 55.2288, "lng": -38.7499, "id": "139178", "name": "Clione limacina", "sprite": "sp-cowrie_shell.png", "group": "sea_snail", "rarity": 1}, {"lat": 55.1137, "lng": -38.665, "id": "104465", "name": "Calanus glacialis", "sprite": "sp-anchoviella_juruasanga.png", "group": "other", "rarity": 1}, {"lat": 55.604, "lng": -36.569, "id": "127268", "name": "Melamphaes microps", "thumb": "tn_Memic_u0.jpg", "sprite": "sp-anchoviella_juruasanga.png", "group": "other", "rarity": 1, "waterType": "Saltwater"}, {"lat": 55.5217, "lng": -36.5835, "id": "1509944", "name": "Scolecithricella minor minor", "sprite": "sp-anchoviella_juruasanga.png", "group": "other", "rarity": 1}, {"lat": 55.521, "lng": -36.591, "id": "104786", "name": "Scaphocalanus affinis", "sprite": "sp-anchoviella_juruasanga.png", "group": "other", "rarity": 1}, {"lat": 55.471, "lng": -38.6656, "id": "837453", "name": "Tripos horridus", "sprite": "sp-anchoviella_juruasanga.png", "group": "other", "rarity": 1}, {"lat": 55.6067, "lng": -39.1717, "id": "104174", "name": "Euchaeta", "sprite": "sp-anchoviella_juruasanga.png", "group": "other", "rarity": 1}, {"lat": 55.4472, "lng": -37.439, "id": "104632", "name": "Metridia longa", "sprite": "sp-anchoviella_juruasanga.png", "group": "other", "rarity": 1}, {"lat": 54.2433, "lng": -38.035, "id": "1806", "name": "Echinodermata", "sprite": "sp-sea_cucumber.png", "group": "starfish", "rarity": 1}, {"lat": 55.521, "lng": -36.591, "id": "135418", "name": "Dimophyes arctica", "sprite": "sp-anchoviella_juruasanga.png", "group": "other", "rarity": 1}, {"lat": 55.523, "lng": -36.571, "id": "135412", "name": "Clausophyes moserae", "sprite": "sp-anchoviella_juruasanga.png", "group": "other", "rarity": 1}, {"lat": 55.154, "lng": -38.4538, "id": "148912", "name": "Thalassiosira", "sprite": "sp-anchoviella_juruasanga.png", "group": "other", "rarity": 1}, {"lat": 54.4667, "lng": -36.9667, "id": "137041", "name": "Uria", "sprite": "sp-anchoviella_juruasanga.png", "group": "other", "rarity": 1}, {"lat": 55.604, "lng": -36.569, "id": "102564", "name": "Eurythenes obesus", "sprite": "sp-american_lobster.png", "group": "crab_lobster", "rarity": 1}, {"lat": 55.521, "lng": -36.591, "id": "104267", "name": "Aetideopsis armata", "sprite": "sp-anchoviella_juruasanga.png", "group": "other", "rarity": 1}, {"lat": 55.3829, "lng": -38.8283, "id": "138007", "name": "Fiona", "sprite": "sp-cowrie_shell.png", "group": "sea_snail", "rarity": 1}, {"lat": 55.1749, "lng": -38.2721, "id": "149004", "name": "Cylindrotheca closterium", "sprite": "sp-anchoviella_juruasanga.png", "group": "other", "rarity": 1}, {"lat": 55.3568, "lng": -38.8451, "id": "106485", "name": "Oithona", "sprite": "sp-anchoviella_juruasanga.png", "group": "other", "rarity": 1}, {"lat": 55.3252, "lng": -38.318, "id": "104566", "name": "Paraeuchaeta norvegica", "sprite": "sp-anchoviella_juruasanga.png", "group": "other", "rarity": 1}, {"lat": 55.1059, "lng": -37.5296, "id": "104191", "name": "Pleuromamma", "sprite": "sp-anchoviella_juruasanga.png", "group": "other", "rarity": 1}, {"lat": 55.1748, "lng": -38.6554, "id": "841259", "name": "Tripos longipes", "sprite": "sp-anchoviella_juruasanga.png", "group": "other", "rarity": 1}, {"lat": 55.362, "lng": -38.6117, "id": "840626", "name": "Tripos fusus", "sprite": "sp-anchoviella_juruasanga.png", "group": "other", "rarity": 1}, {"lat": 55.319, "lng": -38.5582, "id": "149629", "name": "Rhizosolenia styliformis", "sprite": "sp-anchoviella_juruasanga.png", "group": "other", "rarity": 1}, {"lat": 55.53, "lng": -39.34, "id": "106267", "name": "Evadne", "sprite": "sp-anchoviella_juruasanga.png", "group": "other", "rarity": 1}, {"lat": 54.9567, "lng": -38.0017, "id": "149306", "name": "Bellerochea malleus", "sprite": "sp-anchoviella_juruasanga.png", "group": "other", "rarity": 1}, {"lat": 55.2072, "lng": -38.8182, "id": "104229", "name": "Scolecithricella", "sprite": "sp-anchoviella_juruasanga.png", "group": "other", "rarity": 1}, {"lat": 55.604, "lng": -36.569, "id": "515738", "name": "Eusergestes arcticus", "sprite": "sp-american_lobster.png", "group": "crab_lobster", "rarity": 1}, {"lat": 55.523, "lng": -36.571, "id": "117504", "name": "Solmissus incisa", "sprite": "sp-anchoviella_juruasanga.png", "group": "other", "rarity": 1}, {"lat": 55.3883, "lng": -37.1133, "id": "179785", "name": "Dactyliosolen antarcticus", "sprite": "sp-anchoviella_juruasanga.png", "group": "other", "rarity": 1}, {"lat": 54.8167, "lng": -37.6333, "id": "137195", "name": "Fulmarus glacialis", "sprite": "sp-anchoviella_juruasanga.png", "group": "other", "rarity": 1}, {"lat": 55.32, "lng": -38.9275, "id": "160595", "name": "Pterosperma", "sprite": "sp-anchoviella_juruasanga.png", "group": "other", "rarity": 1}, {"lat": 55.522, "lng": -36.581, "id": "104596", "name": "Lucicutia curta", "sprite": "sp-anchoviella_juruasanga.png", "group": "other", "rarity": 1}, {"lat": 55.604, "lng": -36.569, "id": "107673", "name": "Parapasiphae sulcatifrons", "sprite": "sp-american_lobster.png", "group": "crab_lobster", "rarity": 1}, {"lat": 54.7983, "lng": -39.12, "id": "1371", "name": "Siphonophorae", "sprite": "sp-anchoviella_juruasanga.png", "group": "other", "rarity": 1}, {"lat": 55.609, "lng": -36.57, "id": "127276", "name": "Longjaw bigscale", "thumb": "tn_Scrob_u0.jpg", "sprite": "sp-anchoviella_juruasanga.png", "group": "other", "rarity": 1, "waterType": "Saltwater"}, {"lat": 55.4933, "lng": -39.335, "id": "149110", "name": "Corethron criophilum", "sprite": "sp-anchoviella_juruasanga.png", "group": "other", "rarity": 1}, {"lat": 55.5217, "lng": -36.5843, "id": "220908", "name": "Lucicutia grandis", "sprite": "sp-anchoviella_juruasanga.png", "group": "other", "rarity": 1}, {"lat": 55.6725, "lng": -38.54, "id": "104638", "name": "Pleuromamma borealis", "sprite": "sp-anchoviella_juruasanga.png", "group": "other", "rarity": 1}, {"lat": 55.521, "lng": -36.591, "id": "196593", "name": "Gilia reticulata", "sprite": "sp-anchoviella_juruasanga.png", "group": "other", "rarity": 1}, {"lat": 55.522, "lng": -36.581, "id": "104635", "name": "Metridia princeps", "sprite": "sp-anchoviella_juruasanga.png", "group": "other", "rarity": 1}, {"lat": 55.521, "lng": -36.591, "id": "104290", "name": "Chiridius gracilis", "sprite": "sp-anchoviella_juruasanga.png", "group": "other", "rarity": 1}, {"lat": 55.523, "lng": -36.571, "id": "104799", "name": "Scaphocalanus medius", "sprite": "sp-anchoviella_juruasanga.png", "group": "other", "rarity": 1}, {"lat": 55.271, "lng": -38.073, "id": "148917", "name": "Coscinodiscus", "sprite": "sp-anchoviella_juruasanga.png", "group": "other", "rarity": 1}, {"lat": 55.2382, "lng": -38.4773, "id": "163030", "name": "Phaeoceros", "sprite": "sp-anchoviella_juruasanga.png", "group": "other", "rarity": 1}, {"lat": 54.8557, "lng": -38.1814, "id": "137165", "name": "Sterna paradisaea", "sprite": "sp-anchoviella_juruasanga.png", "group": "other", "rarity": 1}, {"lat": 55.522, "lng": -36.581, "id": "104270", "name": "Aetideopsis multiserrata", "sprite": "sp-anchoviella_juruasanga.png", "group": "other", "rarity": 1}, {"lat": 55.3053, "lng": -38.6814, "id": "156509", "name": "Ceratium arcticum", "sprite": "sp-anchoviella_juruasanga.png", "group": "other", "rarity": 1}, {"lat": 55.604, "lng": -36.569, "id": "159665", "name": "Dysalotus alcocki", "thumb": "tn_Dyalc_u0.gif", "sprite": "sp-anchoviella_juruasanga.png", "group": "other", "rarity": 1, "waterType": "Saltwater"}, {"lat": 55.521, "lng": -36.591, "id": "104342", "name": "Undeuchaeta major", "sprite": "sp-anchoviella_juruasanga.png", "group": "other", "rarity": 1}, {"lat": 55.521, "lng": -36.591, "id": "345244", "name": "Pseudhaloptilus eurygnathus", "sprite": "sp-anchoviella_juruasanga.png", "group": "other", "rarity": 1}, {"lat": 55.4921, "lng": -38.8008, "id": "103357", "name": "Appendicularia", "sprite": "sp-anchoviella_juruasanga.png", "group": "other", "rarity": 1}, {"lat": 55.609, "lng": -36.57, "id": "105431", "name": "Caecosagitta macrocephala", "sprite": "sp-anchoviella_juruasanga.png", "group": "other", "rarity": 1}, {"lat": 55.521, "lng": -36.591, "id": "135496", "name": "Nanomia cara", "sprite": "sp-anchoviella_juruasanga.png", "group": "other", "rarity": 1}, {"lat": 55.604, "lng": -36.569, "id": "126319", "name": "Stout sawpalate", "thumb": "tn_Sebea_u2.jpg", "sprite": "sp-electric_eel.png", "group": "eel", "rarity": 1, "waterType": "Saltwater"}, {"lat": 55.2611, "lng": -38.6158, "id": "13703", "name": "Thecosomata", "sprite": "sp-cowrie_shell.png", "group": "sea_snail", "rarity": 1}, {"lat": 55.521, "lng": -36.591, "id": "104643", "name": "Pleuromamma xiphias", "sprite": "sp-anchoviella_juruasanga.png", "group": "other", "rarity": 1}, {"lat": 54.4667, "lng": -36.9667, "id": "137134", "name": "Uria lomvia", "sprite": "sp-anchoviella_juruasanga.png", "group": "other", "rarity": 1}, {"lat": 55.7483, "lng": -37.19, "id": "1102", "name": "Harpacticoida", "sprite": "sp-anchoviella_juruasanga.png", "group": "other", "rarity": 1}, {"lat": 54.8917, "lng": -38.4722, "id": "149055", "name": "Paralia sulcata", "sprite": "sp-anchoviella_juruasanga.png", "group": "other", "rarity": 1}, {"lat": 55.2635, "lng": -38.4425, "id": "149152", "name": "Pseudo-nitzschia seriata", "sprite": "sp-anchoviella_juruasanga.png", "group": "other", "rarity": 1}]}