{"zoom": 7, "x": 50, "y": 54, "points": [{"lat": 26.217, "lng": -37.783, "id": "107582", "name": "Acanthephyra purpurea", "sprite": "sp-american_lobster.png", "group": "crab_lobster", "rarity": 1}, {"lat": 26.0335, "lng": -37.2415, "id": "1056501", "name": "Gardinerosergia splendens", "sprite": "sp-american_lobster.png", "group": "crab_lobster", "rarity": 1}, {"lat": 25.867, "lng": -36.8, "id": "107602", "name": "Oplophorus spinosus", "sprite": "sp-american_lobster.png", "group": "crab_lobster", "rarity": 1}, {"lat": 26.042, "lng": -37.2915, "id": "514114", "name": "Allosergestes sargassi", "sprite": "sp-american_lobster.png", "group": "crab_lobster", "rarity": 1}, {"lat": 26.617, "lng": -36.583, "id": "128471", "name": "Conchoecilla daphnoides minor", "sprite": "sp-anchoviella_juruasanga.png", "group": "other", "rarity": 1}, {"lat": 24.9083, "lng": -38.9833, "id": "127306", "name": "Lovely hatchetfish", "thumb": "tn_Aracu_u4.jpg", "sprite": "sp-anchoviella_juruasanga.png", "group": "other", "rarity": 1, "waterType": "Saltwater"}, {"lat": 26.617, "lng": -36.583, "id": "127793", "name": "Halocypria globosa", "sprite": "sp-anchoviella_juruasanga.png", "group": "other", "rarity": 1}, {"lat": 26.2085, "lng": -37.733, "id": "107098", "name": "Gennadas valens", "sprite": "sp-american_lobster.png", "group": "crab_lobster", "rarity": 1}, {"lat": 26.6167, "lng": -36.5833, "id": "127778", "name": "Conchoecissa imbricata", "sprite": "sp-anchoviella_juruasanga.png", "group": "other", "rarity": 1}, {"lat": 26.042, "lng": -37.2915, "id": "107605", "name": "Systellaspis debilis", "sprite": "sp-american_lobster.png", "group": "crab_lobster", "rarity": 1}, {"lat": 26.217, "lng": -37.783, "id": "107100", "name": "Funchalia villosa", "sprite": "sp-american_lobster.png", "group": "crab_lobster", "rarity": 1}, {"lat": 26.2085, "lng": -37.733, "id": "107127", "name": "Sergestes atlanticus", "sprite": "sp-american_lobster.png", "group": "crab_lobster", "rarity": 1}, {"lat": 26.705, "lng": -37.297, "id": "137165", "name": "Sterna paradisaea", "sprite": "sp-anchoviella_juruasanga.png", "group": "other", "rarity": 1}, {"lat": 26.85, "lng": -36.683, "id": "269664", "name": "Leptonotus", "sprite": "sp-cosmocampus_coccineus.png", "group": "seahorse", "rarity": 1}, {"lat": 24.9083, "lng": -38.9833, "id": "127309", "name": "Half-naked hatchetfish", "thumb": "tn_Arhem_u6.jpg", "sprite": "sp-anchoviella_juruasanga.png", "group": "other", "rarity": 1, "waterType": "Saltwater"}, {"lat": 25.867, "lng": -36.8, "id": "514112", "name": "Allosergestes pectinatus", "sprite": "sp-american_lobster.png", "group": "crab_lobster", "rarity": 1}, {"lat": 25.867, "lng": -36.8, "id": "514136", "name": "Parasergestes armatus", "sprite": "sp-american_lobster.png", "group": "crab_lobster", "rarity": 1}, {"lat": 25.867, "lng": -36.8, "id": "514121", "name": "Deosergestes henseni", "sprite": "sp-american_lobster.png", "group": "crab_lobster", "rarity": 1}, {"lat": 26.617, "lng": -36.583, "id": "127800", "name": "Macroconchoecia reticulata", "sprite": "sp-anchoviella_juruasanga.png", "group": "other", "rarity": 1}, {"lat": 26.85, "lng": -37.4167, "id": "183253", "name": "Macrostylis truncatex", "sprite": "sp-american_lobster.png", "group": "crab_lobster", "rarity": 1}, {"lat": 25.867, "lng": -36.8, "id": "107097", "name": "Gennadas tinayrei", "sprite": "sp-american_lobster.png", "group": "crab_lobster", "rarity": 1}, {"lat": 26.6167, "lng": -36.5833, "id": "127768", "name": "Conchoecetta acuminata", "sprite": "sp-anchoviella_juruasanga.png", "group": "other", "rarity": 1}, {"lat": 25.867, "lng": -36.8, "id": "183350", "name": "Plesionika richardi", "sprite": "sp-american_lobster.png", "group": "crab_lobster", "rarity": 1}, {"lat": 26.217, "lng": -37.783, "id": "1056509", "name": "Phorcosergia filicta", "sprite": "sp-american_lobster.png", "group": "crab_lobster", "rarity": 1}, {"lat": 25.867, "lng": -36.8, "id": "514141", "name": "Parasergestes vigilax", "sprite": "sp-american_lobster.png", "group": "crab_lobster", "rarity": 1}]}