{"zoom": 7, "x": 52, "y": 77, "points": [{"lat": -36.0792, "lng": -32.3772, "id": "212583", "name": "Diomedea exulans", "sprite": "sp-anchoviella_juruasanga.png", "group": "other", "rarity": 1}, {"lat": -34.6, "lng": -32.1167, "id": "159069", "name": "Thalassarche chlororhynchos", "sprite": "sp-anchoviella_juruasanga.png", "group": "other", "rarity": 1}, {"lat": -35.7007, "lng": -32.8076, "id": "220222", "name": "Eubalaena australis", "sprite": "sp-blue_whale.png", "group": "whale", "rarity": 1}, {"lat": -34.9939, "lng": -33.5418, "id": "160572", "name": "Synechococcus", "sprite": "sp-anchoviella_juruasanga.png", "group": "other", "rarity": 1}, {"lat": -34.6, "lng": -32.1167, "id": "212651", "name": "Procellaria aequinoctialis", "sprite": "sp-anchoviella_juruasanga.png", "group": "other", "rarity": 1}, {"lat": -35.083, "lng": -32.417, "id": "477928", "name": "Upogebia noronhensis", "sprite": "sp-american_lobster.png", "group": "crab_lobster", "rarity": 1}, {"lat": -35.6774, "lng": -31.1113, "id": "137119", "name": "Physeter macrocephalus", "sprite": "sp-blue_whale.png", "group": "whale", "rarity": 1}, {"lat": -34.9939, "lng": -33.5418, "id": "6", "name": "Bacteria", "sprite": "sp-anchoviella_juruasanga.png", "group": "other", "rarity": 1}, {"lat": -34.6, "lng": -32.1167, "id": "405096", "name": "Procellaria conspicillata", "sprite": "sp-anchoviella_juruasanga.png", "group": "other", "rarity": 1}, {"lat": -34.9939, "lng": -33.5418, "id": "345515", "name": "Prochlorococcus", "sprite": "sp-anchoviella_juruasanga.png", "group": "other", "rarity": 1}]}