{"zoom": 7, "x": 53, "y": 61, "points": [{"lat": 7.5309, "lng": -28.6672, "id": "127027", "name": "Yellowfin tuna", "thumb": "tn_Thalb_u0.jpg", "sprite": "sp-bluefin_tuna.png", "group": "tuna_mackerel", "rarity": 1, "waterType": "Brackish"}, {"lat": 7.4683, "lng": -30.0063, "id": "290233", "name": "Isovactis microtentaculata", "sprite": "sp-actiniidae.png", "group": "coral", "rarity": 1}, {"lat": 7.3576, "lng": -28.7989, "id": "127028", "name": "Bigeye tuna", "thumb": "tn_Thobe_u1.jpg", "sprite": "sp-bluefin_tuna.png", "group": "tuna_mackerel", "rarity": 1, "waterType": "Saltwater"}, {"lat": 5.9161, "lng": -28.4838, "id": "6", "name": "Bacteria", "sprite": "sp-anchoviella_juruasanga.png", "group": "other", "rarity": 1}, {"lat": 7.4667, "lng": -30.0125, "id": "226687", "name": "Arachnomysis megalops", "sprite": "sp-american_lobster.png", "group": "crab_lobster", "rarity": 1}, {"lat": 6.8333, "lng": -29.9783, "id": "137209", "name": "Dermochelys coriacea", "sprite": "sp-green_sea_turtle.png", "group": "sea_turtle", "rarity": 1}, {"lat": 7.4667, "lng": -30.0125, "id": "127776", "name": "Conchoecilla daphnoides", "sprite": "sp-anchoviella_juruasanga.png", "group": "other", "rarity": 1}, {"lat": 6.2971, "lng": -29.1633, "id": "712906", "name": "Atlantic white marlin", "thumb": "tn_Tealb_u1.jpg", "sprite": "sp-blue_marlin.png", "group": "swordfish", "rarity": 1, "waterType": "Saltwater"}, {"lat": 7.11, "lng": -29.5, "id": "137205", "name": "Caretta caretta", "sprite": "sp-green_sea_turtle.png", "group": "sea_turtle", "rarity": 1}, {"lat": 7.4667, "lng": -30.0125, "id": "135436", "name": "Lensia multicristata", "sprite": "sp-anchoviella_juruasanga.png", "group": "other", "rarity": 1}, {"lat": 7.7325, "lng": -29.5084, "id": "109519", "name": "Gonyaulax", "sprite": "sp-anchoviella_juruasanga.png", "group": "other", "rarity": 1}, {"lat": 6.9985, "lng": -28.9006, "id": "137119", "name": "Physeter macrocephalus", "sprite": "sp-blue_whale.png", "group": "whale", "rarity": 1}, {"lat": 6.5682, "lng": -29.7829, "id": "2", "name": "Animalia", "sprite": "sp-anchoviella_juruasanga.png", "group": "other", "rarity": 1}, {"lat": 7.4667, "lng": -30.0125, "id": "135460", "name": "Maresearsia praeclara", "sprite": "sp-anchoviella_juruasanga.png", "group": "other", "rarity": 1}, {"lat": 7.01, "lng": -28.76, "id": "283509", "name": "Bunodeopsis pelagica", "sprite": "sp-actiniidae.png", "group": "coral", "rarity": 1}, {"lat": 7.4667, "lng": -30.0125, "id": "176752", "name": "Macrocypridina poulseni", "sprite": "sp-anchoviella_juruasanga.png", "group": "other", "rarity": 1}, {"lat": 7.4667, "lng": -30.0125, "id": "127832", "name": "Orthoconchoecia secernenda", "sprite": "sp-anchoviella_juruasanga.png", "group": "other", "rarity": 1}, {"lat": 7.4667, "lng": -30.0125, "id": "120011", "name": "Euchaetomera tenuis", "sprite": "sp-american_lobster.png", "group": "crab_lobster", "rarity": 1}, {"lat": 5.9161, "lng": -28.4838, "id": "345515", "name": "Prochlorococcus", "sprite": "sp-anchoviella_juruasanga.png", "group": "other", "rarity": 1}, {"lat": 7.4667, "lng": -30.0125, "id": "120216", "name": "Siriella thompsonii", "sprite": "sp-american_lobster.png", "group": "crab_lobster", "rarity": 1}, {"lat": 6.6195, "lng": -29.4875, "id": "137165", "name": "Sterna paradisaea", "sprite": "sp-anchoviella_juruasanga.png", "group": "other", "rarity": 1}, {"lat": 6.3568, "lng": -29.5721, "id": "127094", "name": "Swordfish", "thumb": "tn_Xigla_u5.jpg", "sprite": "sp-blue_marlin.png", "group": "swordfish", "rarity": 1, "waterType": "Saltwater"}, {"lat": 6.9825, "lng": -29.5117, "id": "109528", "name": "Oxytoxum", "sprite": "sp-anchoviella_juruasanga.png", "group": "other", "rarity": 1}, {"lat": 6.8114, "lng": -29.8314, "id": "127026", "name": "Albacore", "thumb": "tn_Thala_u4.jpg", "sprite": "sp-bluefin_tuna.png", "group": "tuna_mackerel", "rarity": 1, "waterType": "Saltwater"}, {"lat": 5.9161, "lng": -28.4838, "id": "160572", "name": "Synechococcus", "sprite": "sp-anchoviella_juruasanga.png", "group": "other", "rarity": 1}, {"lat": 7.4667, "lng": -30.0125, "id": "135485", "name": "Agalma okenii", "sprite": "sp-anchoviella_juruasanga.png", "group": "other", "rarity": 1}, {"lat": 7.4667, "lng": -30.0125, "id": "120007", "name": "Euchaetomera glyphidophthalmica", "sprite": "sp-american_lobster.png", "group": "crab_lobster", "rarity": 1}, {"lat": 6.9902, "lng": -29.5017, "id": "115104", "name": "Emiliania huxleyi", "sprite": "sp-anchoviella_juruasanga.png", "group": "other", "rarity": 1}, {"lat": 7.4667, "lng": -30.0125, "id": "127829", "name": "Orthoconchoecia atlantica", "sprite": "sp-anchoviella_juruasanga.png", "group": "other", "rarity": 1}, {"lat": 7.9168, "lng": -28.3668, "id": "127018", "name": "Skipjack tuna", "thumb": "tn_Kapel_m0.jpg", "sprite": "sp-bluefin_tuna.png", "group": "tuna_mackerel", "rarity": 1, "waterType": "Saltwater"}, {"lat": 7.9717, "lng": -29.5167, "id": "235979", "name": "Syracosphaera pulchra", "sprite": "sp-anchoviella_juruasanga.png", "group": "other", "rarity": 1}, {"lat": 7.4667, "lng": -30.0125, "id": "135499", "name": "Melophysa melo", "sprite": "sp-anchoviella_juruasanga.png", "group": "other", "rarity": 1}, {"lat": 6.7861, "lng": -28.8861, "id": "126385", "name": "Tropical two-wing flyingfish", "thumb": "tn_Exvol_u2.gif", "sprite": "sp-flying_fish.png", "group": "flying_fish", "rarity": 1, "waterType": "Saltwater"}]}