{"zoom": 7, "x": 54, "y": 54, "points": [{"lat": 25.9255, "lng": -27.0607, "id": "112311", "name": "Pelosina", "sprite": "sp-anchoviella_juruasanga.png", "group": "other", "rarity": 1}, {"lat": 25.9255, "lng": -27.0607, "id": "1542908", "name": "Rashnovammina munda", "sprite": "sp-anchoviella_juruasanga.png", "group": "other", "rarity": 1}, {"lat": 25.9255, "lng": -27.0607, "id": "914917", "name": "Haplophragmoides perexplicatus", "sprite": "sp-anchoviella_juruasanga.png", "group": "other", "rarity": 1}, {"lat": 25.9255, "lng": -27.0607, "id": "114191", "name": "Saccammina sphaerica", "sprite": "sp-anchoviella_juruasanga.png", "group": "other", "rarity": 1}, {"lat": 25.9255, "lng": -27.0607, "id": "653068", "name": "Deflandrea suspecta", "sprite": "sp-anchoviella_juruasanga.png", "group": "other", "rarity": 1}, {"lat": 26.4153, "lng": -26.9658, "id": "104902", "name": "Branchiostoma", "sprite": "sp-anchoviella_juruasanga.png", "group": "other", "rarity": 1}, {"lat": 26.09, "lng": -26.585, "id": "127094", "name": "Swordfish", "thumb": "tn_Xigla_u5.jpg", "sprite": "sp-blue_marlin.png", "group": "swordfish", "rarity": 1, "waterType": "Saltwater"}, {"lat": 25.9255, "lng": -27.0607, "id": "1034738", "name": "Planoheterohelix moremani", "sprite": "sp-anchoviella_juruasanga.png", "group": "other", "rarity": 1}, {"lat": 25.933, "lng": -26.58, "id": "418114", "name": "Globorotalia tumida", "sprite": "sp-anchoviella_juruasanga.png", "group": "other", "rarity": 1}, {"lat": 25.9255, "lng": -27.0607, "id": "1030641", "name": "Subreophax scalaris", "sprite": "sp-anchoviella_juruasanga.png", "group": "other", "rarity": 1}, {"lat": 26.343, "lng": -27.5962, "id": "160572", "name": "Synechococcus", "sprite": "sp-anchoviella_juruasanga.png", "group": "other", "rarity": 1}, {"lat": 25.933, "lng": -26.58, "id": "113458", "name": "Neogloboquadrina pachyderma", "sprite": "sp-anchoviella_juruasanga.png", "group": "other", "rarity": 1}, {"lat": 25.9255, "lng": -27.0607, "id": "1316408", "name": "Recurvoides gerochi", "sprite": "sp-anchoviella_juruasanga.png", "group": "other", "rarity": 1}, {"lat": 25.933, "lng": -26.58, "id": "221331", "name": "Pulleniatina obliquiloculata", "sprite": "sp-anchoviella_juruasanga.png", "group": "other", "rarity": 1}, {"lat": 25.933, "lng": -26.58, "id": "418108", "name": "Sphaeroidinella dehiscens", "sprite": "sp-anchoviella_juruasanga.png", "group": "other", "rarity": 1}, {"lat": 25.933, "lng": -26.58, "id": "113450", "name": "Globorotalia menardii", "sprite": "sp-anchoviella_juruasanga.png", "group": "other", "rarity": 1}, {"lat": 25.9255, "lng": -27.0607, "id": "1542913", "name": "Bicazammina cuneata", "sprite": "sp-anchoviella_juruasanga.png", "group": "other", "rarity": 1}, {"lat": 25.9255, "lng": -27.0607, "id": "628497", "sprite": "sp-anchoviella_juruasanga.png", "group": "other", "rarity": 1}, {"lat": 25.9228, "lng": -25.5632, "id": "735211", "name": "Neogloboquadrina acostaensis", "sprite": "sp-anchoviella_juruasanga.png", "group": "other", "rarity": 1}, {"lat": 25.9242, "lng": -26.3119, "id": "112341", "name": "Reophax", "sprite": "sp-anchoviella_juruasanga.png", "group": "other", "rarity": 1}, {"lat": 25.933, "lng": -26.58, "id": "418106", "name": "Globigerinella calida", "sprite": "sp-anchoviella_juruasanga.png", "group": "other", "rarity": 1}, {"lat": 25.9255, "lng": -27.0607, "id": "914556", "name": "Bolivinopsis parvissimus", "sprite": "sp-anchoviella_juruasanga.png", "group": "other", "rarity": 1}, {"lat": 26.5, "lng": -27.8334, "id": "589795", "name": "Cerataspis longiremis", "sprite": "sp-american_lobster.png", "group": "crab_lobster", "rarity": 1}, {"lat": 24.567, "lng": -28.067, "id": "275012", "name": "Astronesthes cyaneus", "thumb": "tn_Ascya_u2.jpg", "sprite": "sp-anchoviella_juruasanga.png", "group": "other", "rarity": 1, "waterType": "Saltwater"}, {"lat": 25.9255, "lng": -27.0607, "id": "1037105", "name": "Caudammina ovulum", "sprite": "sp-anchoviella_juruasanga.png", "group": "other", "rarity": 1}, {"lat": 25.9255, "lng": -27.0607, "id": "734770", "name": "Marssonella oxycona", "sprite": "sp-anchoviella_juruasanga.png", "group": "other", "rarity": 1}, {"lat": 25.9255, "lng": -27.0607, "id": "1039530", "name": "Recurvoides walteri", "sprite": "sp-anchoviella_juruasanga.png", "group": "other", "rarity": 1}, {"lat": 25.9228, "lng": -25.5632, "id": "112369", "name": "Psammosphaera", "sprite": "sp-anchoviella_juruasanga.png", "group": "other", "rarity": 1}, {"lat": 25.9255, "lng": -27.0607, "id": "112315", "name": "Rhabdammina", "sprite": "sp-anchoviella_juruasanga.png", "group": "other", "rarity": 1}, {"lat": 25.9255, "lng": -27.0607, "id": "112280", "name": "Trifarina", "sprite": "sp-anchoviella_juruasanga.png", "group": "other", "rarity": 1}, {"lat": 25.9255, "lng": -27.0607, "id": "113943", "name": "Conglophragmium coronatum", "sprite": "sp-anchoviella_juruasanga.png", "group": "other", "rarity": 1}, {"lat": 25.9255, "lng": -27.0607, "id": "1037107", "name": "Caudammina ovuloides", "sprite": "sp-anchoviella_juruasanga.png", "group": "other", "rarity": 1}, {"lat": 25.9255, "lng": -27.0607, "id": "1036548", "name": "Psammosphaera irregularis", "sprite": "sp-anchoviella_juruasanga.png", "group": "other", "rarity": 1}, {"lat": 25.9255, "lng": -27.0607, "id": "734665", "name": "Ammodiscus cretaceus", "sprite": "sp-anchoviella_juruasanga.png", "group": "other", "rarity": 1}, {"lat": 25.9255, "lng": -27.0607, "id": "1030660", "name": "Trochammina gyroidinaeformis", "sprite": "sp-anchoviella_juruasanga.png", "group": "other", "rarity": 1}, {"lat": 25.933, "lng": -26.58, "id": "113448", "name": "Globorotalia hirsuta", "sprite": "sp-anchoviella_juruasanga.png", "group": "other", "rarity": 1}, {"lat": 25.9255, "lng": -27.0607, "id": "721327", "name": "Paratrochamminoides", "sprite": "sp-anchoviella_juruasanga.png", "group": "other", "rarity": 1}, {"lat": 26.12, "lng": -26.32, "id": "127027", "name": "Yellowfin tuna", "thumb": "tn_Thalb_u0.jpg", "sprite": "sp-bluefin_tuna.png", "group": "tuna_mackerel", "rarity": 1, "waterType": "Brackish"}, {"lat": 25.933, "lng": -26.58, "id": "113440", "name": "Globigerinella siphonifera", "sprite": "sp-anchoviella_juruasanga.png", "group": "other", "rarity": 1}, {"lat": 25.9228, "lng": -25.5632, "id": "203961", "name": "Pulleniatina", "sprite": "sp-anchoviella_juruasanga.png", "group": "other", "rarity": 1}, {"lat": 25.933, "lng": -26.58, "id": "113460", "name": "Orbulina universa", "sprite": "sp-anchoviella_juruasanga.png", "group": "other", "rarity": 1}, {"lat": 25.9255, "lng": -27.0607, "id": "933578", "name": "Paratrochamminoides intricatus", "sprite": "sp-anchoviella_juruasanga.png", "group": "other", "rarity": 1}, {"lat": 26.343, "lng": -27.5962, "id": "345515", "name": "Prochlorococcus", "sprite": "sp-anchoviella_juruasanga.png", "group": "other", "rarity": 1}, {"lat": 25.9255, "lng": -27.0607, "id": "1542915", "name": "Bicazammina lagenaria", "sprite": "sp-anchoviella_juruasanga.png", "group": "other", "rarity": 1}, {"lat": 25.9255, "lng": -27.0607, "id": "1039451", "name": "Paratrochamminoides acervulatus", "sprite": "sp-anchoviella_juruasanga.png", "group": "other", "rarity": 1}, {"lat": 26.4153, "lng": -26.9658, "id": "276688", "name": "Cocoa damselfish", "thumb": "tn_Stvar_u2.jpg", "sprite": "sp-chrysiptera_caesifrons.png", "group": "clownfish", "rarity": 1, "waterType": "Saltwater"}, {"lat": 25.933, "lng": -26.58, "id": "1026410", "name": "Globoconella inflata", "sprite": "sp-anchoviella_juruasanga.png", "group": "other", "rarity": 1}, {"lat": 25.9228, "lng": -25.5632, "id": "112353", "name": "Lituotuba", "sprite": "sp-anchoviella_juruasanga.png", "group": "other", "rarity": 1}, {"lat": 25.68, "lng": -26.23, "id": "159340", "name": "King mackerel", "thumb": "tn_Sccav_u3.jpg", "sprite": "sp-bluefin_tuna.png", "group": "tuna_mackerel", "rarity": 1, "waterType": "Saltwater"}, {"lat": 25.9255, "lng": -27.0607, "id": "113906", "name": "Rhizammina algaeformis", "sprite": "sp-anchoviella_juruasanga.png", "group": "other", "rarity": 1}, {"lat": 25.9255, "lng": -27.0607, "id": "1036555", "name": "Saccammina grzybowskii", "sprite": "sp-anchoviella_juruasanga.png", "group": "other", "rarity": 1}, {"lat": 25.9255, "lng": -27.0607, "id": "919501", "name": "Paratrochamminoides semipellucidus", "sprite": "sp-anchoviella_juruasanga.png", "group": "other", "rarity": 1}, {"lat": 25.933, "lng": -26.58, "id": "1026286", "name": "Trilobatus sacculifer", "sprite": "sp-anchoviella_juruasanga.png", "group": "other", "rarity": 1}, {"lat": 26.4569, "lng": -27.333, "id": "137119", "name": "Physeter macrocephalus", "sprite": "sp-blue_whale.png", "group": "whale", "rarity": 1}, {"lat": 25.9255, "lng": -27.0607, "id": "113830", "name": "Glomospira gordialis", "sprite": "sp-anchoviella_juruasanga.png", "group": "other", "rarity": 1}, {"lat": 26.6333, "lng": -27.2667, "id": "419366", "name": "Lucapina sowerbii", "sprite": "sp-cowrie_shell.png", "group": "sea_snail", "rarity": 1}, {"lat": 25.9296, "lng": -26.2411, "id": "113453", "name": "Globorotalia truncatulinoides", "sprite": "sp-anchoviella_juruasanga.png", "group": "other", "rarity": 1}, {"lat": 25.9228, "lng": -25.5632, "id": "112197", "name": "Globigerina", "sprite": "sp-anchoviella_juruasanga.png", "group": "other", "rarity": 1}, {"lat": 25.933, "lng": -26.58, "id": "113444", "name": "Globigerinoides ruber", "sprite": "sp-anchoviella_juruasanga.png", "group": "other", "rarity": 1}, {"lat": 27.0, "lng": -26.0, "id": "127543", "name": "Halocypris", "sprite": "sp-anchoviella_juruasanga.png", "group": "other", "rarity": 1}, {"lat": 27.0, "lng": -26.5, "id": "126846", "name": "Common dolphinfish", "thumb": "tn_Cohip_ud.jpg", "sprite": "sp-anchoviella_juruasanga.png", "group": "other", "rarity": 1, "waterType": "Brackish"}, {"lat": 25.9255, "lng": -27.0607, "id": "1039473", "name": "Buzasina pacifica", "sprite": "sp-anchoviella_juruasanga.png", "group": "other", "rarity": 1}, {"lat": 25.9255, "lng": -27.0607, "id": "114059", "name": "Lituotuba lituiformis", "sprite": "sp-anchoviella_juruasanga.png", "group": "other", "rarity": 1}, {"lat": 25.933, "lng": -26.58, "id": "113461", "name": "Turborotalita humilis", "sprite": "sp-anchoviella_juruasanga.png", "group": "other", "rarity": 1}, {"lat": 25.9255, "lng": -27.0607, "id": "113984", "name": "Hormosinella distans", "sprite": "sp-anchoviella_juruasanga.png", "group": "other", "rarity": 1}, {"lat": 24.866, "lng": -26.037, "id": "137165", "name": "Sterna paradisaea", "sprite": "sp-anchoviella_juruasanga.png", "group": "other", "rarity": 1}, {"lat": 25.9255, "lng": -27.0607, "id": "113908", "name": "Testulosiphon indivisus", "sprite": "sp-anchoviella_juruasanga.png", "group": "other", "rarity": 1}, {"lat": 25.933, "lng": -26.58, "id": "1455327", "name": "Globorotalia (Truncorotalia) crassaformis", "sprite": "sp-anchoviella_juruasanga.png", "group": "other", "rarity": 1}, {"lat": 26.343, "lng": -27.5962, "id": "6", "name": "Bacteria", "sprite": "sp-anchoviella_juruasanga.png", "group": "other", "rarity": 1}, {"lat": 25.9255, "lng": -27.0607, "id": "901194", "name": "Hyperammina dilatata", "sprite": "sp-anchoviella_juruasanga.png", "group": "other", "rarity": 1}, {"lat": 25.9255, "lng": -27.0607, "id": "645841", "name": "Odontochitina operculata", "sprite": "sp-anchoviella_juruasanga.png", "group": "other", "rarity": 1}, {"lat": 25.9255, "lng": -27.0607, "id": "1292535", "name": "Glomospirella gaultina", "sprite": "sp-anchoviella_juruasanga.png", "group": "other", "rarity": 1}, {"lat": 24.567, "lng": -28.067, "id": "127323", "name": "Black snaggletooth", "thumb": "tn_Asind_u0.gif", "sprite": "sp-anchoviella_juruasanga.png", "group": "other", "rarity": 1, "waterType": "Saltwater"}, {"lat": 25.9228, "lng": -25.5632, "id": "112290", "name": "Ammodiscus", "sprite": "sp-anchoviella_juruasanga.png", "group": "other", "rarity": 1}, {"lat": 25.9255, "lng": -27.0607, "id": "734668", "name": "Ammodiscus pennyi", "sprite": "sp-anchoviella_juruasanga.png", "group": "other", "rarity": 1}, {"lat": 26.4153, "lng": -26.9658, "id": "159284", "name": "Angelfish", "thumb": "tn_Hober_u2.jpg", "sprite": "sp-holacanthus_bermudensis.png", "group": "angelfish", "rarity": 1, "waterType": "Saltwater"}, {"lat": 25.9255, "lng": -27.0607, "id": "1030650", "name": "Haplophragmoides menitens", "sprite": "sp-anchoviella_juruasanga.png", "group": "other", "rarity": 1}, {"lat": 25.9255, "lng": -27.0607, "id": "1039537", "name": "Karrerulina horrida", "sprite": "sp-anchoviella_juruasanga.png", "group": "other", "rarity": 1}, {"lat": 25.933, "lng": -26.58, "id": "113464", "name": "Globigerinita glutinata", "sprite": "sp-anchoviella_juruasanga.png", "group": "other", "rarity": 1}, {"lat": 25.933, "lng": -26.58, "id": "113441", "name": "Globigerinoides conglobatus", "sprite": "sp-anchoviella_juruasanga.png", "group": "other", "rarity": 1}, {"lat": 25.933, "lng": -26.58, "id": "113474", "name": "Neogloboquadrina incompta", "sprite": "sp-anchoviella_juruasanga.png", "group": "other", "rarity": 1}, {"lat": 27.0, "lng": -26.5, "id": "127029", "name": "Atlantic bluefin tuna", "thumb": "tn_Ththy_ug.jpg", "sprite": "sp-bluefin_tuna.png", "group": "tuna_mackerel", "rarity": 1, "waterType": "Brackish"}, {"lat": 25.9255, "lng": -27.0607, "id": "113828", "name": "Glomospira charoides", "sprite": "sp-anchoviella_juruasanga.png", "group": "other", "rarity": 1}, {"lat": 25.9255, "lng": -27.0607, "id": "1474408", "name": "Trochammina bulloidiformis", "sprite": "sp-anchoviella_juruasanga.png", "group": "other", "rarity": 1}, {"lat": 26.4153, "lng": -26.9658, "id": "304153", "name": "Yellowtail reeffish", "thumb": "tn_Chenc_u2.jpg", "sprite": "sp-chrysiptera_caesifrons.png", "group": "clownfish", "rarity": 1, "waterType": "Saltwater"}, {"lat": 25.933, "lng": -26.58, "id": "113473", "name": "Neogloboquadrina dutertrei", "sprite": "sp-anchoviella_juruasanga.png", "group": "other", "rarity": 1}, {"lat": 26.4153, "lng": -26.9658, "id": "159354", "name": "Red grouper", "thumb": "tn_Epmor_ub.jpg", "sprite": "sp-chelidoperca_santosi.png", "group": "grouper", "rarity": 1, "waterType": "Saltwater"}, {"lat": 25.9255, "lng": -27.0607, "id": "112352", "name": "Recurvoides", "sprite": "sp-anchoviella_juruasanga.png", "group": "other", "rarity": 1}, {"lat": 25.9255, "lng": -27.0607, "id": "112330", "name": "Haplophragmoides", "sprite": "sp-anchoviella_juruasanga.png", "group": "other", "rarity": 1}, {"lat": 25.9255, "lng": -27.0607, "id": "990174", "name": "Kalamopsis grzybowskii", "sprite": "sp-anchoviella_juruasanga.png", "group": "other", "rarity": 1}, {"lat": 26.35, "lng": -26.35, "id": "137094", "name": "Delphinus delphis", "sprite": "sp-bottlenose_dolphin.png", "group": "dolphin", "rarity": 1}, {"lat": 25.9255, "lng": -27.0607, "id": "1030648", "name": "Haplophragmoides pseudokirki", "sprite": "sp-anchoviella_juruasanga.png", "group": "other", "rarity": 1}, {"lat": 25.9255, "lng": -27.0607, "id": "632657", "name": "Hexagonifera chlamydata", "sprite": "sp-anchoviella_juruasanga.png", "group": "other", "rarity": 1}, {"lat": 25.9255, "lng": -27.0607, "id": "1030652", "name": "Labrospira inflata", "sprite": "sp-anchoviella_juruasanga.png", "group": "other", "rarity": 1}, {"lat": 25.9255, "lng": -27.0607, "id": "895977", "name": "Ammodiscus asperellus", "sprite": "sp-anchoviella_juruasanga.png", "group": "other", "rarity": 1}, {"lat": 26.0, "lng": -27.38, "id": "127014", "name": "Wahoo", "thumb": "tn_Acsol_ua.jpg", "sprite": "sp-bluefin_tuna.png", "group": "tuna_mackerel", "rarity": 1, "waterType": "Saltwater"}, {"lat": 25.9255, "lng": -27.0607, "id": "911910", "name": "Haplophragmoides multiformis", "sprite": "sp-anchoviella_juruasanga.png", "group": "other", "rarity": 1}, {"lat": 25.9246, "lng": -26.5615, "id": "112300", "name": "Bathysiphon", "sprite": "sp-anchoviella_juruasanga.png", "group": "other", "rarity": 1}]}