{"zoom": 7, "x": 55, "y": 41, "points": [{"lat": 52.9185, "lng": -23.8916, "id": "837453", "name": "Tripos horridus", "sprite": "sp-anchoviella_juruasanga.png", "group": "other", "rarity": 1}, {"lat": 53.2163, "lng": -24.0477, "id": "137165", "name": "Sterna paradisaea", "sprite": "sp-anchoviella_juruasanga.png", "group": "other", "rarity": 1}, {"lat": 53.467, "lng": -23.283, "id": "126398", "name": "Silver spinyfin", "thumb": "tn_Diarg_u5.jpg", "sprite": "sp-anchoviella_juruasanga.png", "group": "other", "rarity": 1, "waterType": "Saltwater"}, {"lat": 53.0468, "lng": -23.9531, "id": "148912", "name": "Thalassiosira", "sprite": "sp-anchoviella_juruasanga.png", "group": "other", "rarity": 1}, {"lat": 53.0698, "lng": -24.0725, "id": "149629", "name": "Rhizosolenia styliformis", "sprite": "sp-anchoviella_juruasanga.png", "group": "other", "rarity": 1}, {"lat": 53.467, "lng": -23.283, "id": "127270", "name": "Shoulderspine bigscale", "thumb": "tn_Mesub_u0.gif", "sprite": "sp-anchoviella_juruasanga.png", "group": "other", "rarity": 1, "waterType": "Brackish"}, {"lat": 54.1337, "lng": -22.5622, "id": "137195", "name": "Fulmarus glacialis", "sprite": "sp-anchoviella_juruasanga.png", "group": "other", "rarity": 1}, {"lat": 53.8135, "lng": -24.895, "id": "146421", "name": "Appendicularia", "sprite": "sp-anchoviella_juruasanga.png", "group": "other", "rarity": 1}, {"lat": 53.9333, "lng": -24.0833, "id": "577623", "name": "Coccolithus doronicoides", "sprite": "sp-anchoviella_juruasanga.png", "group": "other", "rarity": 1}, {"lat": 53.0643, "lng": -22.973, "id": "235926", "name": "Calciosolenia murrayi", "sprite": "sp-anchoviella_juruasanga.png", "group": "other", "rarity": 1}, {"lat": 52.58, "lng": -22.9783, "id": "106731", "name": "Sergestidae", "sprite": "sp-american_lobster.png", "group": "crab_lobster", "rarity": 1}, {"lat": 53.0281, "lng": -24.1508, "id": "370366", "name": "Chaetoceros (Hyalochaete)", "sprite": "sp-anchoviella_juruasanga.png", "group": "other", "rarity": 1}, {"lat": 53.362, "lng": -23.7316, "id": "841248", "name": "Tripos hexacanthus", "sprite": "sp-anchoviella_juruasanga.png", "group": "other", "rarity": 1}, {"lat": 54.1465, "lng": -22.6043, "id": "137202", "name": "Puffinus griseus", "sprite": "sp-anchoviella_juruasanga.png", "group": "other", "rarity": 1}, {"lat": 52.8067, "lng": -23.1217, "id": "109550", "name": "Podolampas", "sprite": "sp-anchoviella_juruasanga.png", "group": "other", "rarity": 1}, {"lat": 52.9634, "lng": -24.0742, "id": "837459", "name": "Tripos lineatus", "sprite": "sp-anchoviella_juruasanga.png", "group": "other", "rarity": 1}, {"lat": 53.6333, "lng": -23.7, "id": "345553", "name": "Umbilicosphaera foliosa", "sprite": "sp-anchoviella_juruasanga.png", "group": "other", "rarity": 1}, {"lat": 53.295, "lng": -24.0403, "id": "104464", "name": "Calanus finmarchicus", "sprite": "sp-anchoviella_juruasanga.png", "group": "other", "rarity": 1}, {"lat": 53.0004, "lng": -23.8582, "id": "840627", "name": "Tripos furca", "sprite": "sp-anchoviella_juruasanga.png", "group": "other", "rarity": 1}, {"lat": 53.9333, "lng": -24.0833, "id": "1360985", "sprite": "sp-anchoviella_juruasanga.png", "group": "other", "rarity": 1}, {"lat": 53.467, "lng": -23.283, "id": "126743", "name": "Smallscale searsid", "thumb": "tn_Mamic_u2.jpg", "sprite": "sp-anchoviella_juruasanga.png", "group": "other", "rarity": 1, "waterType": "Saltwater"}, {"lat": 53.467, "lng": -23.283, "id": "126612", "name": "Jewel lanternfish", "thumb": "tn_Lacro_u0.jpg", "sprite": "sp-anchoviella_juruasanga.png", "group": "other", "rarity": 1, "waterType": "Saltwater"}, {"lat": 53.467, "lng": -23.283, "id": "277900", "name": "Gyrinomimus myersi", "sprite": "sp-anchoviella_juruasanga.png", "group": "other", "rarity": 1, "waterType": "Saltwater"}, {"lat": 53.467, "lng": -23.283, "id": "126333", "name": "Long snouted lancetfish", "thumb": "tn_Alfer_u0.jpg", "sprite": "sp-anchoviella_juruasanga.png", "group": "other", "rarity": 1, "waterType": "Saltwater"}, {"lat": 53.0505, "lng": -23.896, "id": "104466", "name": "Calanus helgolandicus", "sprite": "sp-anchoviella_juruasanga.png", "group": "other", "rarity": 1}, {"lat": 53.0928, "lng": -23.9268, "id": "495363", "name": "Tripos muelleri", "sprite": "sp-anchoviella_juruasanga.png", "group": "other", "rarity": 1}, {"lat": 53.0957, "lng": -24.2341, "id": "149004", "name": "Cylindrotheca closterium", "sprite": "sp-anchoviella_juruasanga.png", "group": "other", "rarity": 1}, {"lat": 53.4134, "lng": -23.43, "id": "104303", "name": "Euchirella rostrata", "sprite": "sp-anchoviella_juruasanga.png", "group": "other", "rarity": 1}, {"lat": 53.467, "lng": -23.283, "id": "158952", "name": "Abyssal grenadier", "thumb": "tn_Coarm_u1.jpg", "sprite": "sp-anchoviella_juruasanga.png", "group": "other", "rarity": 1, "waterType": "Saltwater"}, {"lat": 53.5759, "lng": -23.6266, "id": "235944", "name": "Coronosphaera mediterranea", "sprite": "sp-anchoviella_juruasanga.png", "group": "other", "rarity": 1}, {"lat": 53.1191, "lng": -24.1368, "id": "1128", "name": "Euphausiacea", "sprite": "sp-antarctic_krill.png", "group": "shrimp", "rarity": 1}, {"lat": 53.0095, "lng": -23.9912, "id": "104161", "name": "Clausocalanus", "sprite": "sp-anchoviella_juruasanga.png", "group": "other", "rarity": 1}, {"lat": 53.467, "lng": -23.283, "id": "126338", "name": "Balbo sabretooth", "thumb": "tn_Evbal_u0.jpg", "sprite": "sp-anchoviella_juruasanga.png", "group": "other", "rarity": 1, "waterType": "Saltwater"}, {"lat": 53.5703, "lng": -23.9638, "id": "13703", "name": "Thecosomata", "sprite": "sp-cowrie_shell.png", "group": "sea_snail", "rarity": 1}, {"lat": 53.467, "lng": -23.283, "id": "126580", "name": "Glacier lantern fish", "thumb": "tn_Begla_u1.jpg", "sprite": "sp-anchoviella_juruasanga.png", "group": "other", "rarity": 1, "waterType": "Saltwater"}, {"lat": 53.07, "lng": -23.6467, "id": "128634", "name": "Corycaeus", "sprite": "sp-anchoviella_juruasanga.png", "group": "other", "rarity": 1}, {"lat": 52.73, "lng": -24.5578, "id": "179785", "name": "Dactyliosolen antarcticus", "sprite": "sp-anchoviella_juruasanga.png", "group": "other", "rarity": 1}, {"lat": 53.333, "lng": -23.3165, "id": "113434", "name": "Globigerina bulloides", "sprite": "sp-anchoviella_juruasanga.png", "group": "other", "rarity": 1}, {"lat": 53.0387, "lng": -23.9568, "id": "104108", "name": "Acartia", "sprite": "sp-anchoviella_juruasanga.png", "group": "other", "rarity": 1}, {"lat": 53.467, "lng": -23.283, "id": "126611", "name": "Dusky lanternfish", "thumb": "tn_Laate_u0.gif", "sprite": "sp-anchoviella_juruasanga.png", "group": "other", "rarity": 1, "waterType": "Saltwater"}, {"lat": 53.467, "lng": -23.283, "id": "126556", "name": "Humpback anglerfish", "thumb": "tn_Mejoh_u2.gif", "sprite": "sp-deep_sea_anglerfish.png", "group": "anglerfish", "rarity": 1, "waterType": "Saltwater"}, {"lat": 54.115, "lng": -24.608, "id": "841190", "name": "Tripos bucephalus", "sprite": "sp-anchoviella_juruasanga.png", "group": "other", "rarity": 1}, {"lat": 54.028, "lng": -25.157, "id": "149168", "name": "Proboscia alata", "sprite": "sp-anchoviella_juruasanga.png", "group": "other", "rarity": 1}, {"lat": 53.467, "lng": -23.283, "id": "127309", "name": "Half-naked hatchetfish", "thumb": "tn_Arhem_u6.jpg", "sprite": "sp-anchoviella_juruasanga.png", "group": "other", "rarity": 1, "waterType": "Saltwater"}, {"lat": 53.4975, "lng": -23.5264, "id": "642086", "sprite": "sp-anchoviella_juruasanga.png", "group": "other", "rarity": 1}, {"lat": 53.467, "lng": -23.283, "id": "127334", "name": "Snaggletooth", "thumb": "tn_Boant_u3.jpg", "sprite": "sp-anchoviella_juruasanga.png", "group": "other", "rarity": 1, "waterType": "Saltwater"}, {"lat": 53.467, "lng": -23.283, "id": "127358", "name": "Stoplight loosejaw", "thumb": "tn_Manig_u6.jpg", "sprite": "sp-anchoviella_juruasanga.png", "group": "other", "rarity": 1, "waterType": "Saltwater"}, {"lat": 53.5558, "lng": -23.6009, "id": "235962", "name": "Oolithotus fragilis", "sprite": "sp-anchoviella_juruasanga.png", "group": "other", "rarity": 1}, {"lat": 53.0199, "lng": -23.9409, "id": "1205", "name": "Hyperiidea", "sprite": "sp-american_lobster.png", "group": "crab_lobster", "rarity": 1}, {"lat": 52.79, "lng": -22.55, "id": "837460", "name": "Tripos extensus", "sprite": "sp-anchoviella_juruasanga.png", "group": "other", "rarity": 1}, {"lat": 53.467, "lng": -23.283, "id": "126615", "name": "Diamondcheek lanternfish", "thumb": "tn_Laint_u1.jpg", "sprite": "sp-anchoviella_juruasanga.png", "group": "other", "rarity": 1, "waterType": "Saltwater"}, {"lat": 52.7686, "lng": -24.0503, "id": "149118", "name": "Bacteriastrum", "sprite": "sp-anchoviella_juruasanga.png", "group": "other", "rarity": 1}, {"lat": 53.9333, "lng": -24.0833, "id": "1360987", "name": "Gephyrocapsa margerelii", "sprite": "sp-anchoviella_juruasanga.png", "group": "other", "rarity": 1}, {"lat": 52.8417, "lng": -23.9039, "id": "104183", "name": "Lucicutia", "sprite": "sp-anchoviella_juruasanga.png", "group": "other", "rarity": 1}, {"lat": 53.1137, "lng": -24.1126, "id": "1806", "name": "Echinodermata", "sprite": "sp-sea_cucumber.png", "group": "starfish", "rarity": 1}, {"lat": 52.733, "lng": -22.55, "id": "1026410", "name": "Globoconella inflata", "sprite": "sp-anchoviella_juruasanga.png", "group": "other", "rarity": 1}, {"lat": 53.4853, "lng": -23.5109, "id": "235979", "name": "Syracosphaera pulchra", "sprite": "sp-anchoviella_juruasanga.png", "group": "other", "rarity": 1}, {"lat": 53.467, "lng": -23.283, "id": "306769", "name": "Stomias ferox", "sprite": "sp-anchoviella_juruasanga.png", "group": "other", "rarity": 1, "waterType": "Saltwater"}, {"lat": 53.9333, "lng": -24.0833, "id": "235823", "name": "Gephyrocapsa", "sprite": "sp-anchoviella_juruasanga.png", "group": "other", "rarity": 1}, {"lat": 53.0967, "lng": -24.0479, "id": "149093", "name": "Thalassionema nitzschioides", "sprite": "sp-anchoviella_juruasanga.png", "group": "other", "rarity": 1}, {"lat": 53.4218, "lng": -24.6914, "id": "109462", "name": "Dinophysis", "sprite": "sp-anchoviella_juruasanga.png", "group": "other", "rarity": 1}, {"lat": 53.6883, "lng": -23.3254, "id": "104543", "name": "Rhincalanus nasutus", "sprite": "sp-anchoviella_juruasanga.png", "group": "other", "rarity": 1}, {"lat": 53.467, "lng": -23.283, "id": "127171", "name": "Gulper eel", "thumb": "tn_Saamp_u0.jpg", "sprite": "sp-anchoviella_juruasanga.png", "group": "other", "rarity": 1, "waterType": "Saltwater"}, {"lat": 53.467, "lng": -23.283, "id": "127312", "name": "Silvery lightfish", "thumb": "tn_Mamue_u2.jpg", "sprite": "sp-anchoviella_juruasanga.png", "group": "other", "rarity": 1, "waterType": "Saltwater"}, {"lat": 53.467, "lng": -23.283, "id": "126719", "name": "Goiter blacksmelt", "thumb": "tn_Baeur_u1.jpg", "sprite": "sp-anchoviella_juruasanga.png", "group": "other", "rarity": 1, "waterType": "Saltwater"}, {"lat": 53.5118, "lng": -23.5448, "id": "115104", "name": "Emiliania huxleyi", "sprite": "sp-anchoviella_juruasanga.png", "group": "other", "rarity": 1}, {"lat": 53.1111, "lng": -24.9222, "id": "137138", "name": "Larus argentatus", "sprite": "sp-anchoviella_juruasanga.png", "group": "other", "rarity": 1}, {"lat": 53.0513, "lng": -23.9295, "id": "840626", "name": "Tripos fusus", "sprite": "sp-anchoviella_juruasanga.png", "group": "other", "rarity": 1}, {"lat": 52.597, "lng": -22.578, "id": "129715", "name": "Tomopteris", "sprite": "sp-anchoviella_juruasanga.png", "group": "other", "rarity": 1}, {"lat": 53.2928, "lng": -24.3762, "id": "106269", "name": "Podon", "sprite": "sp-anchoviella_juruasanga.png", "group": "other", "rarity": 1}, {"lat": 53.1268, "lng": -23.9354, "id": "163030", "name": "Phaeoceros", "sprite": "sp-anchoviella_juruasanga.png", "group": "other", "rarity": 1}, {"lat": 53.9667, "lng": -23.3433, "id": "345781", "name": "Eucalanus hyalinus", "sprite": "sp-anchoviella_juruasanga.png", "group": "other", "rarity": 1}, {"lat": 53.0904, "lng": -23.8572, "id": "1080", "name": "Copepoda", "sprite": "sp-anchoviella_juruasanga.png", "group": "other", "rarity": 1}, {"lat": 53.205, "lng": -23.029, "id": "104566", "name": "Paraeuchaeta norvegica", "sprite": "sp-anchoviella_juruasanga.png", "group": "other", "rarity": 1}, {"lat": 52.7984, "lng": -22.8358, "id": "109566", "name": "Prorocentrum", "sprite": "sp-anchoviella_juruasanga.png", "group": "other", "rarity": 1}, {"lat": 53.467, "lng": -23.283, "id": "126600", "name": "Electric lantern fish", "thumb": "tn_Elris_u3.jpg", "sprite": "sp-anchoviella_juruasanga.png", "group": "other", "rarity": 1, "waterType": "Saltwater"}, {"lat": 53.4818, "lng": -23.5064, "id": "235953", "name": "Gephyrocapsa caribbeanica", "sprite": "sp-anchoviella_juruasanga.png", "group": "other", "rarity": 1}, {"lat": 53.6509, "lng": -23.7225, "id": "626382", "name": "Rhabdolithes claviger", "sprite": "sp-anchoviella_juruasanga.png", "group": "other", "rarity": 1}, {"lat": 53.58, "lng": -24.1143, "id": "163261", "name": "Lauderia mediterranea", "sprite": "sp-anchoviella_juruasanga.png", "group": "other", "rarity": 1}, {"lat": 53.467, "lng": -23.283, "id": "126306", "name": "Slender snipe eel", "thumb": "tn_Nesco_u3.jpg", "sprite": "sp-electric_eel.png", "group": "eel", "rarity": 1, "waterType": "Saltwater"}, {"lat": 53.467, "lng": -23.283, "id": "126393", "name": "Common fangtooth", "thumb": "tn_Ancor_u1.jpg", "sprite": "sp-anchoviella_juruasanga.png", "group": "other", "rarity": 1, "waterType": "Saltwater"}, {"lat": 52.7333, "lng": -22.55, "id": "235984", "name": "Umbilicosphaera hulburtiana", "sprite": "sp-anchoviella_juruasanga.png", "group": "other", "rarity": 1}, {"lat": 53.0968, "lng": -23.8991, "id": "106267", "name": "Evadne", "sprite": "sp-anchoviella_juruasanga.png", "group": "other", "rarity": 1}, {"lat": 53.467, "lng": -23.283, "id": "127338", "name": "Sloane's viperfish", "thumb": "tn_Chslo_u5.jpg", "sprite": "sp-anchoviella_juruasanga.png", "group": "other", "rarity": 1, "waterType": "Saltwater"}, {"lat": 53.1335, "lng": -24.014, "id": "104152", "name": "Calanus", "sprite": "sp-anchoviella_juruasanga.png", "group": "other", "rarity": 1}, {"lat": 53.102, "lng": -24.1185, "id": "109519", "name": "Gonyaulax", "sprite": "sp-anchoviella_juruasanga.png", "group": "other", "rarity": 1}, {"lat": 53.0592, "lng": -24.0448, "id": "1100", "name": "Calanoida", "sprite": "sp-anchoviella_juruasanga.png", "group": "other", "rarity": 1}, {"lat": 53.467, "lng": -23.283, "id": "126702", "name": "Krefft's smooth-head", "thumb": "tn_Hekre_u0.gif", "sprite": "sp-anchoviella_juruasanga.png", "group": "other", "rarity": 1, "waterType": "Saltwater"}, {"lat": 53.1459, "lng": -23.7057, "id": "109553", "name": "Protoperidinium", "sprite": "sp-anchoviella_juruasanga.png", "group": "other", "rarity": 1}, {"lat": 53.467, "lng": -23.283, "id": "126361", "name": "Sharpchin barracudina", "thumb": "tn_Pacor_u2.gif", "sprite": "sp-anchoviella_juruasanga.png", "group": "other", "rarity": 1, "waterType": "Saltwater"}, {"lat": 53.467, "lng": -23.283, "id": "126319", "name": "Stout sawpalate", "thumb": "tn_Sebea_u2.jpg", "sprite": "sp-electric_eel.png", "group": "eel", "rarity": 1, "waterType": "Saltwater"}, {"lat": 53.333, "lng": -23.3165, "id": "113458", "name": "Neogloboquadrina pachyderma", "sprite": "sp-anchoviella_juruasanga.png", "group": "other", "rarity": 1}, {"lat": 52.7641, "lng": -23.9625, "id": "104193", "name": "Calocalanus", "sprite": "sp-anchoviella_juruasanga.png", "group": "other", "rarity": 1}, {"lat": 53.02, "lng": -23.7996, "id": "1102", "name": "Harpacticoida", "sprite": "sp-anchoviella_juruasanga.png", "group": "other", "rarity": 1}, {"lat": 53.467, "lng": -23.283, "id": "127165", "name": "Pelican eel", "thumb": "tn_Eupel_u4.jpg", "sprite": "sp-anchoviella_juruasanga.png", "group": "other", "rarity": 1, "waterType": "Saltwater"}, {"lat": 53.2075, "lng": -23.8134, "id": "10194", "name": "Actinopterygii", "sprite": "sp-anchoviella_juruasanga.png", "group": "other", "rarity": 1}, {"lat": 52.8846, "lng": -24.2815, "id": "157083", "name": "Thalassiothrix longissima", "sprite": "sp-anchoviella_juruasanga.png", "group": "other", "rarity": 1}, {"lat": 53.9333, "lng": -24.0833, "id": "555941", "name": "Pontosphaera japonica", "sprite": "sp-anchoviella_juruasanga.png", "group": "other", "rarity": 1}, {"lat": 53.4641, "lng": -23.4838, "id": "235955", "name": "Gephyrocapsa oceanica", "sprite": "sp-anchoviella_juruasanga.png", "group": "other", "rarity": 1}, {"lat": 53.2883, "lng": -23.4977, "id": "149152", "name": "Pseudo-nitzschia seriata", "sprite": "sp-anchoviella_juruasanga.png", "group": "other", "rarity": 1}, {"lat": 53.9333, "lng": -24.0833, "id": "341588", "name": "Gephyrocapsa muellerae", "sprite": "sp-anchoviella_juruasanga.png", "group": "other", "rarity": 1}, {"lat": 53.467, "lng": -23.283, "id": "158917", "name": "Arctic telescope", "thumb": "tn_Prarc_u0.gif", "sprite": "sp-anchoviella_juruasanga.png", "group": "other", "rarity": 1, "waterType": "Saltwater"}, {"lat": 53.467, "lng": -23.283, "id": "127286", "name": "Veiled anglemouth", "thumb": "tn_Cymic_u5.jpg", "sprite": "sp-anchoviella_juruasanga.png", "group": "other", "rarity": 1, "waterType": "Saltwater"}, {"lat": 53.467, "lng": -23.283, "id": "126718", "name": "Grey's deepsea smelt", "thumb": "tn_Bagre_u0.jpg", "sprite": "sp-anchoviella_juruasanga.png", "group": "other", "rarity": 1, "waterType": "Saltwater"}, {"lat": 52.951, "lng": -23.9597, "id": "104469", "name": "Nannocalanus minor", "sprite": "sp-anchoviella_juruasanga.png", "group": "other", "rarity": 1}, {"lat": 52.9814, "lng": -24.0636, "id": "1078", "name": "Ostracoda", "sprite": "sp-anchoviella_juruasanga.png", "group": "other", "rarity": 1}, {"lat": 53.3706, "lng": -24.2438, "id": "841260", "name": "Tripos macroceros", "sprite": "sp-anchoviella_juruasanga.png", "group": "other", "rarity": 1}, {"lat": 53.333, "lng": -23.3165, "id": "113474", "name": "Neogloboquadrina incompta", "sprite": "sp-anchoviella_juruasanga.png", "group": "other", "rarity": 1}, {"lat": 53.4593, "lng": -22.7607, "id": "163348", "name": "Rhizosolenia semispina", "sprite": "sp-anchoviella_juruasanga.png", "group": "other", "rarity": 1}, {"lat": 52.89, "lng": -24.2133, "id": "149074", "name": "Skeletonema costatum", "sprite": "sp-anchoviella_juruasanga.png", "group": "other", "rarity": 1}, {"lat": 52.7684, "lng": -24.088, "id": "149142", "name": "Navicula", "sprite": "sp-anchoviella_juruasanga.png", "group": "other", "rarity": 1}, {"lat": 53.3333, "lng": -23.3166, "id": "235954", "name": "Gephyrocapsa ericsonii", "sprite": "sp-anchoviella_juruasanga.png", "group": "other", "rarity": 1}, {"lat": 53.0816, "lng": -24.0083, "id": "850801", "name": "Metridia lucens lucens", "sprite": "sp-anchoviella_juruasanga.png", "group": "other", "rarity": 1}, {"lat": 53.467, "lng": -23.283, "id": "126596", "name": "White-spotted lantern fish", "thumb": "tn_Diraf_j0.jpg", "sprite": "sp-anchoviella_juruasanga.png", "group": "other", "rarity": 1, "waterType": "Saltwater"}, {"lat": 52.6873, "lng": -23.0699, "id": "148917", "name": "Coscinodiscus", "sprite": "sp-anchoviella_juruasanga.png", "group": "other", "rarity": 1}, {"lat": 53.333, "lng": -23.3165, "id": "113462", "name": "Turborotalita quinqueloba", "sprite": "sp-anchoviella_juruasanga.png", "group": "other", "rarity": 1}, {"lat": 52.93, "lng": -23.5456, "id": "596242", "name": "Pleuromamma abdominalis abdominalis", "sprite": "sp-anchoviella_juruasanga.png", "group": "other", "rarity": 1}, {"lat": 53.467, "lng": -23.283, "id": "126748", "name": "Schnakenbeck's searsid", "thumb": "tn_Sasch_u1.gif", "sprite": "sp-anchoviella_juruasanga.png", "group": "other", "rarity": 1, "waterType": "Saltwater"}, {"lat": 53.1496, "lng": -23.082, "id": "235957", "name": "Gephyrocapsa protohuxleyi", "sprite": "sp-anchoviella_juruasanga.png", "group": "other", "rarity": 1}, {"lat": 53.0947, "lng": -24.1112, "id": "104638", "name": "Pleuromamma borealis", "sprite": "sp-anchoviella_juruasanga.png", "group": "other", "rarity": 1}]}