{"zoom": 7, "x": 55, "y": 90, "points": [{"lat": -59.604, "lng": -24.5915, "id": "104157", "name": "Candacia", "sprite": "sp-anchoviella_juruasanga.png", "group": "other", "rarity": 1}, {"lat": -59.485, "lng": -22.905, "id": "110156", "name": "Peridiniella catenata", "sprite": "sp-anchoviella_juruasanga.png", "group": "other", "rarity": 1}, {"lat": -59.625, "lng": -24.75, "id": "1101", "name": "Cyclopoida", "sprite": "sp-anchoviella_juruasanga.png", "group": "other", "rarity": 1}, {"lat": -59.7353, "lng": -23.2743, "id": "112441", "name": "Placopsilinella aurantiaca", "sprite": "sp-anchoviella_juruasanga.png", "group": "other", "rarity": 1}, {"lat": -59.7353, "lng": -23.2743, "id": "113993", "name": "Reophax bilocularis", "sprite": "sp-anchoviella_juruasanga.png", "group": "other", "rarity": 1}, {"lat": -59.583, "lng": -24.433, "id": "137222", "name": "Doliolum", "sprite": "sp-anchoviella_juruasanga.png", "group": "other", "rarity": 1}, {"lat": -59.625, "lng": -24.75, "id": "104116", "name": "Chiridiella", "sprite": "sp-anchoviella_juruasanga.png", "group": "other", "rarity": 1}, {"lat": -59.7353, "lng": -23.2743, "id": "398905", "name": "Eratidus foliaceus", "sprite": "sp-anchoviella_juruasanga.png", "group": "other", "rarity": 1}, {"lat": -59.63, "lng": -24.55, "id": "1410", "name": "Foraminifera", "sprite": "sp-anchoviella_juruasanga.png", "group": "other", "rarity": 1}, {"lat": -59.825, "lng": -24.91, "id": "225766", "name": "Sterna vittata", "sprite": "sp-anchoviella_juruasanga.png", "group": "other", "rarity": 1}, {"lat": -60.1167, "lng": -24.3167, "id": "332607", "name": "Tomopteris carpenteri", "sprite": "sp-anchoviella_juruasanga.png", "group": "other", "rarity": 1}, {"lat": -59.633, "lng": -24.525, "id": "850801", "name": "Metridia lucens lucens", "sprite": "sp-anchoviella_juruasanga.png", "group": "other", "rarity": 1}, {"lat": -59.7686, "lng": -24.5118, "id": "212638", "name": "Fulmarus glacialoides", "sprite": "sp-anchoviella_juruasanga.png", "group": "other", "rarity": 1}, {"lat": -59.805, "lng": -23.485, "id": "1131", "name": "Isopoda", "sprite": "sp-american_lobster.png", "group": "crab_lobster", "rarity": 1}, {"lat": -59.85, "lng": -24.8317, "id": "160563", "name": "Prymnesium", "sprite": "sp-anchoviella_juruasanga.png", "group": "other", "rarity": 1}, {"lat": -58.8475, "lng": -23.971, "id": "2455", "name": "Daptonema", "sprite": "sp-anchoviella_juruasanga.png", "group": "other", "rarity": 1}, {"lat": -59.7353, "lng": -23.2743, "id": "413977", "name": "Paratrochammina bartrami", "sprite": "sp-anchoviella_juruasanga.png", "group": "other", "rarity": 1}, {"lat": -59.805, "lng": -23.485, "id": "1371", "name": "Siphonophorae", "sprite": "sp-anchoviella_juruasanga.png", "group": "other", "rarity": 1}, {"lat": -58.8472, "lng": -23.8455, "id": "2432", "name": "Pierrickia", "sprite": "sp-anchoviella_juruasanga.png", "group": "other", "rarity": 1}, {"lat": -59.485, "lng": -22.9067, "id": "109876", "name": "Gyrodinium spirale", "sprite": "sp-anchoviella_juruasanga.png", "group": "other", "rarity": 1}, {"lat": -59.6675, "lng": -23.8675, "id": "134563", "name": "Mantoniella squamata", "sprite": "sp-anchoviella_juruasanga.png", "group": "other", "rarity": 1}, {"lat": -59.7353, "lng": -23.2743, "id": "113974", "name": "Saccorhiza ramosa", "sprite": "sp-anchoviella_juruasanga.png", "group": "other", "rarity": 1}, {"lat": -58.8474, "lng": -23.9396, "id": "2303", "name": "Acantholaimus", "sprite": "sp-anchoviella_juruasanga.png", "group": "other", "rarity": 1}, {"lat": -59.7353, "lng": -23.2743, "id": "114282", "name": "Textularia pseudogramen", "sprite": "sp-anchoviella_juruasanga.png", "group": "other", "rarity": 1}, {"lat": -59.633, "lng": -24.525, "id": "104609", "name": "Lucicutia ovalis", "sprite": "sp-anchoviella_juruasanga.png", "group": "other", "rarity": 1}, {"lat": -59.7353, "lng": -23.2743, "id": "1046830", "name": "Deuterammina (Deuterammina) grahami", "sprite": "sp-anchoviella_juruasanga.png", "group": "other", "rarity": 1}, {"lat": -59.7107, "lng": -23.9562, "id": "1078", "name": "Ostracoda", "sprite": "sp-anchoviella_juruasanga.png", "group": "other", "rarity": 1}, {"lat": -59.583, "lng": -24.683, "id": "325312", "name": "Psychroteuthis glacialis", "sprite": "sp-giant_pacific_octopus.png", "group": "octopus_squid", "rarity": 1}, {"lat": -58.8475, "lng": -23.971, "id": "2552", "name": "Thalassoalaimus", "sprite": "sp-anchoviella_juruasanga.png", "group": "other", "rarity": 1}, {"lat": -59.604, "lng": -24.5915, "id": "104191", "name": "Pleuromamma", "sprite": "sp-anchoviella_juruasanga.png", "group": "other", "rarity": 1}, {"lat": -59.7353, "lng": -23.2743, "id": "113110", "name": "Pullenia bulloides", "sprite": "sp-anchoviella_juruasanga.png", "group": "other", "rarity": 1}, {"lat": -59.583, "lng": -24.433, "id": "104335", "name": "Pseudochirella obtusa", "sprite": "sp-anchoviella_juruasanga.png", "group": "other", "rarity": 1}, {"lat": -58.8475, "lng": -23.971, "id": "2346", "name": "Metachromadora", "sprite": "sp-anchoviella_juruasanga.png", "group": "other", "rarity": 1}, {"lat": -59.7353, "lng": -23.2743, "id": "398217", "name": "Alterammina alternans", "sprite": "sp-anchoviella_juruasanga.png", "group": "other", "rarity": 1}, {"lat": -59.65, "lng": -24.6, "id": "173845", "name": "Paradiopatra ehlersi", "sprite": "sp-anchoviella_juruasanga.png", "group": "other", "rarity": 1}, {"lat": -59.633, "lng": -24.525, "id": "104149", "name": "Temorites", "sprite": "sp-anchoviella_juruasanga.png", "group": "other", "rarity": 1}, {"lat": -59.682, "lng": -23.984, "id": "582421", "name": "Radiozoa", "sprite": "sp-anchoviella_juruasanga.png", "group": "other", "rarity": 1}, {"lat": -59.7353, "lng": -23.2743, "id": "417607", "name": "Adercotryma glomeratum", "sprite": "sp-anchoviella_juruasanga.png", "group": "other", "rarity": 1}, {"lat": -59.7353, "lng": -23.2743, "id": "113827", "name": "Ammolagena clavata", "sprite": "sp-anchoviella_juruasanga.png", "group": "other", "rarity": 1}, {"lat": -58.8475, "lng": -23.971, "id": "227486", "name": "Pseudochromadora", "sprite": "sp-anchoviella_juruasanga.png", "group": "other", "rarity": 1}, {"lat": -59.5983, "lng": -24.3517, "id": "148985", "name": "Chaetoceros", "sprite": "sp-anchoviella_juruasanga.png", "group": "other", "rarity": 1}, {"lat": -59.7353, "lng": -23.2743, "id": "114191", "name": "Saccammina sphaerica", "sprite": "sp-anchoviella_juruasanga.png", "group": "other", "rarity": 1}, {"lat": -59.625, "lng": -24.7333, "id": "217697", "name": "Electrona antarctica", "thumb": "tn_Elant_u0.gif", "sprite": "sp-anchoviella_juruasanga.png", "group": "other", "rarity": 1, "waterType": "Saltwater"}, {"lat": -59.625, "lng": -24.7333, "id": "234749", "name": "Gymnoscopelus opisthopterus", "thumb": "tn_Gyopi_u0.jpg", "sprite": "sp-anchoviella_juruasanga.png", "group": "other", "rarity": 1, "waterType": "Saltwater"}, {"lat": -59.604, "lng": -24.5915, "id": "104201", "name": "Onchocalanus", "sprite": "sp-anchoviella_juruasanga.png", "group": "other", "rarity": 1}, {"lat": -59.85, "lng": -24.8317, "id": "109741", "name": "Amphidinium longum", "sprite": "sp-anchoviella_juruasanga.png", "group": "other", "rarity": 1}, {"lat": -59.75, "lng": -24.638, "id": "212696", "name": "Fregetta tropica", "sprite": "sp-anchoviella_juruasanga.png", "group": "other", "rarity": 1}, {"lat": -59.6667, "lng": -24.7833, "id": "125498", "name": "Myctophidae", "sprite": "sp-anchoviella_juruasanga.png", "group": "other", "rarity": 1}, {"lat": -59.5833, "lng": -24.6833, "id": "234823", "name": "Dogtooth grenadier", "thumb": "tn_Cypir_u0.gif", "sprite": "sp-anchoviella_juruasanga.png", "group": "other", "rarity": 1, "waterType": "Saltwater"}, {"lat": -59.625, "lng": -24.75, "id": "955128", "name": "Elenacalanus princeps", "sprite": "sp-anchoviella_juruasanga.png", "group": "other", "rarity": 1}, {"lat": -59.6067, "lng": -23.5472, "id": "248133", "name": "Monas", "sprite": "sp-anchoviella_juruasanga.png", "group": "other", "rarity": 1}, {"lat": -58.8475, "lng": -23.971, "id": "2369", "name": "Desmoscolex", "sprite": "sp-anchoviella_juruasanga.png", "group": "other", "rarity": 1}, {"lat": -59.795, "lng": -24.4933, "id": "212647", "name": "Pachyptila vittata", "sprite": "sp-anchoviella_juruasanga.png", "group": "other", "rarity": 1}, {"lat": -59.583, "lng": -24.433, "id": "1100", "name": "Calanoida", "sprite": "sp-anchoviella_juruasanga.png", "group": "other", "rarity": 1}, {"lat": -59.583, "lng": -24.433, "id": "101408", "name": "Stegocephalidae", "sprite": "sp-american_lobster.png", "group": "crab_lobster", "rarity": 1}, {"lat": -58.8475, "lng": -23.971, "id": "2407", "name": "Leptolaimus", "sprite": "sp-anchoviella_juruasanga.png", "group": "other", "rarity": 1}, {"lat": -59.604, "lng": -24.5915, "id": "104137", "name": "Augaptilus", "sprite": "sp-anchoviella_juruasanga.png", "group": "other", "rarity": 1}, {"lat": -59.6137, "lng": -24.5693, "id": "104111", "name": "Aetideopsis", "sprite": "sp-anchoviella_juruasanga.png", "group": "other", "rarity": 1}, {"lat": -59.485, "lng": -22.9033, "id": "118182", "name": "Pleurocrypta", "sprite": "sp-american_lobster.png", "group": "crab_lobster", "rarity": 1}, {"lat": -59.6975, "lng": -23.87, "id": "883", "name": "Polychaeta", "sprite": "sp-anchoviella_juruasanga.png", "group": "other", "rarity": 1}, {"lat": -59.7353, "lng": -23.2743, "id": "113975", "name": "Cuneata arctica", "sprite": "sp-anchoviella_juruasanga.png", "group": "other", "rarity": 1}, {"lat": -58.8475, "lng": -23.971, "id": "2343", "name": "Molgolaimus", "sprite": "sp-anchoviella_juruasanga.png", "group": "other", "rarity": 1}, {"lat": -59.604, "lng": -24.5915, "id": "104152", "name": "Calanus", "sprite": "sp-anchoviella_juruasanga.png", "group": "other", "rarity": 1}, {"lat": -59.79, "lng": -24.825, "id": "2688", "name": "Cetacea", "sprite": "sp-anchoviella_juruasanga.png", "group": "other", "rarity": 1}, {"lat": -59.7353, "lng": -23.2743, "id": "254689", "name": "Lagenammina tubulata", "sprite": "sp-anchoviella_juruasanga.png", "group": "other", "rarity": 1}, {"lat": -58.8474, "lng": -23.9396, "id": "2366", "name": "Microlaimus", "sprite": "sp-anchoviella_juruasanga.png", "group": "other", "rarity": 1}, {"lat": -59.3083, "lng": -24.2265, "id": "231413", "name": "Mirounga leonina", "sprite": "sp-elephant_seal.png", "group": "seal", "rarity": 1}, {"lat": -59.7353, "lng": -23.2743, "id": "1043250", "name": "Saccamminis multicellus", "sprite": "sp-anchoviella_juruasanga.png", "group": "other", "rarity": 1}, {"lat": -59.7353, "lng": -23.2743, "id": "112412", "name": "Trochammina", "sprite": "sp-anchoviella_juruasanga.png", "group": "other", "rarity": 1}, {"lat": -59.6067, "lng": -23.5472, "id": "603675", "name": "Pyramidomonas", "sprite": "sp-anchoviella_juruasanga.png", "group": "other", "rarity": 1}, {"lat": -58.8472, "lng": -23.8455, "id": "2433", "name": "Sabatieria", "sprite": "sp-anchoviella_juruasanga.png", "group": "other", "rarity": 1}, {"lat": -59.72, "lng": -24.67, "id": "196034", "name": "Spheniscidae", "sprite": "sp-anchoviella_juruasanga.png", "group": "other", "rarity": 1}, {"lat": -58.8475, "lng": -23.971, "id": "2381", "name": "Aegialoalaimus", "sprite": "sp-anchoviella_juruasanga.png", "group": "other", "rarity": 1}, {"lat": -58.8475, "lng": -23.971, "id": "2389", "name": "Pselionema", "sprite": "sp-anchoviella_juruasanga.png", "group": "other", "rarity": 1}, {"lat": -58.8475, "lng": -23.971, "id": "2398", "name": "Procamacolaimus", "sprite": "sp-anchoviella_juruasanga.png", "group": "other", "rarity": 1}, {"lat": -59.73, "lng": -24.32, "id": "212637", "name": "Macronectes halli", "sprite": "sp-anchoviella_juruasanga.png", "group": "other", "rarity": 1}, {"lat": -59.58, "lng": -24.25, "id": "19494", "name": "Hydroidolina", "sprite": "sp-anchoviella_juruasanga.png", "group": "other", "rarity": 1}, {"lat": -59.84, "lng": -24.5011, "id": "225783", "name": "Pygoscelis antarcticus", "sprite": "sp-anchoviella_juruasanga.png", "group": "other", "rarity": 1}, {"lat": -59.7353, "lng": -23.2743, "id": "114324", "name": "Recurvoidella bradyi", "sprite": "sp-anchoviella_juruasanga.png", "group": "other", "rarity": 1}, {"lat": -58.8475, "lng": -23.971, "id": "2548", "name": "Halalaimus", "sprite": "sp-anchoviella_juruasanga.png", "group": "other", "rarity": 1}, {"lat": -59.725, "lng": -24.58, "id": "206822", "name": "Macronectes", "sprite": "sp-anchoviella_juruasanga.png", "group": "other", "rarity": 1}, {"lat": -58.8475, "lng": -23.971, "id": "156847", "name": "Metasphaerolaimus", "sprite": "sp-anchoviella_juruasanga.png", "group": "other", "rarity": 1}, {"lat": -59.485, "lng": -22.9033, "id": "134559", "name": "Pyramimonas virginica", "sprite": "sp-anchoviella_juruasanga.png", "group": "other", "rarity": 1}, {"lat": -58.86, "lng": -23.988, "id": "127814", "name": "Metaconchoecia skogsbergi", "sprite": "sp-anchoviella_juruasanga.png", "group": "other", "rarity": 1}, {"lat": -59.6137, "lng": -24.5693, "id": "101806", "name": "Primno", "sprite": "sp-american_lobster.png", "group": "crab_lobster", "rarity": 1}, {"lat": -59.3295, "lng": -24.3983, "id": "231404", "name": "Arctocephalus gazella", "sprite": "sp-elephant_seal.png", "group": "seal", "rarity": 1}, {"lat": -59.583, "lng": -24.433, "id": "104339", "name": "Pseudochirella spectabilis", "sprite": "sp-anchoviella_juruasanga.png", "group": "other", "rarity": 1}, {"lat": -59.74, "lng": -23.55, "id": "1571884", "name": "Sagmatias australis", "sprite": "sp-bottlenose_dolphin.png", "group": "dolphin", "rarity": 1}, {"lat": -59.7353, "lng": -23.2743, "id": "114184", "name": "Psammosphaera fusca", "sprite": "sp-anchoviella_juruasanga.png", "group": "other", "rarity": 1}, {"lat": -59.7353, "lng": -23.2743, "id": "114016", "name": "Reophax scorpiurus", "sprite": "sp-anchoviella_juruasanga.png", "group": "other", "rarity": 1}, {"lat": -59.705, "lng": -23.9312, "id": "1128", "name": "Euphausiacea", "sprite": "sp-antarctic_krill.png", "group": "shrimp", "rarity": 1}, {"lat": -59.7353, "lng": -23.2743, "id": "114165", "name": "Lagenammina difflugiformis", "sprite": "sp-anchoviella_juruasanga.png", "group": "other", "rarity": 1}, {"lat": -58.8474, "lng": -23.9292, "id": "2379", "name": "Tricoma", "sprite": "sp-anchoviella_juruasanga.png", "group": "other", "rarity": 1}, {"lat": -59.96, "lng": -24.6933, "id": "212644", "name": "Pterodroma macroptera", "sprite": "sp-anchoviella_juruasanga.png", "group": "other", "rarity": 1}, {"lat": -59.6067, "lng": -23.5472, "id": "109475", "name": "Gymnodinium", "sprite": "sp-anchoviella_juruasanga.png", "group": "other", "rarity": 1}, {"lat": -59.485, "lng": -22.9033, "id": "109538", "name": "Glenodinium", "sprite": "sp-anchoviella_juruasanga.png", "group": "other", "rarity": 1}, {"lat": -59.5833, "lng": -24.6833, "id": "154631", "name": "Muraenolepididae", "sprite": "sp-anchoviella_juruasanga.png", "group": "other", "rarity": 1}, {"lat": -59.604, "lng": -24.5915, "id": "101800", "name": "Themisto", "sprite": "sp-american_lobster.png", "group": "crab_lobster", "rarity": 1}, {"lat": -59.665, "lng": -24.0467, "id": "2081", "name": "Chaetognatha", "sprite": "sp-anchoviella_juruasanga.png", "group": "other", "rarity": 1}, {"lat": -59.7353, "lng": -23.2743, "id": "1039012", "name": "Reophax pilulifer", "sprite": "sp-anchoviella_juruasanga.png", "group": "other", "rarity": 1}, {"lat": -59.71, "lng": -25.2, "id": "212632", "name": "Phoebetria fusca", "sprite": "sp-anchoviella_juruasanga.png", "group": "other", "rarity": 1}, {"lat": -59.7353, "lng": -23.2743, "id": "112315", "name": "Rhabdammina", "sprite": "sp-anchoviella_juruasanga.png", "group": "other", "rarity": 1}, {"lat": -59.6675, "lng": -23.8692, "id": "109476", "name": "Gyrodinium", "sprite": "sp-anchoviella_juruasanga.png", "group": "other", "rarity": 1}, {"lat": -59.6137, "lng": -24.5693, "id": "104190", "name": "Metridia", "sprite": "sp-anchoviella_juruasanga.png", "group": "other", "rarity": 1}, {"lat": -58.8475, "lng": -23.971, "id": "2312", "name": "Paralongicyatholaimus", "sprite": "sp-anchoviella_juruasanga.png", "group": "other", "rarity": 1}, {"lat": -58.8475, "lng": -23.971, "id": "2339", "name": "Desmodora", "sprite": "sp-anchoviella_juruasanga.png", "group": "other", "rarity": 1}, {"lat": -59.6675, "lng": -23.8675, "id": "17657", "name": "Eutreptiella", "sprite": "sp-anchoviella_juruasanga.png", "group": "other", "rarity": 1}, {"lat": -59.6067, "lng": -23.5472, "id": "110152", "name": "Heterocapsa rotundata", "sprite": "sp-anchoviella_juruasanga.png", "group": "other", "rarity": 1}, {"lat": -59.633, "lng": -24.525, "id": "104229", "name": "Scolecithricella", "sprite": "sp-anchoviella_juruasanga.png", "group": "other", "rarity": 1}, {"lat": -59.6137, "lng": -24.5693, "id": "104172", "name": "Rhincalanus", "sprite": "sp-anchoviella_juruasanga.png", "group": "other", "rarity": 1}, {"lat": -59.7353, "lng": -23.2743, "id": "112154", "name": "Fissurina", "sprite": "sp-anchoviella_juruasanga.png", "group": "other", "rarity": 1}, {"lat": -59.7353, "lng": -23.2743, "id": "398902", "name": "Ammomarginulina recurva", "sprite": "sp-anchoviella_juruasanga.png", "group": "other", "rarity": 1}, {"lat": -59.6067, "lng": -23.5472, "id": "663583", "name": "Protodinium simplex", "sprite": "sp-anchoviella_juruasanga.png", "group": "other", "rarity": 1}, {"lat": -59.7353, "lng": -23.2743, "id": "113930", "name": "Eggerella bradyi", "sprite": "sp-anchoviella_juruasanga.png", "group": "other", "rarity": 1}, {"lat": -59.96, "lng": -24.6933, "id": "204680", "name": "Pachyptila", "sprite": "sp-anchoviella_juruasanga.png", "group": "other", "rarity": 1}, {"lat": -58.8472, "lng": -23.8455, "id": "2444", "name": "Diplolaimella", "sprite": "sp-anchoviella_juruasanga.png", "group": "other", "rarity": 1}, {"lat": -59.7353, "lng": -23.2743, "id": "465869", "name": "Trochamminella", "sprite": "sp-anchoviella_juruasanga.png", "group": "other", "rarity": 1}, {"lat": -58.8475, "lng": -23.971, "id": "2383", "name": "Diplopeltoides", "sprite": "sp-anchoviella_juruasanga.png", "group": "other", "rarity": 1}, {"lat": -59.583, "lng": -24.683, "id": "11716", "name": "Teuthida", "sprite": "sp-giant_pacific_octopus.png", "group": "octopus_squid", "rarity": 1}, {"lat": -59.96, "lng": -24.6933, "id": "212651", "name": "Procellaria aequinoctialis", "sprite": "sp-anchoviella_juruasanga.png", "group": "other", "rarity": 1}]}