{"zoom": 7, "x": 56, "y": 35, "points": [{"lat": 62.1721, "lng": -20.0244, "id": "148985", "name": "Chaetoceros", "sprite": "sp-anchoviella_juruasanga.png", "group": "other", "rarity": 1}, {"lat": 62.1977, "lng": -19.9056, "id": "232716", "name": "Gymnodinium aureolum", "sprite": "sp-anchoviella_juruasanga.png", "group": "other", "rarity": 1}, {"lat": 62.7, "lng": -20.2333, "id": "137060", "name": "Oceanodroma", "sprite": "sp-anchoviella_juruasanga.png", "group": "other", "rarity": 1}, {"lat": 62.1542, "lng": -21.0338, "id": "104108", "name": "Acartia", "sprite": "sp-anchoviella_juruasanga.png", "group": "other", "rarity": 1}, {"lat": 62.8717, "lng": -21.05, "id": "1082", "name": "Cirripedia", "sprite": "sp-anchoviella_juruasanga.png", "group": "other", "rarity": 1}, {"lat": 62.0, "lng": -20.0, "id": "126758", "name": "Atlantic wolffish", "thumb": "tn_Anlup_u8.jpg", "sprite": "sp-anchoviella_juruasanga.png", "group": "other", "rarity": 1, "waterType": "Saltwater"}, {"lat": 62.5833, "lng": -19.975, "id": "983570", "name": "Coscinodiscus lacustris f. lacustris", "sprite": "sp-anchoviella_juruasanga.png", "group": "other", "rarity": 1}, {"lat": 62.5528, "lng": -20.3726, "id": "118261", "name": "Macrostylidae", "sprite": "sp-american_lobster.png", "group": "crab_lobster", "rarity": 1}, {"lat": 62.0813, "lng": -20.6445, "id": "163348", "name": "Rhizosolenia semispina", "sprite": "sp-anchoviella_juruasanga.png", "group": "other", "rarity": 1}, {"lat": 62.181, "lng": -19.9432, "id": "149222", "name": "Chaetoceros pseudocrinitus", "sprite": "sp-anchoviella_juruasanga.png", "group": "other", "rarity": 1}, {"lat": 61.71, "lng": -19.8184, "id": "251728", "name": "Proboscia alata f. alata", "sprite": "sp-anchoviella_juruasanga.png", "group": "other", "rarity": 1}, {"lat": 62.1244, "lng": -19.9512, "id": "109476", "name": "Gyrodinium", "sprite": "sp-anchoviella_juruasanga.png", "group": "other", "rarity": 1}, {"lat": 62.2331, "lng": -19.97, "id": "109433", "name": "Peridiniaceae", "sprite": "sp-anchoviella_juruasanga.png", "group": "other", "rarity": 1}, {"lat": 62.423, "lng": -20.2515, "id": "157256", "name": "Dictyochales", "sprite": "sp-anchoviella_juruasanga.png", "group": "other", "rarity": 1}, {"lat": 62.5833, "lng": -19.85, "id": "576265", "name": "Gymnodinium wulffii", "sprite": "sp-anchoviella_juruasanga.png", "group": "other", "rarity": 1}, {"lat": 61.9483, "lng": -20.2183, "id": "104467", "name": "Calanus hyperboreus", "sprite": "sp-anchoviella_juruasanga.png", "group": "other", "rarity": 1}, {"lat": 61.9908, "lng": -19.8879, "id": "160572", "name": "Synechococcus", "sprite": "sp-anchoviella_juruasanga.png", "group": "other", "rarity": 1}, {"lat": 62.263, "lng": -20.0971, "id": "5", "name": "Protozoa", "sprite": "sp-anchoviella_juruasanga.png", "group": "other", "rarity": 1}, {"lat": 62.2288, "lng": -19.9189, "id": "562574", "name": "Bodonida", "sprite": "sp-anchoviella_juruasanga.png", "group": "other", "rarity": 1}, {"lat": 62.0, "lng": -20.0, "id": "105919", "name": "Greenland shark", "thumb": "tn_Somic_u0.gif", "sprite": "sp-great_white_shark.png", "group": "shark", "rarity": 1, "waterType": "Brackish"}, {"lat": 62.0, "lng": -21.8167, "id": "127553", "name": "Paramollicia", "sprite": "sp-anchoviella_juruasanga.png", "group": "other", "rarity": 1}, {"lat": 62.2801, "lng": -20.2838, "id": "233024", "name": "Karenia mikimotoi", "sprite": "sp-anchoviella_juruasanga.png", "group": "other", "rarity": 1}, {"lat": 62.1674, "lng": -20.1099, "id": "978142", "name": "Pyxidicula compressa var. compressa", "sprite": "sp-anchoviella_juruasanga.png", "group": "other", "rarity": 1}, {"lat": 62.4133, "lng": -19.81, "id": "1137", "name": "Cumacea", "sprite": "sp-american_lobster.png", "group": "crab_lobster", "rarity": 1}, {"lat": 62.5833, "lng": -19.975, "id": "992758", "name": "Aduncodinium glandula", "sprite": "sp-anchoviella_juruasanga.png", "group": "other", "rarity": 1}, {"lat": 62.3638, "lng": -20.5949, "id": "109553", "name": "Protoperidinium", "sprite": "sp-anchoviella_juruasanga.png", "group": "other", "rarity": 1}, {"lat": 62.2801, "lng": -20.2838, "id": "573401", "name": "Syracosphaera rotula", "sprite": "sp-anchoviella_juruasanga.png", "group": "other", "rarity": 1}, {"lat": 62.2964, "lng": -20.2829, "id": "109511", "name": "Micranthodinium", "sprite": "sp-anchoviella_juruasanga.png", "group": "other", "rarity": 1}, {"lat": 61.8765, "lng": -19.9249, "id": "1382182", "name": "Lebouridinium glaucum", "sprite": "sp-anchoviella_juruasanga.png", "group": "other", "rarity": 1}, {"lat": 62.5833, "lng": -19.9778, "id": "149120", "name": "Chaetoceros danicus", "sprite": "sp-anchoviella_juruasanga.png", "group": "other", "rarity": 1}, {"lat": 62.4567, "lng": -20.4117, "id": "146203", "name": "Dinoflagellata", "sprite": "sp-anchoviella_juruasanga.png", "group": "other", "rarity": 1}, {"lat": 62.1925, "lng": -21.1083, "id": "149150", "name": "Nitzschia longissima", "sprite": "sp-anchoviella_juruasanga.png", "group": "other", "rarity": 1}, {"lat": 62.3443, "lng": -19.9803, "id": "1310442", "name": "Octactis speculum", "sprite": "sp-anchoviella_juruasanga.png", "group": "other", "rarity": 1}, {"lat": 62.0209, "lng": -19.9966, "id": "679262", "name": "Chaetoceros distans var. subsecunda", "sprite": "sp-anchoviella_juruasanga.png", "group": "other", "rarity": 1}, {"lat": 62.5833, "lng": -19.9333, "id": "156690", "name": "Thalassiosira baltica", "sprite": "sp-anchoviella_juruasanga.png", "group": "other", "rarity": 1}, {"lat": 62.0, "lng": -21.6, "id": "101912", "name": "Ampelisca odontoplax", "sprite": "sp-american_lobster.png", "group": "crab_lobster", "rarity": 1}, {"lat": 61.8897, "lng": -19.9881, "id": "137017", "name": "Globicephala", "sprite": "sp-bottlenose_dolphin.png", "group": "dolphin", "rarity": 1}, {"lat": 61.8025, "lng": -19.8425, "id": "160595", "name": "Pterosperma", "sprite": "sp-anchoviella_juruasanga.png", "group": "other", "rarity": 1}, {"lat": 62.5833, "lng": -19.975, "id": "109726", "name": "Amphidinium crassum", "sprite": "sp-anchoviella_juruasanga.png", "group": "other", "rarity": 1}, {"lat": 62.0, "lng": -20.0, "id": "105869", "name": "Blue skate", "thumb": "tn_Dibat_m0.jpg", "sprite": "sp-himantura_australis.png", "group": "ray", "rarity": 1, "waterType": "Saltwater"}, {"lat": 62.0, "lng": -21.6, "id": "136373", "name": "Agathotanais ingolfi", "sprite": "sp-american_lobster.png", "group": "crab_lobster", "rarity": 1}, {"lat": 62.2399, "lng": -20.0652, "id": "109475", "name": "Gymnodinium", "sprite": "sp-anchoviella_juruasanga.png", "group": "other", "rarity": 1}, {"lat": 62.0, "lng": -20.0, "id": "105872", "name": "Longnosed skate", "thumb": "tn_Dioxy_u0.gif", "sprite": "sp-himantura_australis.png", "group": "ray", "rarity": 1, "waterType": "Saltwater"}, {"lat": 62.1692, "lng": -20.0481, "id": "17640", "name": "Cryptomonadales", "sprite": "sp-anchoviella_juruasanga.png", "group": "other", "rarity": 1}, {"lat": 62.5317, "lng": -21.0925, "id": "104878", "name": "Temora longicornis", "sprite": "sp-anchoviella_juruasanga.png", "group": "other", "rarity": 1}, {"lat": 62.5855, "lng": -20.2375, "id": "109627", "name": "Dinophysis hastata", "sprite": "sp-anchoviella_juruasanga.png", "group": "other", "rarity": 1}, {"lat": 62.88, "lng": -20.9467, "id": "104466", "name": "Calanus helgolandicus", "sprite": "sp-anchoviella_juruasanga.png", "group": "other", "rarity": 1}, {"lat": 62.5528, "lng": -20.3726, "id": "118256", "name": "Ischnomesidae", "sprite": "sp-american_lobster.png", "group": "crab_lobster", "rarity": 1}, {"lat": 62.5833, "lng": -19.9833, "id": "109477", "name": "Katodinium", "sprite": "sp-anchoviella_juruasanga.png", "group": "other", "rarity": 1}, {"lat": 61.8017, "lng": -22.3667, "id": "149297", "name": "Chaetoceros ceratosporus", "sprite": "sp-anchoviella_juruasanga.png", "group": "other", "rarity": 1}, {"lat": 62.0, "lng": -20.0, "id": "126996", "name": "Rock gunnel", "thumb": "tn_Phgun_u1.jpg", "sprite": "sp-anchoviella_juruasanga.png", "group": "other", "rarity": 1, "waterType": "Brackish"}, {"lat": 62.2801, "lng": -20.2838, "id": "110097", "name": "Oxytoxum laticeps", "sprite": "sp-anchoviella_juruasanga.png", "group": "other", "rarity": 1}, {"lat": 62.0, "lng": -21.53, "id": "100968", "name": "Stephanauge acanellae", "sprite": "sp-actiniidae.png", "group": "coral", "rarity": 1}, {"lat": 62.2161, "lng": -19.9984, "id": "577742", "name": "Thalassiosira profunda", "sprite": "sp-anchoviella_juruasanga.png", "group": "other", "rarity": 1}, {"lat": 62.5833, "lng": -19.85, "id": "163487", "name": "Thalassiosira guillardii", "sprite": "sp-anchoviella_juruasanga.png", "group": "other", "rarity": 1}, {"lat": 62.5527, "lng": -20.3882, "id": "118340", "name": "Eurycope", "sprite": "sp-american_lobster.png", "group": "crab_lobster", "rarity": 1}, {"lat": 62.5833, "lng": -19.975, "id": "248145", "name": "Oocystis submarina", "sprite": "sp-anchoviella_juruasanga.png", "group": "other", "rarity": 1}, {"lat": 62.2801, "lng": -20.2838, "id": "149168", "name": "Proboscia alata", "sprite": "sp-anchoviella_juruasanga.png", "group": "other", "rarity": 1}, {"lat": 62.2227, "lng": -20.3016, "id": "109487", "name": "Pronoctiluca", "sprite": "sp-anchoviella_juruasanga.png", "group": "other", "rarity": 1}, {"lat": 62.5833, "lng": -19.975, "id": "110152", "name": "Heterocapsa rotundata", "sprite": "sp-anchoviella_juruasanga.png", "group": "other", "rarity": 1}, {"lat": 62.0349, "lng": -20.7075, "id": "837453", "name": "Tripos horridus", "sprite": "sp-anchoviella_juruasanga.png", "group": "other", "rarity": 1}, {"lat": 62.2633, "lng": -21.27, "id": "104275", "name": "Aetideus armatus", "sprite": "sp-anchoviella_juruasanga.png", "group": "other", "rarity": 1}, {"lat": 62.1111, "lng": -20.6111, "id": "127023", "name": "Atlantic mackerel", "thumb": "tn_Scsco_u4.jpg", "sprite": "sp-bluefin_tuna.png", "group": "tuna_mackerel", "rarity": 1, "waterType": "Brackish"}, {"lat": 62.0102, "lng": -20.0682, "id": "110257", "name": "Protoperidinium steinii", "sprite": "sp-anchoviella_juruasanga.png", "group": "other", "rarity": 1}, {"lat": 62.1801, "lng": -19.9848, "id": "180727", "name": "Navicula planamembranacea", "sprite": "sp-anchoviella_juruasanga.png", "group": "other", "rarity": 1}, {"lat": 62.605, "lng": -21.0, "id": "137091", "name": "Balaenoptera physalus", "sprite": "sp-blue_whale.png", "group": "whale", "rarity": 1}, {"lat": 62.0, "lng": -20.0, "id": "105766", "name": "Raja", "sprite": "sp-himantura_australis.png", "group": "ray", "rarity": 1}, {"lat": 62.2117, "lng": -21.3175, "id": "1102", "name": "Harpacticoida", "sprite": "sp-anchoviella_juruasanga.png", "group": "other", "rarity": 1}, {"lat": 62.0, "lng": -21.6, "id": "181824", "name": "Bathycuma brevirostre", "sprite": "sp-american_lobster.png", "group": "crab_lobster", "rarity": 1}, {"lat": 62.7868, "lng": -20.8999, "id": "137156", "name": "Rissa tridactyla", "sprite": "sp-anchoviella_juruasanga.png", "group": "other", "rarity": 1}, {"lat": 62.0069, "lng": -20.0086, "id": "156505", "name": "Phalacroma rotundatum", "sprite": "sp-anchoviella_juruasanga.png", "group": "other", "rarity": 1}, {"lat": 62.5527, "lng": -20.3804, "id": "183057", "name": "Chelator insignis", "sprite": "sp-american_lobster.png", "group": "crab_lobster", "rarity": 1}, {"lat": 62.2777, "lng": -20.9797, "id": "104464", "name": "Calanus finmarchicus", "sprite": "sp-anchoviella_juruasanga.png", "group": "other", "rarity": 1}, {"lat": 62.2384, "lng": -20.6912, "id": "840627", "name": "Tripos furca", "sprite": "sp-anchoviella_juruasanga.png", "group": "other", "rarity": 1}, {"lat": 62.0, "lng": -20.0, "id": "127214", "name": "Lumpfish", "thumb": "tn_Cylum_u1.jpg", "sprite": "sp-anchoviella_juruasanga.png", "group": "other", "rarity": 1, "waterType": "Saltwater"}, {"lat": 62.4523, "lng": -20.2305, "id": "110035", "name": "Gonyaulax polygramma", "sprite": "sp-anchoviella_juruasanga.png", "group": "other", "rarity": 1}, {"lat": 62.7767, "lng": -20.3067, "id": "104161", "name": "Clausocalanus", "sprite": "sp-anchoviella_juruasanga.png", "group": "other", "rarity": 1}, {"lat": 61.8975, "lng": -19.8593, "id": "134528", "name": "Halosphaera", "sprite": "sp-anchoviella_juruasanga.png", "group": "other", "rarity": 1}, {"lat": 62.5528, "lng": -20.3726, "id": "118263", "name": "Munnidae", "sprite": "sp-american_lobster.png", "group": "crab_lobster", "rarity": 1}, {"lat": 62.4333, "lng": -19.992, "id": "149074", "name": "Skeletonema costatum", "sprite": "sp-anchoviella_juruasanga.png", "group": "other", "rarity": 1}, {"lat": 62.7333, "lng": -20.2111, "id": "137192", "name": "Oceanodroma leucorhoa", "sprite": "sp-anchoviella_juruasanga.png", "group": "other", "rarity": 1}, {"lat": 62.72, "lng": -21.025, "id": "104638", "name": "Pleuromamma borealis", "sprite": "sp-anchoviella_juruasanga.png", "group": "other", "rarity": 1}, {"lat": 62.5833, "lng": -19.975, "id": "162715", "name": "Planctonema", "sprite": "sp-anchoviella_juruasanga.png", "group": "other", "rarity": 1}, {"lat": 62.591, "lng": -20.6178, "id": "137119", "name": "Physeter macrocephalus", "sprite": "sp-blue_whale.png", "group": "whale", "rarity": 1}, {"lat": 62.2202, "lng": -19.9448, "id": "109889", "name": "Torodinium robustum", "sprite": "sp-anchoviella_juruasanga.png", "group": "other", "rarity": 1}, {"lat": 62.4523, "lng": -20.2305, "id": "149114", "name": "Rhizosolenia delicatula", "sprite": "sp-anchoviella_juruasanga.png", "group": "other", "rarity": 1}, {"lat": 62.025, "lng": -21.7083, "id": "127828", "name": "Obtusoecia obtusata", "sprite": "sp-anchoviella_juruasanga.png", "group": "other", "rarity": 1}, {"lat": 62.5833, "lng": -19.9833, "id": "163063", "name": "Chaetoceros holsaticus", "sprite": "sp-anchoviella_juruasanga.png", "group": "other", "rarity": 1}, {"lat": 61.9556, "lng": -21.3633, "id": "1078", "name": "Ostracoda", "sprite": "sp-anchoviella_juruasanga.png", "group": "other", "rarity": 1}, {"lat": 62.2934, "lng": -20.9249, "id": "106485", "name": "Oithona", "sprite": "sp-anchoviella_juruasanga.png", "group": "other", "rarity": 1}, {"lat": 62.2529, "lng": -20.905, "id": "1128", "name": "Euphausiacea", "sprite": "sp-antarctic_krill.png", "group": "shrimp", "rarity": 1}, {"lat": 62.3894, "lng": -20.0, "id": "109519", "name": "Gonyaulax", "sprite": "sp-anchoviella_juruasanga.png", "group": "other", "rarity": 1}, {"lat": 62.124, "lng": -19.9516, "id": "248178", "name": "Holococcolithophora", "sprite": "sp-anchoviella_juruasanga.png", "group": "other", "rarity": 1}, {"lat": 61.71, "lng": -19.8183, "id": "109843", "name": "Gyrodinium britannicum", "sprite": "sp-anchoviella_juruasanga.png", "group": "other", "rarity": 1}, {"lat": 61.8017, "lng": -22.3667, "id": "249690", "name": "Achroonema", "sprite": "sp-anchoviella_juruasanga.png", "group": "other", "rarity": 1}, {"lat": 62.085, "lng": -19.9002, "id": "235944", "name": "Coronosphaera mediterranea", "sprite": "sp-anchoviella_juruasanga.png", "group": "other", "rarity": 1}, {"lat": 61.689, "lng": -19.884, "id": "149126", "name": "Chaetoceros decipiens", "sprite": "sp-anchoviella_juruasanga.png", "group": "other", "rarity": 1}, {"lat": 61.71, "lng": -19.8184, "id": "110298", "name": "Prorocentrum dentatum", "sprite": "sp-anchoviella_juruasanga.png", "group": "other", "rarity": 1}, {"lat": 62.0, "lng": -20.0, "id": "105865", "name": "Starry ray", "thumb": "tn_Amrad_u0.jpg", "sprite": "sp-himantura_australis.png", "group": "ray", "rarity": 1, "waterType": "Brackish"}, {"lat": 62.5527, "lng": -20.3882, "id": "110570", "name": "Cumellopsis puritani", "sprite": "sp-american_lobster.png", "group": "crab_lobster", "rarity": 1}, {"lat": 62.4084, "lng": -20.262, "id": "235955", "name": "Gephyrocapsa oceanica", "sprite": "sp-anchoviella_juruasanga.png", "group": "other", "rarity": 1}, {"lat": 61.9483, "lng": -20.2183, "id": "104543", "name": "Rhincalanus nasutus", "sprite": "sp-anchoviella_juruasanga.png", "group": "other", "rarity": 1}, {"lat": 62.3806, "lng": -20.4967, "id": "179785", "name": "Dactyliosolen antarcticus", "sprite": "sp-anchoviella_juruasanga.png", "group": "other", "rarity": 1}, {"lat": 62.0, "lng": -20.0, "id": "126643", "name": "Snubnosed spiny eel", "thumb": "tn_Noche_u0.jpg", "sprite": "sp-anchoviella_juruasanga.png", "group": "other", "rarity": 1, "waterType": "Saltwater"}, {"lat": 62.3133, "lng": -19.997, "id": "156509", "name": "Ceratium arcticum", "sprite": "sp-anchoviella_juruasanga.png", "group": "other", "rarity": 1}, {"lat": 62.7667, "lng": -20.1833, "id": "137174", "name": "Stercorarius skua", "sprite": "sp-anchoviella_juruasanga.png", "group": "other", "rarity": 1}, {"lat": 62.1494, "lng": -19.9259, "id": "109604", "name": "Dinophysis acuta", "sprite": "sp-anchoviella_juruasanga.png", "group": "other", "rarity": 1}, {"lat": 62.4107, "lng": -19.997, "id": "238373", "name": "Chaetoceros volans", "sprite": "sp-anchoviella_juruasanga.png", "group": "other", "rarity": 1}, {"lat": 62.6633, "lng": -21.7383, "id": "104579", "name": "Heterorhabdus norvegicus", "sprite": "sp-anchoviella_juruasanga.png", "group": "other", "rarity": 1}, {"lat": 62.0, "lng": -20.0, "id": "105923", "name": "Picked dogfish", "thumb": "tn_Sqaca_u6.jpg", "sprite": "sp-great_white_shark.png", "group": "shark", "rarity": 1, "waterType": "Brackish"}, {"lat": 62.0694, "lng": -19.904, "id": "573601", "name": "Spinigera bacillaris", "sprite": "sp-anchoviella_juruasanga.png", "group": "other", "rarity": 1}, {"lat": 61.9559, "lng": -19.9507, "id": "149110", "name": "Corethron criophilum", "sprite": "sp-anchoviella_juruasanga.png", "group": "other", "rarity": 1}, {"lat": 62.5833, "lng": -19.85, "id": "254514", "name": "Armorhead sculpin", "thumb": "tn_Gygal_u0.jpg", "sprite": "sp-anchoviella_juruasanga.png", "group": "other", "rarity": 1, "waterType": "Saltwater"}, {"lat": 62.5833, "lng": -19.85, "id": "149271", "name": "Coscinodiscus granii", "sprite": "sp-anchoviella_juruasanga.png", "group": "other", "rarity": 1}, {"lat": 62.1812, "lng": -19.9889, "id": "178600", "name": "Coccolithus pelagicus", "sprite": "sp-anchoviella_juruasanga.png", "group": "other", "rarity": 1}, {"lat": 62.791, "lng": -21.6531, "id": "137131", "name": "Fratercula arctica", "sprite": "sp-anchoviella_juruasanga.png", "group": "other", "rarity": 1}, {"lat": 62.0, "lng": -21.6, "id": "102944", "name": "Nicippe tumida", "sprite": "sp-american_lobster.png", "group": "crab_lobster", "rarity": 1}, {"lat": 62.2535, "lng": -20.3529, "id": "148912", "name": "Thalassiosira", "sprite": "sp-anchoviella_juruasanga.png", "group": "other", "rarity": 1}, {"lat": 62.1699, "lng": -19.9552, "id": "134533", "name": "Micromonas", "sprite": "sp-anchoviella_juruasanga.png", "group": "other", "rarity": 1}, {"lat": 62.25, "lng": -21.0, "id": "11676", "name": "Pisces", "sprite": "sp-anchoviella_juruasanga.png", "group": "other", "rarity": 1}]}