{"zoom": 7, "x": 56, "y": 75, "points": [{"lat": -31.615, "lng": -19.76, "id": "110321", "name": "Protoceratium reticulatum", "sprite": "sp-anchoviella_juruasanga.png", "group": "other", "rarity": 1}, {"lat": -31.615, "lng": -19.76, "id": "623771", "name": "Impagidinium sphaericum", "sprite": "sp-anchoviella_juruasanga.png", "group": "other", "rarity": 1}, {"lat": -31.615, "lng": -19.76, "id": "235923", "name": "Calcidiscus leptoporus", "sprite": "sp-anchoviella_juruasanga.png", "group": "other", "rarity": 1}, {"lat": -31.615, "lng": -19.76, "id": "555948", "name": "Gladiolithus flabellatus", "sprite": "sp-anchoviella_juruasanga.png", "group": "other", "rarity": 1}, {"lat": -31.7303, "lng": -21.3005, "id": "220222", "name": "Eubalaena australis", "sprite": "sp-blue_whale.png", "group": "whale", "rarity": 1}, {"lat": -31.615, "lng": -19.76, "id": "115104", "name": "Emiliania huxleyi", "sprite": "sp-anchoviella_juruasanga.png", "group": "other", "rarity": 1}, {"lat": -31.615, "lng": -19.76, "id": "603719", "name": "Rhabdothorax", "sprite": "sp-anchoviella_juruasanga.png", "group": "other", "rarity": 1}, {"lat": -31.615, "lng": -19.76, "id": "603684", "name": "Brigantedinium", "sprite": "sp-anchoviella_juruasanga.png", "group": "other", "rarity": 1}, {"lat": -31.615, "lng": -19.76, "id": "235985", "name": "Umbilicosphaera sibogae", "sprite": "sp-anchoviella_juruasanga.png", "group": "other", "rarity": 1}, {"lat": -31.615, "lng": -19.76, "id": "233839", "name": "Calciodinellum albatrosianum", "sprite": "sp-anchoviella_juruasanga.png", "group": "other", "rarity": 1}, {"lat": -31.615, "lng": -19.76, "id": "110277", "name": "Thoracosphaera heimii", "sprite": "sp-anchoviella_juruasanga.png", "group": "other", "rarity": 1}, {"lat": -30.0, "lng": -20.0, "id": "283659", "name": "Phelliactis lophohelia", "sprite": "sp-actiniidae.png", "group": "coral", "rarity": 1}, {"lat": -30.615, "lng": -21.35, "id": "137165", "name": "Sterna paradisaea", "sprite": "sp-anchoviella_juruasanga.png", "group": "other", "rarity": 1}, {"lat": -31.615, "lng": -19.76, "id": "657391", "name": "Impagidinium pallidum", "sprite": "sp-anchoviella_juruasanga.png", "group": "other", "rarity": 1}, {"lat": -31.615, "lng": -19.76, "id": "233786", "name": "Scrippsiella regalis", "sprite": "sp-anchoviella_juruasanga.png", "group": "other", "rarity": 1}, {"lat": -31.615, "lng": -19.76, "id": "838887", "sprite": "sp-anchoviella_juruasanga.png", "group": "other", "rarity": 1}, {"lat": -31.615, "lng": -19.76, "id": "623007", "name": "Leonella granifera", "sprite": "sp-anchoviella_juruasanga.png", "group": "other", "rarity": 1}, {"lat": -31.615, "lng": -19.76, "id": "603344", "name": "Rhabdolithes", "sprite": "sp-anchoviella_juruasanga.png", "group": "other", "rarity": 1}, {"lat": -31.615, "lng": -19.76, "id": "623770", "name": "Impagidinium aculeatum", "sprite": "sp-anchoviella_juruasanga.png", "group": "other", "rarity": 1}, {"lat": -31.615, "lng": -19.76, "id": "115084", "name": "Syracosphaera", "sprite": "sp-anchoviella_juruasanga.png", "group": "other", "rarity": 1}, {"lat": -31.615, "lng": -19.76, "id": "835694", "name": "Operculodinium centrocarpum", "sprite": "sp-anchoviella_juruasanga.png", "group": "other", "rarity": 1}, {"lat": -31.615, "lng": -19.76, "id": "341588", "name": "Gephyrocapsa muellerae", "sprite": "sp-anchoviella_juruasanga.png", "group": "other", "rarity": 1}, {"lat": -31.615, "lng": -19.76, "id": "235955", "name": "Gephyrocapsa oceanica", "sprite": "sp-anchoviella_juruasanga.png", "group": "other", "rarity": 1}, {"lat": -31.615, "lng": -19.76, "id": "838885", "sprite": "sp-anchoviella_juruasanga.png", "group": "other", "rarity": 1}, {"lat": -31.615, "lng": -19.76, "id": "602101", "name": "Spiniferites", "sprite": "sp-anchoviella_juruasanga.png", "group": "other", "rarity": 1}, {"lat": -31.615, "lng": -19.76, "id": "845955", "name": "Pyxidinopsis reticulata", "sprite": "sp-anchoviella_juruasanga.png", "group": "other", "rarity": 1}, {"lat": -30.6531, "lng": -20.8813, "id": "137119", "name": "Physeter macrocephalus", "sprite": "sp-blue_whale.png", "group": "whale", "rarity": 1}, {"lat": -31.615, "lng": -19.76, "id": "577881", "name": "Syracosphaera nodosa", "sprite": "sp-anchoviella_juruasanga.png", "group": "other", "rarity": 1}, {"lat": -31.615, "lng": -19.76, "id": "622622", "name": "Pernambugia tuberosa", "sprite": "sp-anchoviella_juruasanga.png", "group": "other", "rarity": 1}, {"lat": -31.615, "lng": -19.76, "id": "109435", "name": "Protoperidiniaceae", "sprite": "sp-anchoviella_juruasanga.png", "group": "other", "rarity": 1}, {"lat": -31.615, "lng": -19.76, "id": "235863", "name": "Helicosphaera", "sprite": "sp-anchoviella_juruasanga.png", "group": "other", "rarity": 1}, {"lat": -29.991, "lng": -20.176, "id": "136980", "name": "Delphinidae", "sprite": "sp-bottlenose_dolphin.png", "group": "dolphin", "rarity": 1}, {"lat": -31.615, "lng": -19.76, "id": "235962", "name": "Oolithotus fragilis", "sprite": "sp-anchoviella_juruasanga.png", "group": "other", "rarity": 1}, {"lat": -31.615, "lng": -19.76, "id": "235954", "name": "Gephyrocapsa ericsonii", "sprite": "sp-anchoviella_juruasanga.png", "group": "other", "rarity": 1}, {"lat": -31.615, "lng": -19.76, "id": "620590", "name": "Coccopterum labyrinthus", "sprite": "sp-anchoviella_juruasanga.png", "group": "other", "rarity": 1}, {"lat": -31.615, "lng": -19.76, "id": "601728", "name": "Impagidinium", "sprite": "sp-anchoviella_juruasanga.png", "group": "other", "rarity": 1}, {"lat": -31.615, "lng": -19.76, "id": "235952", "name": "Florisphaera profunda", "sprite": "sp-anchoviella_juruasanga.png", "group": "other", "rarity": 1}, {"lat": -31.615, "lng": -19.76, "id": "670195", "name": "Spiniferites mirabilis", "sprite": "sp-anchoviella_juruasanga.png", "group": "other", "rarity": 1}, {"lat": -31.615, "lng": -19.76, "id": "623769", "name": "Operculodinium israelianum", "sprite": "sp-anchoviella_juruasanga.png", "group": "other", "rarity": 1}, {"lat": -31.615, "lng": -19.76, "id": "233837", "name": "Calciodinellum levantinum", "sprite": "sp-anchoviella_juruasanga.png", "group": "other", "rarity": 1}]}