{"zoom": 7, "x": 57, "y": 36, "points": [{"lat": 60.8867, "lng": -19.6183, "id": "104510", "name": "Ctenocalanus vanus", "sprite": "sp-anchoviella_juruasanga.png", "group": "other", "rarity": 1}, {"lat": 61.2433, "lng": -18.2181, "id": "146203", "name": "Dinoflagellata", "sprite": "sp-anchoviella_juruasanga.png", "group": "other", "rarity": 1}, {"lat": 60.353, "lng": -16.945, "id": "137165", "name": "Sterna paradisaea", "sprite": "sp-anchoviella_juruasanga.png", "group": "other", "rarity": 1}, {"lat": 60.9936, "lng": -18.23, "id": "1205", "name": "Hyperiidea", "sprite": "sp-american_lobster.png", "group": "crab_lobster", "rarity": 1}, {"lat": 61.0883, "lng": -19.5833, "id": "573933", "name": "Helicopedinella tricostata", "sprite": "sp-anchoviella_juruasanga.png", "group": "other", "rarity": 1}, {"lat": 60.5883, "lng": -19.0717, "id": "160530", "name": "Rhizosolenia flaccida", "sprite": "sp-anchoviella_juruasanga.png", "group": "other", "rarity": 1}, {"lat": 60.933, "lng": -17.57, "id": "113434", "name": "Globigerina bulloides", "sprite": "sp-anchoviella_juruasanga.png", "group": "other", "rarity": 1}, {"lat": 61.17, "lng": -18.04, "id": "331488", "name": "Rhamphobrachium agassizi", "sprite": "sp-anchoviella_juruasanga.png", "group": "other", "rarity": 1}, {"lat": 61.16, "lng": -18.0, "id": "241785", "name": "Benthodytes sanguinolenta", "sprite": "sp-sea_cucumber.png", "group": "starfish", "rarity": 1}, {"lat": 60.933, "lng": -17.57, "id": "113474", "name": "Neogloboquadrina incompta", "sprite": "sp-anchoviella_juruasanga.png", "group": "other", "rarity": 1}, {"lat": 61.1389, "lng": -18.1534, "id": "104878", "name": "Temora longicornis", "sprite": "sp-anchoviella_juruasanga.png", "group": "other", "rarity": 1}, {"lat": 61.2185, "lng": -18.1335, "id": "180727", "name": "Navicula planamembranacea", "sprite": "sp-anchoviella_juruasanga.png", "group": "other", "rarity": 1}, {"lat": 61.2192, "lng": -18.9867, "id": "149150", "name": "Nitzschia longissima", "sprite": "sp-anchoviella_juruasanga.png", "group": "other", "rarity": 1}, {"lat": 61.0352, "lng": -17.9813, "id": "109553", "name": "Protoperidinium", "sprite": "sp-anchoviella_juruasanga.png", "group": "other", "rarity": 1}, {"lat": 61.0844, "lng": -17.4507, "id": "104183", "name": "Lucicutia", "sprite": "sp-anchoviella_juruasanga.png", "group": "other", "rarity": 1}, {"lat": 61.0883, "lng": -19.5833, "id": "5", "name": "Protozoa", "sprite": "sp-anchoviella_juruasanga.png", "group": "other", "rarity": 1}, {"lat": 61.17, "lng": -18.04, "id": "131110", "name": "Aurospio dibranchiata", "sprite": "sp-anchoviella_juruasanga.png", "group": "other", "rarity": 1}, {"lat": 61.4038, "lng": -16.878, "id": "104636", "name": "Metridia venusta", "sprite": "sp-anchoviella_juruasanga.png", "group": "other", "rarity": 1}, {"lat": 61.4038, "lng": -16.878, "id": "140227", "name": "Limacina retroversa", "sprite": "sp-cowrie_shell.png", "group": "sea_snail", "rarity": 1}, {"lat": 61.2433, "lng": -18.2181, "id": "632674", "name": "Ataxiodinium choanum", "sprite": "sp-anchoviella_juruasanga.png", "group": "other", "rarity": 1}, {"lat": 60.745, "lng": -18.673, "id": "13703", "name": "Thecosomata", "sprite": "sp-cowrie_shell.png", "group": "sea_snail", "rarity": 1}, {"lat": 61.0883, "lng": -19.5833, "id": "160566", "name": "Nodularia spumigena", "sprite": "sp-anchoviella_juruasanga.png", "group": "other", "rarity": 1}, {"lat": 61.0193, "lng": -18.1508, "id": "157083", "name": "Thalassiothrix longissima", "sprite": "sp-anchoviella_juruasanga.png", "group": "other", "rarity": 1}, {"lat": 61.0883, "lng": -19.5833, "id": "146570", "name": "Gomphosphaeria", "sprite": "sp-anchoviella_juruasanga.png", "group": "other", "rarity": 1}, {"lat": 61.0883, "lng": -19.5833, "id": "962003", "name": "Chaetoceros septentrionalis", "sprite": "sp-anchoviella_juruasanga.png", "group": "other", "rarity": 1}, {"lat": 60.855, "lng": -16.935, "id": "109550", "name": "Podolampas", "sprite": "sp-anchoviella_juruasanga.png", "group": "other", "rarity": 1}, {"lat": 61.019, "lng": -18.1586, "id": "837459", "name": "Tripos lineatus", "sprite": "sp-anchoviella_juruasanga.png", "group": "other", "rarity": 1}, {"lat": 60.2896, "lng": -18.212, "id": "137119", "name": "Physeter macrocephalus", "sprite": "sp-blue_whale.png", "group": "whale", "rarity": 1}, {"lat": 60.9775, "lng": -18.1025, "id": "149028", "name": "Fragilaria", "sprite": "sp-anchoviella_juruasanga.png", "group": "other", "rarity": 1}, {"lat": 60.9932, "lng": -18.0874, "id": "841260", "name": "Tripos macroceros", "sprite": "sp-anchoviella_juruasanga.png", "group": "other", "rarity": 1}, {"lat": 61.17, "lng": -18.043, "id": "140854", "name": "Spathoderma clenchi", "sprite": "sp-anchoviella_juruasanga.png", "group": "other", "rarity": 1}, {"lat": 61.0883, "lng": -19.5833, "id": "17657", "name": "Eutreptiella", "sprite": "sp-anchoviella_juruasanga.png", "group": "other", "rarity": 1}, {"lat": 61.55, "lng": -19.0, "id": "732436", "name": "Mesothuria maroccana", "sprite": "sp-sea_cucumber.png", "group": "starfish", "rarity": 1}, {"lat": 60.3517, "lng": -18.1403, "id": "118263", "name": "Munnidae", "sprite": "sp-american_lobster.png", "group": "crab_lobster", "rarity": 1}, {"lat": 61.0074, "lng": -18.1442, "id": "163030", "name": "Phaeoceros", "sprite": "sp-anchoviella_juruasanga.png", "group": "other", "rarity": 1}, {"lat": 61.2775, "lng": -18.3447, "id": "841263", "name": "Tripos minutus", "sprite": "sp-anchoviella_juruasanga.png", "group": "other", "rarity": 1}, {"lat": 61.0057, "lng": -18.3153, "id": "149153", "name": "Pseudo-nitzschia delicatissima", "sprite": "sp-anchoviella_juruasanga.png", "group": "other", "rarity": 1}, {"lat": 61.0883, "lng": -19.5833, "id": "118051", "name": "Ebria tripartita", "sprite": "sp-anchoviella_juruasanga.png", "group": "other", "rarity": 1}, {"lat": 61.0883, "lng": -19.5833, "id": "109637", "name": "Dinophysis norvegica", "sprite": "sp-anchoviella_juruasanga.png", "group": "other", "rarity": 1}, {"lat": 60.9997, "lng": -18.023, "id": "104108", "name": "Acartia", "sprite": "sp-anchoviella_juruasanga.png", "group": "other", "rarity": 1}, {"lat": 61.4038, "lng": -16.878, "id": "135365", "name": "Lensia", "sprite": "sp-anchoviella_juruasanga.png", "group": "other", "rarity": 1}, {"lat": 61.2283, "lng": -17.0567, "id": "104550", "name": "Euchaeta acuta", "sprite": "sp-anchoviella_juruasanga.png", "group": "other", "rarity": 1}, {"lat": 61.17, "lng": -18.04, "id": "130123", "name": "Glycera lapidum", "sprite": "sp-anchoviella_juruasanga.png", "group": "other", "rarity": 1}, {"lat": 60.825, "lng": -18.2583, "id": "104496", "name": "Centropages hamatus", "sprite": "sp-anchoviella_juruasanga.png", "group": "other", "rarity": 1}, {"lat": 61.2433, "lng": -18.2181, "id": "835694", "name": "Operculodinium centrocarpum", "sprite": "sp-anchoviella_juruasanga.png", "group": "other", "rarity": 1}, {"lat": 60.9964, "lng": -18.1886, "id": "149118", "name": "Bacteriastrum", "sprite": "sp-anchoviella_juruasanga.png", "group": "other", "rarity": 1}, {"lat": 61.4038, "lng": -16.878, "id": "110687", "name": "Euphausia krohnii", "sprite": "sp-antarctic_krill.png", "group": "shrimp", "rarity": 1}, {"lat": 60.775, "lng": -18.4608, "id": "109555", "name": "Pyrophacus", "sprite": "sp-anchoviella_juruasanga.png", "group": "other", "rarity": 1}, {"lat": 60.837, "lng": -18.667, "id": "149168", "name": "Proboscia alata", "sprite": "sp-anchoviella_juruasanga.png", "group": "other", "rarity": 1}, {"lat": 61.4038, "lng": -16.878, "id": "104509", "name": "Clausocalanus pergens", "sprite": "sp-anchoviella_juruasanga.png", "group": "other", "rarity": 1}, {"lat": 61.55, "lng": -19.0, "id": "138857", "name": "Buccinum abyssorum", "sprite": "sp-cowrie_shell.png", "group": "sea_snail", "rarity": 1}, {"lat": 61.4038, "lng": -16.878, "id": "149755", "name": "Acartia (Acartiura) clausi", "sprite": "sp-anchoviella_juruasanga.png", "group": "other", "rarity": 1}, {"lat": 61.1633, "lng": -18.4105, "id": "109519", "name": "Gonyaulax", "sprite": "sp-anchoviella_juruasanga.png", "group": "other", "rarity": 1}, {"lat": 61.1239, "lng": -18.4103, "id": "104638", "name": "Pleuromamma borealis", "sprite": "sp-anchoviella_juruasanga.png", "group": "other", "rarity": 1}, {"lat": 60.8838, "lng": -18.2523, "id": "163348", "name": "Rhizosolenia semispina", "sprite": "sp-anchoviella_juruasanga.png", "group": "other", "rarity": 1}, {"lat": 61.4038, "lng": -16.878, "id": "104087", "name": "Heterorhabdidae", "sprite": "sp-anchoviella_juruasanga.png", "group": "other", "rarity": 1}, {"lat": 61.17, "lng": -18.04, "id": "124441", "name": "Myriotrochus (Oligotrochus) bathybius", "sprite": "sp-sea_cucumber.png", "group": "starfish", "rarity": 1}, {"lat": 61.0211, "lng": -17.9639, "id": "179785", "name": "Dactyliosolen antarcticus", "sprite": "sp-anchoviella_juruasanga.png", "group": "other", "rarity": 1}, {"lat": 61.0883, "lng": -19.5833, "id": "1368615", "name": "Kapelodinium vestifici", "sprite": "sp-anchoviella_juruasanga.png", "group": "other", "rarity": 1}, {"lat": 61.17, "lng": -18.04, "id": "598827", "name": "Amphicteis wesenbergae", "sprite": "sp-anchoviella_juruasanga.png", "group": "other", "rarity": 1}, {"lat": 61.0102, "lng": -18.5244, "id": "148917", "name": "Coscinodiscus", "sprite": "sp-anchoviella_juruasanga.png", "group": "other", "rarity": 1}, {"lat": 61.0227, "lng": -18.09, "id": "2081", "name": "Chaetognatha", "sprite": "sp-anchoviella_juruasanga.png", "group": "other", "rarity": 1}, {"lat": 60.7804, "lng": -18.5863, "id": "1436445", "name": "Pleuromamma gracilis gracilis", "sprite": "sp-anchoviella_juruasanga.png", "group": "other", "rarity": 1}, {"lat": 61.0883, "lng": -19.5833, "id": "110156", "name": "Peridiniella catenata", "sprite": "sp-anchoviella_juruasanga.png", "group": "other", "rarity": 1}, {"lat": 61.0883, "lng": -19.5833, "id": "248110", "name": "Chrysococcus", "sprite": "sp-anchoviella_juruasanga.png", "group": "other", "rarity": 1}, {"lat": 61.2095, "lng": -18.1089, "id": "148992", "name": "Coscinodiscus concinnus", "sprite": "sp-anchoviella_juruasanga.png", "group": "other", "rarity": 1}, {"lat": 61.17, "lng": -18.04, "id": "130511", "name": "Tachytrypane jeffreysi", "sprite": "sp-anchoviella_juruasanga.png", "group": "other", "rarity": 1}, {"lat": 60.3517, "lng": -18.1403, "id": "118340", "name": "Eurycope", "sprite": "sp-american_lobster.png", "group": "crab_lobster", "rarity": 1}, {"lat": 61.55, "lng": -19.0, "id": "100948", "name": "Chondrophellia coronata", "sprite": "sp-actiniidae.png", "group": "coral", "rarity": 1}, {"lat": 60.9914, "lng": -18.0676, "id": "1100", "name": "Calanoida", "sprite": "sp-anchoviella_juruasanga.png", "group": "other", "rarity": 1}, {"lat": 61.077, "lng": -18.315, "id": "149152", "name": "Pseudo-nitzschia seriata", "sprite": "sp-anchoviella_juruasanga.png", "group": "other", "rarity": 1}, {"lat": 61.0, "lng": -18.3983, "id": "104465", "name": "Calanus glacialis", "sprite": "sp-anchoviella_juruasanga.png", "group": "other", "rarity": 1}, {"lat": 61.0883, "lng": -19.5833, "id": "162770", "name": "Actinocyclus octonarius var. octonarius", "sprite": "sp-anchoviella_juruasanga.png", "group": "other", "rarity": 1}, {"lat": 60.933, "lng": -17.57, "id": "113460", "name": "Orbulina universa", "sprite": "sp-anchoviella_juruasanga.png", "group": "other", "rarity": 1}, {"lat": 61.0883, "lng": -19.5833, "id": "149074", "name": "Skeletonema costatum", "sprite": "sp-anchoviella_juruasanga.png", "group": "other", "rarity": 1}, {"lat": 61.0193, "lng": -18.3178, "id": "104275", "name": "Aetideus armatus", "sprite": "sp-anchoviella_juruasanga.png", "group": "other", "rarity": 1}, {"lat": 61.0301, "lng": -18.1426, "id": "840627", "name": "Tripos furca", "sprite": "sp-anchoviella_juruasanga.png", "group": "other", "rarity": 1}, {"lat": 60.9955, "lng": -18.1869, "id": "837453", "name": "Tripos horridus", "sprite": "sp-anchoviella_juruasanga.png", "group": "other", "rarity": 1}, {"lat": 61.17, "lng": -18.04, "id": "130140", "name": "Goniada maculata", "sprite": "sp-anchoviella_juruasanga.png", "group": "other", "rarity": 1}, {"lat": 61.0883, "lng": -19.5833, "id": "134529", "name": "Pyramimonas", "sprite": "sp-anchoviella_juruasanga.png", "group": "other", "rarity": 1}, {"lat": 61.0251, "lng": -18.1364, "id": "850801", "name": "Metridia lucens lucens", "sprite": "sp-anchoviella_juruasanga.png", "group": "other", "rarity": 1}, {"lat": 60.5334, "lng": -18.2107, "id": "137195", "name": "Fulmarus glacialis", "sprite": "sp-anchoviella_juruasanga.png", "group": "other", "rarity": 1}, {"lat": 61.1394, "lng": -18.7986, "id": "104579", "name": "Heterorhabdus norvegicus", "sprite": "sp-anchoviella_juruasanga.png", "group": "other", "rarity": 1}, {"lat": 61.0883, "lng": -19.5833, "id": "162673", "name": "Aphanocapsa reinboldii", "sprite": "sp-anchoviella_juruasanga.png", "group": "other", "rarity": 1}, {"lat": 60.317, "lng": -17.983, "id": "137156", "name": "Rissa tridactyla", "sprite": "sp-anchoviella_juruasanga.png", "group": "other", "rarity": 1}, {"lat": 60.975, "lng": -18.46, "id": "104632", "name": "Metridia longa", "sprite": "sp-anchoviella_juruasanga.png", "group": "other", "rarity": 1}, {"lat": 60.9874, "lng": -18.1917, "id": "370366", "name": "Chaetoceros (Hyalochaete)", "sprite": "sp-anchoviella_juruasanga.png", "group": "other", "rarity": 1}, {"lat": 60.503, "lng": -18.667, "id": "231887", "name": "Rhizosolenia indica", "sprite": "sp-anchoviella_juruasanga.png", "group": "other", "rarity": 1}, {"lat": 61.3383, "lng": -18.3667, "id": "1590706", "name": "Sundstroemia setigera", "sprite": "sp-anchoviella_juruasanga.png", "group": "other", "rarity": 1}, {"lat": 61.0883, "lng": -19.5833, "id": "109603", "name": "Dinophysis acuminata", "sprite": "sp-anchoviella_juruasanga.png", "group": "other", "rarity": 1}, {"lat": 61.09, "lng": -17.8671, "id": "106269", "name": "Podon", "sprite": "sp-anchoviella_juruasanga.png", "group": "other", "rarity": 1}, {"lat": 61.1746, "lng": -19.6028, "id": "6", "name": "Bacteria", "sprite": "sp-anchoviella_juruasanga.png", "group": "other", "rarity": 1}, {"lat": 61.17, "lng": -18.04, "id": "131153", "name": "Prionospio cirrifera", "sprite": "sp-anchoviella_juruasanga.png", "group": "other", "rarity": 1}, {"lat": 61.1717, "lng": -18.5117, "id": "841248", "name": "Tripos hexacanthus", "sprite": "sp-anchoviella_juruasanga.png", "group": "other", "rarity": 1}, {"lat": 60.987, "lng": -18.2327, "id": "1128", "name": "Euphausiacea", "sprite": "sp-antarctic_krill.png", "group": "shrimp", "rarity": 1}, {"lat": 61.0607, "lng": -18.8268, "id": "137203", "name": "Puffinus puffinus", "sprite": "sp-anchoviella_juruasanga.png", "group": "other", "rarity": 1}, {"lat": 60.7917, "lng": -18.4694, "id": "104303", "name": "Euchirella rostrata", "sprite": "sp-anchoviella_juruasanga.png", "group": "other", "rarity": 1}, {"lat": 61.0883, "lng": -19.5833, "id": "110208", "name": "Protoperidinium bipes", "sprite": "sp-anchoviella_juruasanga.png", "group": "other", "rarity": 1}, {"lat": 60.933, "lng": -17.57, "id": "113450", "name": "Globorotalia menardii", "sprite": "sp-anchoviella_juruasanga.png", "group": "other", "rarity": 1}, {"lat": 60.9805, "lng": -18.2699, "id": "104464", "name": "Calanus finmarchicus", "sprite": "sp-anchoviella_juruasanga.png", "group": "other", "rarity": 1}, {"lat": 61.0155, "lng": -18.1895, "id": "106267", "name": "Evadne", "sprite": "sp-anchoviella_juruasanga.png", "group": "other", "rarity": 1}, {"lat": 61.0883, "lng": -19.5833, "id": "148934", "name": "Thalassiosira pseudonana", "sprite": "sp-anchoviella_juruasanga.png", "group": "other", "rarity": 1}, {"lat": 61.0487, "lng": -18.2008, "id": "104499", "name": "Centropages typicus", "sprite": "sp-anchoviella_juruasanga.png", "group": "other", "rarity": 1}, {"lat": 61.0437, "lng": -18.1533, "id": "1080", "name": "Copepoda", "sprite": "sp-anchoviella_juruasanga.png", "group": "other", "rarity": 1}, {"lat": 60.9709, "lng": -18.2911, "id": "104152", "name": "Calanus", "sprite": "sp-anchoviella_juruasanga.png", "group": "other", "rarity": 1}, {"lat": 61.4038, "lng": -16.878, "id": "1509944", "name": "Scolecithricella minor minor", "sprite": "sp-anchoviella_juruasanga.png", "group": "other", "rarity": 1}, {"lat": 61.3617, "lng": -18.8318, "id": "136979", "name": "Balaenopteridae", "sprite": "sp-blue_whale.png", "group": "whale", "rarity": 1}, {"lat": 61.17, "lng": -18.04, "id": "125219", "name": "Ypsilothuria talismani talismani", "sprite": "sp-sea_cucumber.png", "group": "starfish", "rarity": 1}, {"lat": 61.3642, "lng": -18.9151, "id": "137091", "name": "Balaenoptera physalus", "sprite": "sp-blue_whale.png", "group": "whale", "rarity": 1}, {"lat": 61.0133, "lng": -18.102, "id": "11707", "name": "Cephalopoda", "sprite": "sp-giant_pacific_octopus.png", "group": "octopus_squid", "rarity": 1}, {"lat": 61.4038, "lng": -16.878, "id": "128586", "name": "Oncaeidae", "sprite": "sp-anchoviella_juruasanga.png", "group": "other", "rarity": 1}, {"lat": 60.895, "lng": -18.4717, "id": "104178", "name": "Heterorhabdus", "sprite": "sp-anchoviella_juruasanga.png", "group": "other", "rarity": 1}, {"lat": 61.0166, "lng": -18.1651, "id": "149629", "name": "Rhizosolenia styliformis", "sprite": "sp-anchoviella_juruasanga.png", "group": "other", "rarity": 1}, {"lat": 60.9332, "lng": -18.2095, "id": "149142", "name": "Navicula", "sprite": "sp-anchoviella_juruasanga.png", "group": "other", "rarity": 1}, {"lat": 61.0186, "lng": -18.3007, "id": "1806", "name": "Echinodermata", "sprite": "sp-sea_cucumber.png", "group": "starfish", "rarity": 1}, {"lat": 61.2667, "lng": -18.7017, "id": "1082", "name": "Cirripedia", "sprite": "sp-anchoviella_juruasanga.png", "group": "other", "rarity": 1}, {"lat": 60.9802, "lng": -18.13, "id": "148912", "name": "Thalassiosira", "sprite": "sp-anchoviella_juruasanga.png", "group": "other", "rarity": 1}, {"lat": 61.0883, "lng": -19.5833, "id": "110155", "name": "Oblea rotunda", "sprite": "sp-anchoviella_juruasanga.png", "group": "other", "rarity": 1}, {"lat": 61.4038, "lng": -16.878, "id": "582421", "name": "Radiozoa", "sprite": "sp-anchoviella_juruasanga.png", "group": "other", "rarity": 1}, {"lat": 60.3517, "lng": -18.1403, "id": "175072", "name": "Mesosignidae", "sprite": "sp-american_lobster.png", "group": "crab_lobster", "rarity": 1}]}