{"zoom": 7, "x": 58, "y": 78, "points": [{"lat": -36.835, "lng": -14.405, "id": "620590", "name": "Coccopterum labyrinthus", "sprite": "sp-anchoviella_juruasanga.png", "group": "other", "rarity": 1}, {"lat": -36.835, "lng": -14.405, "id": "413032", "name": "Botryostrobus", "sprite": "sp-anchoviella_juruasanga.png", "group": "other", "rarity": 1}, {"lat": -36.835, "lng": -14.405, "id": "549594", "name": "Pterocanium charybdeum", "sprite": "sp-anchoviella_juruasanga.png", "group": "other", "rarity": 1}, {"lat": -36.8333, "lng": -15.8103, "id": "1026286", "name": "Trilobatus sacculifer", "sprite": "sp-anchoviella_juruasanga.png", "group": "other", "rarity": 1}, {"lat": -36.8383, "lng": -14.4033, "id": "555889", "name": "Calciosolenia brasiliensis", "sprite": "sp-anchoviella_juruasanga.png", "group": "other", "rarity": 1}, {"lat": -36.835, "lng": -14.405, "id": "493549", "name": "Lophophaena buetschlii", "sprite": "sp-anchoviella_juruasanga.png", "group": "other", "rarity": 1}, {"lat": -36.8383, "lng": -14.4033, "id": "235913", "name": "Algirosphaera robusta", "sprite": "sp-anchoviella_juruasanga.png", "group": "other", "rarity": 1}, {"lat": -36.8383, "lng": -14.4033, "id": "235952", "name": "Florisphaera profunda", "sprite": "sp-anchoviella_juruasanga.png", "group": "other", "rarity": 1}, {"lat": -36.8383, "lng": -14.4033, "id": "235937", "name": "Umbellosphaera", "sprite": "sp-anchoviella_juruasanga.png", "group": "other", "rarity": 1}, {"lat": -36.835, "lng": -14.405, "id": "345829", "name": "Lithomelissa setosa", "sprite": "sp-anchoviella_juruasanga.png", "group": "other", "rarity": 1}, {"lat": -36.835, "lng": -14.405, "id": "493663", "name": "Stichopilidium kruegeri", "sprite": "sp-anchoviella_juruasanga.png", "group": "other", "rarity": 1}, {"lat": -36.8383, "lng": -14.4033, "id": "235983", "name": "Umbellosphaera tenuis", "sprite": "sp-anchoviella_juruasanga.png", "group": "other", "rarity": 1}, {"lat": -38.0111, "lng": -15.1223, "id": "225758", "name": "Thalassarche carteri", "sprite": "sp-anchoviella_juruasanga.png", "group": "other", "rarity": 1}, {"lat": -36.8346, "lng": -14.4046, "id": "113460", "name": "Orbulina universa", "sprite": "sp-anchoviella_juruasanga.png", "group": "other", "rarity": 1}, {"lat": -36.8383, "lng": -14.4033, "id": "577881", "name": "Syracosphaera nodosa", "sprite": "sp-anchoviella_juruasanga.png", "group": "other", "rarity": 1}, {"lat": -36.8383, "lng": -14.4033, "id": "235802", "name": "Acanthoica quattrospina", "sprite": "sp-anchoviella_juruasanga.png", "group": "other", "rarity": 1}, {"lat": -36.8335, "lng": -15.4829, "id": "1026357", "name": "Dentigloborotalia anfracta", "sprite": "sp-anchoviella_juruasanga.png", "group": "other", "rarity": 1}, {"lat": -36.8383, "lng": -14.4033, "id": "115084", "name": "Syracosphaera", "sprite": "sp-anchoviella_juruasanga.png", "group": "other", "rarity": 1}, {"lat": -36.835, "lng": -14.405, "id": "413006", "name": "Eucyrtidium", "sprite": "sp-anchoviella_juruasanga.png", "group": "other", "rarity": 1}, {"lat": -36.8383, "lng": -14.4033, "id": "236039", "name": "Syracosphaera molischii", "sprite": "sp-anchoviella_juruasanga.png", "group": "other", "rarity": 1}, {"lat": -36.835, "lng": -14.405, "id": "412945", "name": "Stylochlamydium asteriscus", "sprite": "sp-anchoviella_juruasanga.png", "group": "other", "rarity": 1}, {"lat": -36.835, "lng": -14.405, "id": "601728", "name": "Impagidinium", "sprite": "sp-anchoviella_juruasanga.png", "group": "other", "rarity": 1}, {"lat": -36.835, "lng": -14.405, "id": "413071", "name": "Dictyophimus killmari", "sprite": "sp-anchoviella_juruasanga.png", "group": "other", "rarity": 1}, {"lat": -36.835, "lng": -14.405, "id": "393203", "name": "Actinomma", "sprite": "sp-anchoviella_juruasanga.png", "group": "other", "rarity": 1}, {"lat": -38.1362, "lng": -14.7642, "id": "212583", "name": "Diomedea exulans", "sprite": "sp-anchoviella_juruasanga.png", "group": "other", "rarity": 1}, {"lat": -36.835, "lng": -14.405, "id": "412977", "name": "Lophospyris pentagona", "sprite": "sp-anchoviella_juruasanga.png", "group": "other", "rarity": 1}, {"lat": -36.8383, "lng": -14.4033, "id": "1666398", "name": "Scapholithus fossilis", "sprite": "sp-anchoviella_juruasanga.png", "group": "other", "rarity": 1}, {"lat": -36.835, "lng": -14.405, "id": "493629", "name": "Cornutella profunda", "sprite": "sp-anchoviella_juruasanga.png", "group": "other", "rarity": 1}, {"lat": -36.835, "lng": -14.405, "id": "657391", "name": "Impagidinium pallidum", "sprite": "sp-anchoviella_juruasanga.png", "group": "other", "rarity": 1}, {"lat": -36.8383, "lng": -14.4033, "id": "341588", "name": "Gephyrocapsa muellerae", "sprite": "sp-anchoviella_juruasanga.png", "group": "other", "rarity": 1}, {"lat": -36.835, "lng": -14.405, "id": "110212", "name": "Protoperidinium conicoides", "sprite": "sp-anchoviella_juruasanga.png", "group": "other", "rarity": 1}, {"lat": -36.835, "lng": -14.405, "id": "493444", "name": "Botryocampe inflata", "sprite": "sp-anchoviella_juruasanga.png", "group": "other", "rarity": 1}, {"lat": -36.835, "lng": -14.405, "id": "493661", "name": "Sethoconus tabulatus", "sprite": "sp-anchoviella_juruasanga.png", "group": "other", "rarity": 1}, {"lat": -36.8383, "lng": -14.4033, "id": "235962", "name": "Oolithotus fragilis", "sprite": "sp-anchoviella_juruasanga.png", "group": "other", "rarity": 1}, {"lat": -36.8338, "lng": -15.1718, "id": "113458", "name": "Neogloboquadrina pachyderma", "sprite": "sp-anchoviella_juruasanga.png", "group": "other", "rarity": 1}, {"lat": -36.8344, "lng": -14.4044, "id": "113448", "name": "Globorotalia hirsuta", "sprite": "sp-anchoviella_juruasanga.png", "group": "other", "rarity": 1}, {"lat": -36.835, "lng": -14.405, "id": "493517", "name": "Callimitra", "sprite": "sp-anchoviella_juruasanga.png", "group": "other", "rarity": 1}, {"lat": -36.835, "lng": -14.405, "id": "412959", "name": "Larcopyle buetschlii", "sprite": "sp-anchoviella_juruasanga.png", "group": "other", "rarity": 1}, {"lat": -36.835, "lng": -14.405, "id": "413047", "name": "Actinomma boreale", "sprite": "sp-anchoviella_juruasanga.png", "group": "other", "rarity": 1}, {"lat": -36.8346, "lng": -14.4046, "id": "113464", "name": "Globigerinita glutinata", "sprite": "sp-anchoviella_juruasanga.png", "group": "other", "rarity": 1}, {"lat": -36.8113, "lng": -14.5919, "id": "137119", "name": "Physeter macrocephalus", "sprite": "sp-blue_whale.png", "group": "whale", "rarity": 1}, {"lat": -36.835, "lng": -14.405, "id": "412907", "name": "Actinomma antarcticum", "sprite": "sp-anchoviella_juruasanga.png", "group": "other", "rarity": 1}, {"lat": -36.835, "lng": -14.405, "id": "412964", "name": "Pylospira octopyle", "sprite": "sp-anchoviella_juruasanga.png", "group": "other", "rarity": 1}, {"lat": -36.835, "lng": -14.405, "id": "412921", "name": "Stylatractus", "sprite": "sp-anchoviella_juruasanga.png", "group": "other", "rarity": 1}, {"lat": -36.835, "lng": -14.405, "id": "493523", "name": "Ceratocyrtis histricosa", "sprite": "sp-anchoviella_juruasanga.png", "group": "other", "rarity": 1}, {"lat": -36.8383, "lng": -14.4033, "id": "235985", "name": "Umbilicosphaera sibogae", "sprite": "sp-anchoviella_juruasanga.png", "group": "other", "rarity": 1}, {"lat": -36.8383, "lng": -14.4033, "id": "235911", "name": "Algirosphaera oryza", "sprite": "sp-anchoviella_juruasanga.png", "group": "other", "rarity": 1}, {"lat": -36.835, "lng": -14.405, "id": "412942", "name": "Stylodictya validispina", "sprite": "sp-anchoviella_juruasanga.png", "group": "other", "rarity": 1}, {"lat": -36.8383, "lng": -14.4033, "id": "115104", "name": "Emiliania huxleyi", "sprite": "sp-anchoviella_juruasanga.png", "group": "other", "rarity": 1}, {"lat": -38.8167, "lng": -16.3833, "id": "137199", "name": "Pterodroma mollis", "sprite": "sp-anchoviella_juruasanga.png", "group": "other", "rarity": 1}, {"lat": -36.8383, "lng": -14.4033, "id": "235923", "name": "Calcidiscus leptoporus", "sprite": "sp-anchoviella_juruasanga.png", "group": "other", "rarity": 1}, {"lat": -36.8383, "lng": -14.4033, "id": "235857", "name": "Umbilicosphaera", "sprite": "sp-anchoviella_juruasanga.png", "group": "other", "rarity": 1}, {"lat": -36.8333, "lng": -15.6702, "id": "113473", "name": "Neogloboquadrina dutertrei", "sprite": "sp-anchoviella_juruasanga.png", "group": "other", "rarity": 1}, {"lat": -36.8383, "lng": -14.4033, "id": "235984", "name": "Umbilicosphaera hulburtiana", "sprite": "sp-anchoviella_juruasanga.png", "group": "other", "rarity": 1}, {"lat": -36.835, "lng": -14.405, "id": "493358", "name": "Hexastylus", "sprite": "sp-anchoviella_juruasanga.png", "group": "other", "rarity": 1}, {"lat": -38.1767, "lng": -15.3934, "id": "137201", "name": "Puffinus gravis", "sprite": "sp-anchoviella_juruasanga.png", "group": "other", "rarity": 1}, {"lat": -36.8383, "lng": -14.4033, "id": "235896", "name": "Corisphaera gracilis", "sprite": "sp-anchoviella_juruasanga.png", "group": "other", "rarity": 1}, {"lat": -36.8383, "lng": -14.4033, "id": "235903", "name": "Zygosphaera bannockii", "sprite": "sp-anchoviella_juruasanga.png", "group": "other", "rarity": 1}, {"lat": -36.835, "lng": -14.405, "id": "413098", "name": "Actinomma trinacria", "sprite": "sp-anchoviella_juruasanga.png", "group": "other", "rarity": 1}, {"lat": -36.8334, "lng": -15.454, "id": "1455327", "name": "Globorotalia (Truncorotalia) crassaformis", "sprite": "sp-anchoviella_juruasanga.png", "group": "other", "rarity": 1}, {"lat": -36.835, "lng": -14.405, "id": "413100", "name": "Hexacontium gigantheum", "sprite": "sp-anchoviella_juruasanga.png", "group": "other", "rarity": 1}, {"lat": -36.835, "lng": -14.405, "id": "235746", "name": "Lithomelissa thoracites", "sprite": "sp-anchoviella_juruasanga.png", "group": "other", "rarity": 1}, {"lat": -36.835, "lng": -14.405, "id": "838887", "sprite": "sp-anchoviella_juruasanga.png", "group": "other", "rarity": 1}, {"lat": -36.835, "lng": -14.405, "id": "345859", "name": "Stylodictya", "sprite": "sp-anchoviella_juruasanga.png", "group": "other", "rarity": 1}, {"lat": -36.8383, "lng": -14.4033, "id": "235944", "name": "Coronosphaera mediterranea", "sprite": "sp-anchoviella_juruasanga.png", "group": "other", "rarity": 1}, {"lat": -36.835, "lng": -14.405, "id": "367309", "name": "Collosphaeridae", "sprite": "sp-anchoviella_juruasanga.png", "group": "other", "rarity": 1}, {"lat": -36.835, "lng": -14.405, "id": "549441", "name": "Spongurus cylindricus", "sprite": "sp-anchoviella_juruasanga.png", "group": "other", "rarity": 1}, {"lat": -36.8383, "lng": -14.4033, "id": "555903", "name": "Syracosphaera anthos", "sprite": "sp-anchoviella_juruasanga.png", "group": "other", "rarity": 1}, {"lat": -36.8337, "lng": -15.3728, "id": "113453", "name": "Globorotalia truncatulinoides", "sprite": "sp-anchoviella_juruasanga.png", "group": "other", "rarity": 1}, {"lat": -36.835, "lng": -14.405, "id": "493542", "name": "Lampromitra coronata", "sprite": "sp-anchoviella_juruasanga.png", "group": "other", "rarity": 1}, {"lat": -36.835, "lng": -14.405, "id": "393178", "name": "Plectacantha oikiskos", "sprite": "sp-anchoviella_juruasanga.png", "group": "other", "rarity": 1}, {"lat": -36.8333, "lng": -16.6133, "id": "113461", "name": "Turborotalita humilis", "sprite": "sp-anchoviella_juruasanga.png", "group": "other", "rarity": 1}, {"lat": -36.8383, "lng": -14.4033, "id": "235829", "name": "Corisphaera", "sprite": "sp-anchoviella_juruasanga.png", "group": "other", "rarity": 1}, {"lat": -36.8333, "lng": -16.6133, "id": "1417053", "name": "Globorotalia cultrata", "sprite": "sp-anchoviella_juruasanga.png", "group": "other", "rarity": 1}, {"lat": -36.835, "lng": -14.405, "id": "493326", "name": "Druppatractus irregularis", "sprite": "sp-anchoviella_juruasanga.png", "group": "other", "rarity": 1}, {"lat": -36.8383, "lng": -14.4033, "id": "626382", "name": "Rhabdolithes claviger", "sprite": "sp-anchoviella_juruasanga.png", "group": "other", "rarity": 1}, {"lat": -36.8383, "lng": -14.4033, "id": "616702", "name": "Rhabdosphaera xiphos", "sprite": "sp-anchoviella_juruasanga.png", "group": "other", "rarity": 1}, {"lat": -36.835, "lng": -14.405, "id": "412969", "name": "Antarctissa strelkovi", "sprite": "sp-anchoviella_juruasanga.png", "group": "other", "rarity": 1}, {"lat": -36.835, "lng": -14.405, "id": "493570", "name": "Pseudodictyophimus gracilipes", "sprite": "sp-anchoviella_juruasanga.png", "group": "other", "rarity": 1}, {"lat": -36.835, "lng": -14.405, "id": "623771", "name": "Impagidinium sphaericum", "sprite": "sp-anchoviella_juruasanga.png", "group": "other", "rarity": 1}, {"lat": -36.8383, "lng": -14.4033, "id": "1380002", "sprite": "sp-anchoviella_juruasanga.png", "group": "other", "rarity": 1}, {"lat": -36.8333, "lng": -15.62, "id": "113450", "name": "Globorotalia menardii", "sprite": "sp-anchoviella_juruasanga.png", "group": "other", "rarity": 1}, {"lat": -36.835, "lng": -14.405, "id": "906779", "name": "Globorotalia inflata", "sprite": "sp-anchoviella_juruasanga.png", "group": "other", "rarity": 1}, {"lat": -36.835, "lng": -14.405, "id": "412947", "name": "Spongopyle osculosa", "sprite": "sp-anchoviella_juruasanga.png", "group": "other", "rarity": 1}, {"lat": -36.835, "lng": -14.405, "id": "493571", "name": "Pseudodictyophimus platycephalus", "sprite": "sp-anchoviella_juruasanga.png", "group": "other", "rarity": 1}, {"lat": -37.4533, "lng": -15.8833, "id": "137165", "name": "Sterna paradisaea", "sprite": "sp-anchoviella_juruasanga.png", "group": "other", "rarity": 1}, {"lat": -36.8333, "lng": -16.6133, "id": "991763", "name": "Globigerinoides elongatus", "sprite": "sp-anchoviella_juruasanga.png", "group": "other", "rarity": 1}, {"lat": -36.835, "lng": -14.405, "id": "623769", "name": "Operculodinium israelianum", "sprite": "sp-anchoviella_juruasanga.png", "group": "other", "rarity": 1}, {"lat": -36.835, "lng": -14.405, "id": "412909", "name": "Actinomma medianum", "sprite": "sp-anchoviella_juruasanga.png", "group": "other", "rarity": 1}, {"lat": -36.835, "lng": -14.405, "id": "493633", "name": "Cyrtolagena laguncula", "sprite": "sp-anchoviella_juruasanga.png", "group": "other", "rarity": 1}, {"lat": -36.8344, "lng": -14.4044, "id": "113452", "name": "Globorotalia scitula", "sprite": "sp-anchoviella_juruasanga.png", "group": "other", "rarity": 1}, {"lat": -36.835, "lng": -14.405, "id": "493527", "name": "Clathrocanium coarctatum", "sprite": "sp-anchoviella_juruasanga.png", "group": "other", "rarity": 1}, {"lat": -36.8383, "lng": -14.4033, "id": "603344", "name": "Rhabdolithes", "sprite": "sp-anchoviella_juruasanga.png", "group": "other", "rarity": 1}, {"lat": -36.835, "lng": -14.405, "id": "367330", "name": "Trissocyclidae", "sprite": "sp-anchoviella_juruasanga.png", "group": "other", "rarity": 1}, {"lat": -36.8383, "lng": -14.4033, "id": "621518", "name": "Neosphaera coccolithomorpha", "sprite": "sp-anchoviella_juruasanga.png", "group": "other", "rarity": 1}, {"lat": -36.835, "lng": -14.405, "id": "493585", "name": "Trisulcus triacanthus", "sprite": "sp-anchoviella_juruasanga.png", "group": "other", "rarity": 1}, {"lat": -37.4721, "lng": -15.0591, "id": "220222", "name": "Eubalaena australis", "sprite": "sp-blue_whale.png", "group": "whale", "rarity": 1}, {"lat": -36.8333, "lng": -15.9819, "id": "418106", "name": "Globigerinella calida", "sprite": "sp-anchoviella_juruasanga.png", "group": "other", "rarity": 1}, {"lat": -36.8383, "lng": -14.4033, "id": "235982", "name": "Umbellosphaera irregularis", "sprite": "sp-anchoviella_juruasanga.png", "group": "other", "rarity": 1}, {"lat": -36.8383, "lng": -14.4033, "id": "235823", "name": "Gephyrocapsa", "sprite": "sp-anchoviella_juruasanga.png", "group": "other", "rarity": 1}, {"lat": -36.835, "lng": -14.405, "id": "493685", "name": "Corythospyris stapedius", "sprite": "sp-anchoviella_juruasanga.png", "group": "other", "rarity": 1}, {"lat": -36.8333, "lng": -15.9267, "id": "418107", "name": "Globigerinoides tenellus", "sprite": "sp-anchoviella_juruasanga.png", "group": "other", "rarity": 1}, {"lat": -36.835, "lng": -14.405, "id": "493630", "name": "Cycladophora bicornis", "sprite": "sp-anchoviella_juruasanga.png", "group": "other", "rarity": 1}, {"lat": -36.8335, "lng": -15.7255, "id": "113454", "name": "Globoturborotalita rubescens", "sprite": "sp-anchoviella_juruasanga.png", "group": "other", "rarity": 1}, {"lat": -36.8383, "lng": -14.4033, "id": "615435", "name": "Helicosphaera carteri", "sprite": "sp-anchoviella_juruasanga.png", "group": "other", "rarity": 1}, {"lat": -36.835, "lng": -14.405, "id": "413078", "name": "Lithomelissa laticeps", "sprite": "sp-anchoviella_juruasanga.png", "group": "other", "rarity": 1}, {"lat": -36.835, "lng": -14.405, "id": "412995", "name": "Dictyophimus infabricatus", "sprite": "sp-anchoviella_juruasanga.png", "group": "other", "rarity": 1}, {"lat": -36.8383, "lng": -14.4033, "id": "115099", "name": "Ophiaster hydroideus", "sprite": "sp-anchoviella_juruasanga.png", "group": "other", "rarity": 1}, {"lat": -36.8344, "lng": -14.4044, "id": "1026410", "name": "Globoconella inflata", "sprite": "sp-anchoviella_juruasanga.png", "group": "other", "rarity": 1}, {"lat": -36.8383, "lng": -14.4033, "id": "235954", "name": "Gephyrocapsa ericsonii", "sprite": "sp-anchoviella_juruasanga.png", "group": "other", "rarity": 1}, {"lat": -36.835, "lng": -14.405, "id": "412985", "name": "Carpocanistrum", "sprite": "sp-anchoviella_juruasanga.png", "group": "other", "rarity": 1}, {"lat": -36.8383, "lng": -14.4033, "id": "235979", "name": "Syracosphaera pulchra", "sprite": "sp-anchoviella_juruasanga.png", "group": "other", "rarity": 1}, {"lat": -36.835, "lng": -14.405, "id": "345861", "name": "Stylodictya aculeata", "sprite": "sp-anchoviella_juruasanga.png", "group": "other", "rarity": 1}, {"lat": -36.835, "lng": -14.405, "id": "493616", "name": "Artostrobus annulatus", "sprite": "sp-anchoviella_juruasanga.png", "group": "other", "rarity": 1}, {"lat": -36.835, "lng": -14.405, "id": "493586", "name": "Lamprocyclas hannai", "sprite": "sp-anchoviella_juruasanga.png", "group": "other", "rarity": 1}, {"lat": -36.8337, "lng": -15.3735, "id": "113440", "name": "Globigerinella siphonifera", "sprite": "sp-anchoviella_juruasanga.png", "group": "other", "rarity": 1}, {"lat": -36.835, "lng": -14.405, "id": "845955", "name": "Pyxidinopsis reticulata", "sprite": "sp-anchoviella_juruasanga.png", "group": "other", "rarity": 1}, {"lat": -36.835, "lng": -14.405, "id": "493439", "name": "Acrobotrys teralans", "sprite": "sp-anchoviella_juruasanga.png", "group": "other", "rarity": 1}, {"lat": -36.8383, "lng": -14.4033, "id": "573399", "name": "Discosphaera tubifera", "sprite": "sp-anchoviella_juruasanga.png", "group": "other", "rarity": 1}, {"lat": -36.8346, "lng": -14.4046, "id": "113462", "name": "Turborotalita quinqueloba", "sprite": "sp-anchoviella_juruasanga.png", "group": "other", "rarity": 1}]}