{"zoom": 7, "x": 59, "y": 46, "points": [{"lat": 44.0547, "lng": -12.7613, "id": "104299", "name": "Euchirella curticauda", "sprite": "sp-anchoviella_juruasanga.png", "group": "other", "rarity": 1}, {"lat": 44.0518, "lng": -12.7686, "id": "416581", "name": "Scina oedicarpus", "sprite": "sp-american_lobster.png", "group": "crab_lobster", "rarity": 1}, {"lat": 44.0962, "lng": -12.801, "id": "107581", "name": "Acanthephyra pelagica", "sprite": "sp-american_lobster.png", "group": "crab_lobster", "rarity": 1}, {"lat": 44.0436, "lng": -12.7419, "id": "325362", "name": "Archaeoscina steenstrupi", "sprite": "sp-american_lobster.png", "group": "crab_lobster", "rarity": 1}, {"lat": 44.0009, "lng": -12.8424, "id": "126612", "name": "Jewel lanternfish", "thumb": "tn_Lacro_u0.jpg", "sprite": "sp-anchoviella_juruasanga.png", "group": "other", "rarity": 1, "waterType": "Saltwater"}, {"lat": 44.0478, "lng": -12.775, "id": "345251", "name": "Pseudoamallothrix ovata", "sprite": "sp-anchoviella_juruasanga.png", "group": "other", "rarity": 1}, {"lat": 43.4416, "lng": -13.2959, "id": "163348", "name": "Rhizosolenia semispina", "sprite": "sp-anchoviella_juruasanga.png", "group": "other", "rarity": 1}, {"lat": 44.325, "lng": -13.1266, "id": "1565078", "name": "Conchoecia isocheira", "sprite": "sp-anchoviella_juruasanga.png", "group": "other", "rarity": 1}, {"lat": 44.0672, "lng": -12.7734, "id": "104313", "name": "Gaetanus pileatus", "sprite": "sp-anchoviella_juruasanga.png", "group": "other", "rarity": 1}, {"lat": 43.7517, "lng": -12.7567, "id": "104183", "name": "Lucicutia", "sprite": "sp-anchoviella_juruasanga.png", "group": "other", "rarity": 1}, {"lat": 44.0613, "lng": -12.7903, "id": "127811", "name": "Metaconchoecia obtusa", "sprite": "sp-anchoviella_juruasanga.png", "group": "other", "rarity": 1}, {"lat": 44.0592, "lng": -12.765, "id": "104690", "name": "Cornucalanus chelifer", "sprite": "sp-anchoviella_juruasanga.png", "group": "other", "rarity": 1}, {"lat": 44.0671, "lng": -12.8244, "id": "127846", "name": "Paraconchoecia spinifera", "sprite": "sp-anchoviella_juruasanga.png", "group": "other", "rarity": 1}, {"lat": 44.9221, "lng": -12.61, "id": "158707", "name": "White sucker", "thumb": "tn_Cacom_u7.jpg", "sprite": "sp-anchoviella_juruasanga.png", "group": "other", "rarity": 1, "waterType": "Brackish"}, {"lat": 44.0687, "lng": -12.8363, "id": "127852", "name": "Paramollicia rhynchena", "sprite": "sp-anchoviella_juruasanga.png", "group": "other", "rarity": 1}, {"lat": 44.085, "lng": -12.8073, "id": "127796", "name": "Loricoecia acutimarginata", "sprite": "sp-anchoviella_juruasanga.png", "group": "other", "rarity": 1}, {"lat": 44.0523, "lng": -12.7652, "id": "104510", "name": "Ctenocalanus vanus", "sprite": "sp-anchoviella_juruasanga.png", "group": "other", "rarity": 1}, {"lat": 44.0639, "lng": -12.7494, "id": "104380", "name": "Euaugaptilus angustus", "sprite": "sp-anchoviella_juruasanga.png", "group": "other", "rarity": 1}, {"lat": 44.0808, "lng": -12.7594, "id": "104638", "name": "Pleuromamma borealis", "sprite": "sp-anchoviella_juruasanga.png", "group": "other", "rarity": 1}, {"lat": 44.0717, "lng": -12.7584, "id": "104384", "name": "Euaugaptilus clavatus", "sprite": "sp-anchoviella_juruasanga.png", "group": "other", "rarity": 1}, {"lat": 43.8927, "lng": -12.9152, "id": "135415", "name": "Heteropyramis crystallina", "sprite": "sp-anchoviella_juruasanga.png", "group": "other", "rarity": 1}, {"lat": 44.0777, "lng": -12.8616, "id": "135412", "name": "Clausophyes moserae", "sprite": "sp-anchoviella_juruasanga.png", "group": "other", "rarity": 1}, {"lat": 44.0, "lng": -13.0, "id": "446457", "name": "Longithorax megalops", "sprite": "sp-american_lobster.png", "group": "crab_lobster", "rarity": 1}, {"lat": 44.0583, "lng": -12.7614, "id": "119921", "name": "Eucopia unguiculata", "sprite": "sp-american_lobster.png", "group": "crab_lobster", "rarity": 1}, {"lat": 44.025, "lng": -12.7892, "id": "104438", "name": "Haloptilus tenuis", "sprite": "sp-anchoviella_juruasanga.png", "group": "other", "rarity": 1}, {"lat": 44.0508, "lng": -12.7639, "id": "104673", "name": "Calocalanus styliremis", "sprite": "sp-anchoviella_juruasanga.png", "group": "other", "rarity": 1}, {"lat": 44.093, "lng": -12.8682, "id": "135460", "name": "Maresearsia praeclara", "sprite": "sp-anchoviella_juruasanga.png", "group": "other", "rarity": 1}, {"lat": 44.2792, "lng": -12.9933, "id": "135449", "name": "Hippopodius hippopus", "sprite": "sp-anchoviella_juruasanga.png", "group": "other", "rarity": 1}, {"lat": 44.3391, "lng": -12.6378, "id": "840626", "name": "Tripos fusus", "sprite": "sp-anchoviella_juruasanga.png", "group": "other", "rarity": 1}, {"lat": 44.1997, "lng": -13.0167, "id": "127857", "name": "Proceroecia brachyaskos", "sprite": "sp-anchoviella_juruasanga.png", "group": "other", "rarity": 1}, {"lat": 44.0711, "lng": -12.8033, "id": "127815", "name": "Metaconchoecia subinflata", "sprite": "sp-anchoviella_juruasanga.png", "group": "other", "rarity": 1}, {"lat": 44.0174, "lng": -12.7705, "id": "127716", "name": "Macrocypridina castanea", "sprite": "sp-anchoviella_juruasanga.png", "group": "other", "rarity": 1}, {"lat": 44.8881, "lng": -12.5877, "id": "841261", "name": "Tripos massiliensis", "sprite": "sp-anchoviella_juruasanga.png", "group": "other", "rarity": 1}, {"lat": 44.0732, "lng": -12.845, "id": "127788", "name": "Gaussicia edentata", "sprite": "sp-anchoviella_juruasanga.png", "group": "other", "rarity": 1}, {"lat": 44.482, "lng": -12.862, "id": "127819", "name": "Mikroconchoecia acuticosta", "sprite": "sp-anchoviella_juruasanga.png", "group": "other", "rarity": 1}, {"lat": 43.8505, "lng": -12.8175, "id": "176644", "name": "Archiconchoecetta bimucronata", "sprite": "sp-anchoviella_juruasanga.png", "group": "other", "rarity": 1}, {"lat": 44.0587, "lng": -12.7481, "id": "104390", "name": "Euaugaptilus filigerus", "sprite": "sp-anchoviella_juruasanga.png", "group": "other", "rarity": 1}, {"lat": 44.0583, "lng": -12.7614, "id": "104838", "name": "Mimocalanus cultrifer", "sprite": "sp-anchoviella_juruasanga.png", "group": "other", "rarity": 1}, {"lat": 44.0687, "lng": -12.8298, "id": "1314235", "name": "Hyalocoecia hyalophyllum", "sprite": "sp-anchoviella_juruasanga.png", "group": "other", "rarity": 1}, {"lat": 44.4696, "lng": -13.0754, "id": "106813", "name": "Gennadas", "sprite": "sp-american_lobster.png", "group": "crab_lobster", "rarity": 1}, {"lat": 44.0491, "lng": -12.7042, "id": "104698", "name": "Phaenna spinifera", "sprite": "sp-anchoviella_juruasanga.png", "group": "other", "rarity": 1}, {"lat": 44.0196, "lng": -12.861, "id": "126585", "name": "Madeira lantern fish", "thumb": "tn_Cemad_u0.jpg", "sprite": "sp-anchoviella_juruasanga.png", "group": "other", "rarity": 1, "waterType": "Saltwater"}, {"lat": 43.8821, "lng": -12.8073, "id": "127272", "name": "Poromitra capito", "thumb": "tn_Pocap_u0.gif", "sprite": "sp-anchoviella_juruasanga.png", "group": "other", "rarity": 1, "waterType": "Saltwater"}, {"lat": 44.0623, "lng": -12.8631, "id": "127309", "name": "Half-naked hatchetfish", "thumb": "tn_Arhem_u6.jpg", "sprite": "sp-anchoviella_juruasanga.png", "group": "other", "rarity": 1, "waterType": "Saltwater"}, {"lat": 44.0551, "lng": -12.7719, "id": "110704", "name": "Stylocheiron maximum", "sprite": "sp-antarctic_krill.png", "group": "shrimp", "rarity": 1}, {"lat": 44.0649, "lng": -12.7691, "id": "104303", "name": "Euchirella rostrata", "sprite": "sp-anchoviella_juruasanga.png", "group": "other", "rarity": 1}, {"lat": 44.1347, "lng": -12.7523, "id": "1", "name": "Biota", "sprite": "sp-anchoviella_juruasanga.png", "group": "other", "rarity": 1}, {"lat": 43.205, "lng": -11.88, "id": "135144", "name": "Caryophyllia (Caryophyllia) smithii", "sprite": "sp-actiniidae.png", "group": "coral", "rarity": 1}, {"lat": 44.66, "lng": -11.51, "id": "135209", "name": "Madrepora oculata", "sprite": "sp-actiniidae.png", "group": "coral", "rarity": 1}, {"lat": 44.0508, "lng": -12.7092, "id": "135250", "name": "Nausithoe", "sprite": "sp-box_jellyfish.png", "group": "jellyfish", "rarity": 1}, {"lat": 44.0863, "lng": -12.7795, "id": "306769", "name": "Stomias ferox", "sprite": "sp-anchoviella_juruasanga.png", "group": "other", "rarity": 1, "waterType": "Saltwater"}, {"lat": 44.0422, "lng": -12.7426, "id": "104373", "name": "Augaptilus longicaudatus", "sprite": "sp-anchoviella_juruasanga.png", "group": "other", "rarity": 1}, {"lat": 44.0534, "lng": -12.7309, "id": "101801", "name": "Lanceola", "sprite": "sp-american_lobster.png", "group": "crab_lobster", "rarity": 1}, {"lat": 43.9567, "lng": -12.9102, "id": "135389", "name": "Halistemma", "sprite": "sp-anchoviella_juruasanga.png", "group": "other", "rarity": 1}, {"lat": 44.1679, "lng": -12.8828, "id": "158901", "name": "Cocco's lantern fish", "thumb": "tn_Logem_u0.jpg", "sprite": "sp-anchoviella_juruasanga.png", "group": "other", "rarity": 1, "waterType": "Saltwater"}, {"lat": 44.1959, "lng": -12.9024, "id": "148912", "name": "Thalassiosira", "sprite": "sp-anchoviella_juruasanga.png", "group": "other", "rarity": 1}, {"lat": 44.4833, "lng": -13.5333, "id": "123893", "name": "Dytaster rigidus", "sprite": "sp-sea_cucumber.png", "group": "starfish", "rarity": 1}, {"lat": 44.06, "lng": -12.7484, "id": "104553", "name": "Euchaeta media", "sprite": "sp-anchoviella_juruasanga.png", "group": "other", "rarity": 1}, {"lat": 45.0711, "lng": -12.5404, "id": "837460", "name": "Tripos extensus", "sprite": "sp-anchoviella_juruasanga.png", "group": "other", "rarity": 1}, {"lat": 44.0537, "lng": -12.7551, "id": "104596", "name": "Lucicutia curta", "sprite": "sp-anchoviella_juruasanga.png", "group": "other", "rarity": 1}, {"lat": 44.5, "lng": -13.0, "id": "126285", "name": "European conger", "thumb": "tn_Cocon_u1.jpg", "sprite": "sp-electric_eel.png", "group": "eel", "rarity": 1, "waterType": "Saltwater"}, {"lat": 43.9708, "lng": -12.9316, "id": "127825", "name": "Mollicia kampta", "sprite": "sp-anchoviella_juruasanga.png", "group": "other", "rarity": 1}, {"lat": 44.0838, "lng": -12.6839, "id": "345781", "name": "Eucalanus hyalinus", "sprite": "sp-anchoviella_juruasanga.png", "group": "other", "rarity": 1}, {"lat": 44.0632, "lng": -12.7606, "id": "414565", "name": "Euchirella messinensis messinensis", "sprite": "sp-anchoviella_juruasanga.png", "group": "other", "rarity": 1}, {"lat": 44.2197, "lng": -12.5393, "id": "596242", "name": "Pleuromamma abdominalis abdominalis", "sprite": "sp-anchoviella_juruasanga.png", "group": "other", "rarity": 1}, {"lat": 44.4815, "lng": -11.8941, "id": "106267", "name": "Evadne", "sprite": "sp-anchoviella_juruasanga.png", "group": "other", "rarity": 1}, {"lat": 44.0513, "lng": -12.759, "id": "368129", "name": "Paraheterorhabdus robustus", "sprite": "sp-anchoviella_juruasanga.png", "group": "other", "rarity": 1}, {"lat": 44.0795, "lng": -12.8153, "id": "536010", "name": "Rotundoecia teretivalvata", "sprite": "sp-anchoviella_juruasanga.png", "group": "other", "rarity": 1}, {"lat": 44.0797, "lng": -12.8469, "id": "125436", "name": "Synaphobranchidae", "sprite": "sp-electric_eel.png", "group": "eel", "rarity": 1}, {"lat": 44.4696, "lng": -13.0754, "id": "135506", "name": "Bargmannia elongata", "sprite": "sp-anchoviella_juruasanga.png", "group": "other", "rarity": 1}, {"lat": 44.0308, "lng": -12.705, "id": "104477", "name": "Candacia elongata", "sprite": "sp-anchoviella_juruasanga.png", "group": "other", "rarity": 1}, {"lat": 43.2139, "lng": -11.8917, "id": "102728", "name": "Sophrosyne hispana", "sprite": "sp-american_lobster.png", "group": "crab_lobster", "rarity": 1}, {"lat": 44.0954, "lng": -12.9079, "id": "135466", "name": "Praya dubia", "sprite": "sp-anchoviella_juruasanga.png", "group": "other", "rarity": 1}, {"lat": 44.0354, "lng": -12.8168, "id": "175693", "name": "Archiconchoecissa cucullata", "sprite": "sp-anchoviella_juruasanga.png", "group": "other", "rarity": 1}, {"lat": 44.0539, "lng": -12.7603, "id": "104783", "name": "Mixtocalanus alter", "sprite": "sp-anchoviella_juruasanga.png", "group": "other", "rarity": 1}, {"lat": 44.0033, "lng": -12.7908, "id": "104372", "name": "Augaptilus glacialis", "sprite": "sp-anchoviella_juruasanga.png", "group": "other", "rarity": 1}, {"lat": 43.479, "lng": -11.442, "id": "137165", "name": "Sterna paradisaea", "sprite": "sp-anchoviella_juruasanga.png", "group": "other", "rarity": 1}, {"lat": 43.74, "lng": -13.2083, "id": "2688", "name": "Cetacea", "sprite": "sp-anchoviella_juruasanga.png", "group": "other", "rarity": 1}, {"lat": 44.0565, "lng": -12.8686, "id": "127284", "name": "Garrick", "thumb": "tn_Cybra_u0.jpg", "sprite": "sp-anchoviella_juruasanga.png", "group": "other", "rarity": 1, "waterType": "Saltwater"}, {"lat": 44.0469, "lng": -12.7371, "id": "135248", "name": "Atolla", "sprite": "sp-box_jellyfish.png", "group": "jellyfish", "rarity": 1}, {"lat": 44.0619, "lng": -12.7424, "id": "850801", "name": "Metridia lucens lucens", "sprite": "sp-anchoviella_juruasanga.png", "group": "other", "rarity": 1}, {"lat": 44.067, "lng": -12.7577, "id": "104798", "name": "Scaphocalanus magnus", "sprite": "sp-anchoviella_juruasanga.png", "group": "other", "rarity": 1}, {"lat": 44.9533, "lng": -14.0317, "id": "179785", "name": "Dactyliosolen antarcticus", "sprite": "sp-anchoviella_juruasanga.png", "group": "other", "rarity": 1}, {"lat": 44.1025, "lng": -12.7608, "id": "119968", "name": "Boreomysis microps", "sprite": "sp-american_lobster.png", "group": "crab_lobster", "rarity": 1}, {"lat": 44.0299, "lng": -12.8523, "id": "127286", "name": "Veiled anglemouth", "thumb": "tn_Cymic_u5.jpg", "sprite": "sp-anchoviella_juruasanga.png", "group": "other", "rarity": 1, "waterType": "Saltwater"}, {"lat": 44.0223, "lng": -12.7415, "id": "104779", "name": "Lophothrix frontalis", "sprite": "sp-anchoviella_juruasanga.png", "group": "other", "rarity": 1}, {"lat": 44.917, "lng": -13.45, "id": "342056", "name": "Octopoteuthis danae", "sprite": "sp-giant_pacific_octopus.png", "group": "octopus_squid", "rarity": 1}, {"lat": 44.0733, "lng": -12.7975, "id": "104669", "name": "Calocalanus pavo", "sprite": "sp-anchoviella_juruasanga.png", "group": "other", "rarity": 1}, {"lat": 44.0914, "lng": -12.8679, "id": "127820", "name": "Mikroconchoecia curta", "sprite": "sp-anchoviella_juruasanga.png", "group": "other", "rarity": 1}, {"lat": 44.0758, "lng": -12.7583, "id": "104597", "name": "Lucicutia flavicornis", "sprite": "sp-anchoviella_juruasanga.png", "group": "other", "rarity": 1}, {"lat": 44.0501, "lng": -12.7539, "id": "104306", "name": "Gaetanus armiger", "sprite": "sp-anchoviella_juruasanga.png", "group": "other", "rarity": 1}, {"lat": 44.0879, "lng": -12.9967, "id": "126591", "name": "Headlight fish", "thumb": "tn_Dieff_u0.jpg", "sprite": "sp-anchoviella_juruasanga.png", "group": "other", "rarity": 1, "waterType": "Saltwater"}, {"lat": 44.45, "lng": -12.7333, "id": "119206", "name": "Benthomisophria palliata", "sprite": "sp-anchoviella_juruasanga.png", "group": "other", "rarity": 1}, {"lat": 44.7455, "lng": -12.6567, "id": "837459", "name": "Tripos lineatus", "sprite": "sp-anchoviella_juruasanga.png", "group": "other", "rarity": 1}, {"lat": 44.5525, "lng": -11.6003, "id": "105812", "name": "Blackmouth catshark", "thumb": "tn_Gamel_u1.jpg", "sprite": "sp-great_white_shark.png", "group": "shark", "rarity": 1, "waterType": "Saltwater"}, {"lat": 44.0613, "lng": -12.8524, "id": "135428", "name": "Lensia exeter", "sprite": "sp-anchoviella_juruasanga.png", "group": "other", "rarity": 1}, {"lat": 44.085, "lng": -13.0775, "id": "135398", "name": "Bargmannia", "sprite": "sp-anchoviella_juruasanga.png", "group": "other", "rarity": 1}, {"lat": 44.4833, "lng": -13.5333, "id": "156773", "name": "Cuspidaria undata", "sprite": "sp-blue_mussel.png", "group": "clam_mussel", "rarity": 1}, {"lat": 43.9567, "lng": -13.0325, "id": "135403", "name": "Abylopsis tetragona", "sprite": "sp-anchoviella_juruasanga.png", "group": "other", "rarity": 1}, {"lat": 44.0594, "lng": -12.7625, "id": "104402", "name": "Euaugaptilus magnus", "sprite": "sp-anchoviella_juruasanga.png", "group": "other", "rarity": 1}, {"lat": 44.7364, "lng": -13.0616, "id": "842517", "name": "Tripos trichoceros", "sprite": "sp-anchoviella_juruasanga.png", "group": "other", "rarity": 1}, {"lat": 44.0414, "lng": -12.7497, "id": "104835", "name": "Scottocalanus thori", "sprite": "sp-anchoviella_juruasanga.png", "group": "other", "rarity": 1}, {"lat": 44.0553, "lng": -12.7613, "id": "103278", "name": "Scina borealis", "sprite": "sp-american_lobster.png", "group": "crab_lobster", "rarity": 1}, {"lat": 44.0575, "lng": -12.768, "id": "107676", "name": "Pasiphaea multidentata", "sprite": "sp-american_lobster.png", "group": "crab_lobster", "rarity": 1}, {"lat": 44.1601, "lng": -12.8701, "id": "135416", "name": "Heteropyramis maculata", "sprite": "sp-anchoviella_juruasanga.png", "group": "other", "rarity": 1}, {"lat": 43.4817, "lng": -11.7883, "id": "883", "name": "Polychaeta", "sprite": "sp-anchoviella_juruasanga.png", "group": "other", "rarity": 1}, {"lat": 44.0331, "lng": -12.8771, "id": "127316", "name": "Constellationfish", "thumb": "tn_Vatri_u0.jpg", "sprite": "sp-anchoviella_juruasanga.png", "group": "other", "rarity": 1, "waterType": "Saltwater"}, {"lat": 44.495, "lng": -12.9967, "id": "127376", "name": "Longbarb scaly dragonfish", "thumb": "tn_Stlon_u0.jpg", "sprite": "sp-anchoviella_juruasanga.png", "group": "other", "rarity": 1, "waterType": "Saltwater"}, {"lat": 44.1163, "lng": -12.76, "id": "237644", "name": "Chevreuxiella", "sprite": "sp-american_lobster.png", "group": "crab_lobster", "rarity": 1}, {"lat": 44.0558, "lng": -12.785, "id": "360543", "name": "Scolecithricella longipes", "sprite": "sp-anchoviella_juruasanga.png", "group": "other", "rarity": 1}, {"lat": 44.0519, "lng": -12.7472, "id": "730985", "name": "Megacalanus princeps princeps", "sprite": "sp-anchoviella_juruasanga.png", "group": "other", "rarity": 1}, {"lat": 44.0446, "lng": -12.8852, "id": "127338", "name": "Sloane's viperfish", "thumb": "tn_Chslo_u5.jpg", "sprite": "sp-anchoviella_juruasanga.png", "group": "other", "rarity": 1, "waterType": "Saltwater"}, {"lat": 44.0542, "lng": -12.7619, "id": "103265", "name": "Lanceola sayana", "sprite": "sp-american_lobster.png", "group": "crab_lobster", "rarity": 1}, {"lat": 44.9533, "lng": -14.0317, "id": "1806", "name": "Echinodermata", "sprite": "sp-sea_cucumber.png", "group": "starfish", "rarity": 1}, {"lat": 44.0442, "lng": -12.7477, "id": "104561", "name": "Paraeuchaeta gracilis", "sprite": "sp-anchoviella_juruasanga.png", "group": "other", "rarity": 1}, {"lat": 44.058, "lng": -12.8762, "id": "135450", "name": "Vogtia glabra", "sprite": "sp-anchoviella_juruasanga.png", "group": "other", "rarity": 1}, {"lat": 44.0342, "lng": -12.8683, "id": "104548", "name": "Subeucalanus subcrassus", "sprite": "sp-anchoviella_juruasanga.png", "group": "other", "rarity": 1}, {"lat": 43.9729, "lng": -13.0946, "id": "135356", "name": "Chuniphyes", "sprite": "sp-anchoviella_juruasanga.png", "group": "other", "rarity": 1}, {"lat": 44.0789, "lng": -12.7892, "id": "104464", "name": "Calanus finmarchicus", "sprite": "sp-anchoviella_juruasanga.png", "group": "other", "rarity": 1}, {"lat": 44.2717, "lng": -13.1683, "id": "104128", "name": "Undeuchaeta", "sprite": "sp-anchoviella_juruasanga.png", "group": "other", "rarity": 1}]}