{"zoom": 7, "x": 61, "y": 28, "points": [{"lat": 70.0548, "lng": -7.8158, "id": "1078", "name": "Ostracoda", "sprite": "sp-anchoviella_juruasanga.png", "group": "other", "rarity": 1}, {"lat": 70.0833, "lng": -8.4333, "id": "820374", "name": "Pseudotanais affinis", "sprite": "sp-american_lobster.png", "group": "crab_lobster", "rarity": 1}, {"lat": 70.0225, "lng": -7.894, "id": "157675", "name": "Microcalanus pusillus", "sprite": "sp-anchoviella_juruasanga.png", "group": "other", "rarity": 1}, {"lat": 69.9948, "lng": -7.8422, "id": "110708", "name": "Thysanoessa inermis", "sprite": "sp-antarctic_krill.png", "group": "shrimp", "rarity": 1}, {"lat": 70.0527, "lng": -7.51, "id": "148912", "name": "Thalassiosira", "sprite": "sp-anchoviella_juruasanga.png", "group": "other", "rarity": 1}, {"lat": 70.0527, "lng": -7.51, "id": "1205", "name": "Hyperiidea", "sprite": "sp-american_lobster.png", "group": "crab_lobster", "rarity": 1}, {"lat": 70.0878, "lng": -7.8607, "id": "104464", "name": "Calanus finmarchicus", "sprite": "sp-anchoviella_juruasanga.png", "group": "other", "rarity": 1}, {"lat": 70.5, "lng": -8.37, "id": "159019", "name": "Pagophilus groenlandicus", "sprite": "sp-elephant_seal.png", "group": "seal", "rarity": 1}, {"lat": 69.8957, "lng": -7.5771, "id": "117849", "name": "Aglantha digitale", "sprite": "sp-anchoviella_juruasanga.png", "group": "other", "rarity": 1}, {"lat": 70.1182, "lng": -7.9908, "id": "104165", "name": "Pseudocalanus", "sprite": "sp-anchoviella_juruasanga.png", "group": "other", "rarity": 1}, {"lat": 69.8957, "lng": -7.5771, "id": "123084", "name": "Ophiuroidea", "sprite": "sp-sea_cucumber.png", "group": "starfish", "rarity": 1}, {"lat": 70.2048, "lng": -8.3147, "id": "110690", "name": "Meganyctiphanes norvegica", "sprite": "sp-antarctic_krill.png", "group": "shrimp", "rarity": 1}, {"lat": 70.3478, "lng": -7.1133, "id": "137195", "name": "Fulmarus glacialis", "sprite": "sp-anchoviella_juruasanga.png", "group": "other", "rarity": 1}, {"lat": 70.1149, "lng": -7.7894, "id": "1410", "name": "Foraminifera", "sprite": "sp-anchoviella_juruasanga.png", "group": "other", "rarity": 1}, {"lat": 70.5333, "lng": -8.1667, "id": "102481", "name": "Liljeborgia fissicornis", "sprite": "sp-american_lobster.png", "group": "crab_lobster", "rarity": 1}, {"lat": 70.0833, "lng": -8.4333, "id": "110547", "name": "Campylaspis intermedia", "sprite": "sp-american_lobster.png", "group": "crab_lobster", "rarity": 1}, {"lat": 70.334, "lng": -8.0017, "id": "1806", "name": "Echinodermata", "sprite": "sp-sea_cucumber.png", "group": "starfish", "rarity": 1}, {"lat": 69.92, "lng": -7.3278, "id": "1507271", "name": "Paraeuchaeta barbata barbata", "sprite": "sp-anchoviella_juruasanga.png", "group": "other", "rarity": 1}, {"lat": 70.3083, "lng": -8.3, "id": "102181", "name": "Cleippides quadricuspis", "sprite": "sp-american_lobster.png", "group": "crab_lobster", "rarity": 1}, {"lat": 69.8957, "lng": -7.5771, "id": "146421", "name": "Appendicularia", "sprite": "sp-anchoviella_juruasanga.png", "group": "other", "rarity": 1}, {"lat": 70.08, "lng": -8.43, "id": "124229", "name": "Poliometra prolixa", "sprite": "sp-sea_cucumber.png", "group": "starfish", "rarity": 1}, {"lat": 69.78, "lng": -6.61, "id": "137102", "name": "Orcinus orca", "sprite": "sp-bottlenose_dolphin.png", "group": "dolphin", "rarity": 1}, {"lat": 70.4167, "lng": -6.9333, "id": "137146", "name": "Larus marinus", "sprite": "sp-anchoviella_juruasanga.png", "group": "other", "rarity": 1}, {"lat": 70.0406, "lng": -7.9393, "id": "104632", "name": "Metridia longa", "sprite": "sp-anchoviella_juruasanga.png", "group": "other", "rarity": 1}, {"lat": 70.4485, "lng": -6.9454, "id": "137129", "name": "Alle alle", "sprite": "sp-anchoviella_juruasanga.png", "group": "other", "rarity": 1}, {"lat": 70.0833, "lng": -8.4333, "id": "101872", "name": "Acanthonotozoma cristatum", "sprite": "sp-american_lobster.png", "group": "crab_lobster", "rarity": 1}, {"lat": 70.3889, "lng": -6.8861, "id": "137156", "name": "Rissa tridactyla", "sprite": "sp-anchoviella_juruasanga.png", "group": "other", "rarity": 1}, {"lat": 70.0648, "lng": -7.9997, "id": "105399", "name": "Eukrohnia", "sprite": "sp-anchoviella_juruasanga.png", "group": "other", "rarity": 1}, {"lat": 70.35, "lng": -8.42, "id": "101031", "name": "Epizoanthus lindahli", "sprite": "sp-actiniidae.png", "group": "coral", "rarity": 1}, {"lat": 70.0833, "lng": -8.4333, "id": "107676", "name": "Pasiphaea multidentata", "sprite": "sp-american_lobster.png", "group": "crab_lobster", "rarity": 1}, {"lat": 70.0648, "lng": -7.9997, "id": "110709", "name": "Thysanoessa longicaudata", "sprite": "sp-antarctic_krill.png", "group": "shrimp", "rarity": 1}, {"lat": 70.0648, "lng": -7.9997, "id": "140223", "name": "Limacina helicina", "sprite": "sp-cowrie_shell.png", "group": "sea_snail", "rarity": 1}, {"lat": 70.5333, "lng": -8.1667, "id": "240443", "name": "Hymedesmia (Stylopus) mucronella", "sprite": "sp-barrel_sponge.png", "group": "sponge", "rarity": 1}, {"lat": 70.3021, "lng": -7.2582, "id": "137092", "name": "Megaptera novaeangliae", "sprite": "sp-blue_whale.png", "group": "whale", "rarity": 1}, {"lat": 70.1321, "lng": -8.0002, "id": "103259", "name": "Themisto abyssorum", "sprite": "sp-american_lobster.png", "group": "crab_lobster", "rarity": 1}, {"lat": 70.08, "lng": -8.43, "id": "101047", "name": "Isozoanthus bulbosus", "sprite": "sp-actiniidae.png", "group": "coral", "rarity": 1}, {"lat": 69.8957, "lng": -7.5771, "id": "106656", "name": "Oithona similis", "sprite": "sp-anchoviella_juruasanga.png", "group": "other", "rarity": 1}, {"lat": 70.0833, "lng": -8.4333, "id": "110486", "name": "Diastylis polaris", "sprite": "sp-american_lobster.png", "group": "crab_lobster", "rarity": 1}, {"lat": 70.0611, "lng": -7.8209, "id": "104467", "name": "Calanus hyperboreus", "sprite": "sp-anchoviella_juruasanga.png", "group": "other", "rarity": 1}, {"lat": 69.8957, "lng": -7.5771, "id": "101800", "name": "Themisto", "sprite": "sp-american_lobster.png", "group": "crab_lobster", "rarity": 1}, {"lat": 70.5333, "lng": -8.1667, "id": "102117", "name": "Cressa carinata", "sprite": "sp-american_lobster.png", "group": "crab_lobster", "rarity": 1}, {"lat": 70.1267, "lng": -7.39, "id": "343899", "name": "Hyperoodon ampullatus", "sprite": "sp-blue_whale.png", "group": "whale", "rarity": 1}, {"lat": 69.723, "lng": -8.2644, "id": "137174", "name": "Stercorarius skua", "sprite": "sp-anchoviella_juruasanga.png", "group": "other", "rarity": 1}, {"lat": 70.0833, "lng": -8.4333, "id": "133467", "name": "Crella (Yvesia) gelida", "sprite": "sp-barrel_sponge.png", "group": "sponge", "rarity": 1}, {"lat": 70.0848, "lng": -7.9155, "id": "128690", "name": "Oncaea", "sprite": "sp-anchoviella_juruasanga.png", "group": "other", "rarity": 1}, {"lat": 70.383, "lng": -7.3, "id": "370366", "name": "Chaetoceros (Hyalochaete)", "sprite": "sp-anchoviella_juruasanga.png", "group": "other", "rarity": 1}, {"lat": 69.8957, "lng": -7.5771, "id": "106642", "name": "Oithona atlantica", "sprite": "sp-anchoviella_juruasanga.png", "group": "other", "rarity": 1}, {"lat": 70.1217, "lng": -7.9552, "id": "104190", "name": "Metridia", "sprite": "sp-anchoviella_juruasanga.png", "group": "other", "rarity": 1}, {"lat": 70.083, "lng": -8.433, "id": "124355", "name": "Pourtalesia jeffreysi", "sprite": "sp-sea_cucumber.png", "group": "starfish", "rarity": 1}, {"lat": 69.88, "lng": -6.97, "id": "137020", "name": "Lagenorhynchus", "sprite": "sp-bottlenose_dolphin.png", "group": "dolphin", "rarity": 1}, {"lat": 69.9495, "lng": -7.5454, "id": "1100", "name": "Calanoida", "sprite": "sp-anchoviella_juruasanga.png", "group": "other", "rarity": 1}, {"lat": 70.0493, "lng": -7.9497, "id": "106485", "name": "Oithona", "sprite": "sp-anchoviella_juruasanga.png", "group": "other", "rarity": 1}, {"lat": 70.1724, "lng": -8.3387, "id": "137117", "name": "Phocoena phocoena", "sprite": "sp-bottlenose_dolphin.png", "group": "dolphin", "rarity": 1}, {"lat": 69.92, "lng": -7.3278, "id": "237965", "name": "Gaetanus tenuispinus", "sprite": "sp-anchoviella_juruasanga.png", "group": "other", "rarity": 1}, {"lat": 70.083, "lng": -8.433, "id": "140449", "name": "Dacrydium vitreum", "sprite": "sp-blue_mussel.png", "group": "clam_mussel", "rarity": 1}, {"lat": 70.39, "lng": -6.8866, "id": "137134", "name": "Uria lomvia", "sprite": "sp-anchoviella_juruasanga.png", "group": "other", "rarity": 1}, {"lat": 70.2597, "lng": -7.8053, "id": "137091", "name": "Balaenoptera physalus", "sprite": "sp-blue_whale.png", "group": "whale", "rarity": 1}, {"lat": 70.0648, "lng": -7.9997, "id": "156452", "name": "Themisto libellula", "sprite": "sp-american_lobster.png", "group": "crab_lobster", "rarity": 1}, {"lat": 70.1078, "lng": -7.8953, "id": "1080", "name": "Copepoda", "sprite": "sp-anchoviella_juruasanga.png", "group": "other", "rarity": 1}, {"lat": 70.0527, "lng": -7.51, "id": "163030", "name": "Phaeoceros", "sprite": "sp-anchoviella_juruasanga.png", "group": "other", "rarity": 1}, {"lat": 69.9948, "lng": -7.8422, "id": "196874", "name": "Paraeuchaeta", "sprite": "sp-anchoviella_juruasanga.png", "group": "other", "rarity": 1}, {"lat": 70.22, "lng": -7.391, "id": "149153", "name": "Pseudo-nitzschia delicatissima", "sprite": "sp-anchoviella_juruasanga.png", "group": "other", "rarity": 1}, {"lat": 70.3833, "lng": -8.2556, "id": "597758", "name": "Halirages qvadridentatus", "sprite": "sp-american_lobster.png", "group": "crab_lobster", "rarity": 1}, {"lat": 70.0833, "lng": -8.4333, "id": "102956", "name": "Harpinia abyssi", "sprite": "sp-american_lobster.png", "group": "crab_lobster", "rarity": 1}, {"lat": 70.1508, "lng": -7.7303, "id": "2081", "name": "Chaetognatha", "sprite": "sp-anchoviella_juruasanga.png", "group": "other", "rarity": 1}, {"lat": 70.2336, "lng": -7.4373, "id": "137087", "name": "Balaenoptera acutorostrata", "sprite": "sp-blue_whale.png", "group": "whale", "rarity": 1}, {"lat": 70.0695, "lng": -8.3565, "id": "104579", "name": "Heterorhabdus norvegicus", "sprite": "sp-anchoviella_juruasanga.png", "group": "other", "rarity": 1}, {"lat": 69.8875, "lng": -7.615, "id": "1128", "name": "Euphausiacea", "sprite": "sp-antarctic_krill.png", "group": "shrimp", "rarity": 1}, {"lat": 70.0038, "lng": -7.515, "id": "104152", "name": "Calanus", "sprite": "sp-anchoviella_juruasanga.png", "group": "other", "rarity": 1}, {"lat": 70.334, "lng": -8.0017, "id": "104164", "name": "Microcalanus", "sprite": "sp-anchoviella_juruasanga.png", "group": "other", "rarity": 1}, {"lat": 69.9385, "lng": -8.333, "id": "137101", "name": "Lagenorhynchus albirostris", "sprite": "sp-bottlenose_dolphin.png", "group": "dolphin", "rarity": 1}, {"lat": 70.6, "lng": -7.1, "id": "137145", "name": "Larus hyperboreus", "sprite": "sp-anchoviella_juruasanga.png", "group": "other", "rarity": 1}, {"lat": 70.43, "lng": -6.51, "id": "124731", "name": "Kolga hyalina", "sprite": "sp-sea_cucumber.png", "group": "starfish", "rarity": 1}, {"lat": 70.0133, "lng": -7.8767, "id": "104566", "name": "Paraeuchaeta norvegica", "sprite": "sp-anchoviella_juruasanga.png", "group": "other", "rarity": 1}, {"lat": 70.0695, "lng": -8.3565, "id": "104241", "name": "Temora", "sprite": "sp-anchoviella_juruasanga.png", "group": "other", "rarity": 1}]}