{"zoom": 7, "x": 61, "y": 34, "points": [{"lat": 63.4405, "lng": -6.6714, "id": "110709", "name": "Thysanoessa longicaudata", "sprite": "sp-antarctic_krill.png", "group": "shrimp", "rarity": 1}, {"lat": 62.9414, "lng": -6.9829, "id": "120193", "name": "Pseudomma truncatum", "sprite": "sp-american_lobster.png", "group": "crab_lobster", "rarity": 1}, {"lat": 63.3259, "lng": -7.0687, "id": "137172", "name": "Stercorarius parasiticus", "sprite": "sp-anchoviella_juruasanga.png", "group": "other", "rarity": 1}, {"lat": 63.4133, "lng": -6.57, "id": "109603", "name": "Dinophysis acuminata", "sprite": "sp-anchoviella_juruasanga.png", "group": "other", "rarity": 1}, {"lat": 63.6467, "lng": -7.6533, "id": "1102", "name": "Harpacticoida", "sprite": "sp-anchoviella_juruasanga.png", "group": "other", "rarity": 1}, {"lat": 63.4338, "lng": -6.8477, "id": "137195", "name": "Fulmarus glacialis", "sprite": "sp-anchoviella_juruasanga.png", "group": "other", "rarity": 1}, {"lat": 63.3311, "lng": -6.8275, "id": "137156", "name": "Rissa tridactyla", "sprite": "sp-anchoviella_juruasanga.png", "group": "other", "rarity": 1}, {"lat": 63.3893, "lng": -8.157, "id": "103117", "name": "Metopa boeckii", "sprite": "sp-american_lobster.png", "group": "crab_lobster", "rarity": 1}, {"lat": 63.6, "lng": -7.5, "id": "228195", "name": "Symplocostoma dubium", "sprite": "sp-anchoviella_juruasanga.png", "group": "other", "rarity": 1}, {"lat": 63.325, "lng": -6.3333, "id": "149342", "name": "Licmophora", "sprite": "sp-anchoviella_juruasanga.png", "group": "other", "rarity": 1}, {"lat": 63.5381, "lng": -7.8889, "id": "118744", "name": "Macrostylis longipes", "sprite": "sp-american_lobster.png", "group": "crab_lobster", "rarity": 1}, {"lat": 63.6239, "lng": -7.7658, "id": "118549", "name": "Eugerda arctica", "sprite": "sp-american_lobster.png", "group": "crab_lobster", "rarity": 1}, {"lat": 63.4833, "lng": -6.9833, "id": "147431", "name": "Arenaria interpres", "sprite": "sp-anchoviella_juruasanga.png", "group": "other", "rarity": 1}, {"lat": 63.3573, "lng": -6.9579, "id": "104878", "name": "Temora longicornis", "sprite": "sp-anchoviella_juruasanga.png", "group": "other", "rarity": 1}, {"lat": 63.1, "lng": -6.3333, "id": "109549", "name": "Peridinium", "sprite": "sp-anchoviella_juruasanga.png", "group": "other", "rarity": 1}, {"lat": 63.1, "lng": -7.4167, "id": "115656", "name": "Mesocletodes duosetosus", "sprite": "sp-anchoviella_juruasanga.png", "group": "other", "rarity": 1}, {"lat": 63.3893, "lng": -8.157, "id": "101897", "name": "Ampelisca eschrichtii", "sprite": "sp-american_lobster.png", "group": "crab_lobster", "rarity": 1}, {"lat": 63.3893, "lng": -8.157, "id": "101364", "name": "Ampeliscidae", "sprite": "sp-american_lobster.png", "group": "crab_lobster", "rarity": 1}, {"lat": 63.91, "lng": -6.4, "id": "140526", "name": "Cryptonatica bathybii", "sprite": "sp-cowrie_shell.png", "group": "sea_snail", "rarity": 1}, {"lat": 63.025, "lng": -6.588, "id": "110593", "name": "Petalosarsia declivis", "sprite": "sp-american_lobster.png", "group": "crab_lobster", "rarity": 1}, {"lat": 63.3893, "lng": -8.157, "id": "101394", "name": "Liljeborgiidae", "sprite": "sp-american_lobster.png", "group": "crab_lobster", "rarity": 1}, {"lat": 63.1, "lng": -6.3333, "id": "156690", "name": "Thalassiosira baltica", "sprite": "sp-anchoviella_juruasanga.png", "group": "other", "rarity": 1}, {"lat": 63.3893, "lng": -8.157, "id": "101978", "name": "Gitanopsis arctica", "sprite": "sp-american_lobster.png", "group": "crab_lobster", "rarity": 1}, {"lat": 63.3998, "lng": -8.172, "id": "118756", "name": "Munna hanseni", "sprite": "sp-american_lobster.png", "group": "crab_lobster", "rarity": 1}, {"lat": 63.8833, "lng": -6.3667, "id": "153097", "name": "Gonatus fabricii", "sprite": "sp-giant_pacific_octopus.png", "group": "octopus_squid", "rarity": 1}, {"lat": 63.0975, "lng": -7.3082, "id": "148955", "name": "Asterionella glacialis", "sprite": "sp-anchoviella_juruasanga.png", "group": "other", "rarity": 1}, {"lat": 63.095, "lng": -8.283, "id": "148912", "name": "Thalassiosira", "sprite": "sp-anchoviella_juruasanga.png", "group": "other", "rarity": 1}, {"lat": 63.5381, "lng": -7.8889, "id": "156090", "name": "Eurycope inermis", "sprite": "sp-american_lobster.png", "group": "crab_lobster", "rarity": 1}, {"lat": 64.07, "lng": -8.035, "id": "135209", "name": "Madrepora oculata", "sprite": "sp-actiniidae.png", "group": "coral", "rarity": 1}, {"lat": 63.5725, "lng": -7.6665, "id": "841260", "name": "Tripos macroceros", "sprite": "sp-anchoviella_juruasanga.png", "group": "other", "rarity": 1}, {"lat": 63.708, "lng": -6.059, "id": "137146", "name": "Larus marinus", "sprite": "sp-anchoviella_juruasanga.png", "group": "other", "rarity": 1}, {"lat": 63.4333, "lng": -7.9333, "id": "102213", "name": "Haliragoides inermis", "sprite": "sp-american_lobster.png", "group": "crab_lobster", "rarity": 1}, {"lat": 63.2836, "lng": -6.4393, "id": "137165", "name": "Sterna paradisaea", "sprite": "sp-anchoviella_juruasanga.png", "group": "other", "rarity": 1}, {"lat": 63.3893, "lng": -8.157, "id": "101972", "name": "Amphilochus tenuimanus", "sprite": "sp-american_lobster.png", "group": "crab_lobster", "rarity": 1}, {"lat": 63.5225, "lng": -6.1503, "id": "343899", "name": "Hyperoodon ampullatus", "sprite": "sp-blue_whale.png", "group": "whale", "rarity": 1}, {"lat": 63.3893, "lng": -8.157, "id": "101368", "name": "Aoridae", "sprite": "sp-american_lobster.png", "group": "crab_lobster", "rarity": 1}, {"lat": 63.736, "lng": -7.1861, "id": "104499", "name": "Centropages typicus", "sprite": "sp-anchoviella_juruasanga.png", "group": "other", "rarity": 1}, {"lat": 63.3893, "lng": -8.157, "id": "101403", "name": "Phoxocephalidae", "sprite": "sp-american_lobster.png", "group": "crab_lobster", "rarity": 1}, {"lat": 63.3998, "lng": -8.172, "id": "118741", "name": "Katianira bilobata", "sprite": "sp-american_lobster.png", "group": "crab_lobster", "rarity": 1}, {"lat": 63.4304, "lng": -6.698, "id": "841259", "name": "Tripos longipes", "sprite": "sp-anchoviella_juruasanga.png", "group": "other", "rarity": 1}, {"lat": 63.3286, "lng": -6.9429, "id": "110041", "name": "Gonyaulax spinifera", "sprite": "sp-anchoviella_juruasanga.png", "group": "other", "rarity": 1}, {"lat": 63.45, "lng": -6.133, "id": "113474", "name": "Neogloboquadrina incompta", "sprite": "sp-anchoviella_juruasanga.png", "group": "other", "rarity": 1}, {"lat": 63.91, "lng": -6.4, "id": "138985", "name": "Torellia delicata", "sprite": "sp-cowrie_shell.png", "group": "sea_snail", "rarity": 1}, {"lat": 63.3911, "lng": -8.1595, "id": "1470813", "name": "Spectrarcturus murdochi", "sprite": "sp-american_lobster.png", "group": "crab_lobster", "rarity": 1}, {"lat": 63.5166, "lng": -7.7167, "id": "820374", "name": "Pseudotanais affinis", "sprite": "sp-american_lobster.png", "group": "crab_lobster", "rarity": 1}, {"lat": 63.5906, "lng": -7.729, "id": "118539", "name": "Desmosoma lineare", "sprite": "sp-american_lobster.png", "group": "crab_lobster", "rarity": 1}, {"lat": 63.4947, "lng": -7.8285, "id": "101945", "name": "Byblis minuticornis", "sprite": "sp-american_lobster.png", "group": "crab_lobster", "rarity": 1}, {"lat": 63.095, "lng": -8.283, "id": "841248", "name": "Tripos hexacanthus", "sprite": "sp-anchoviella_juruasanga.png", "group": "other", "rarity": 1}, {"lat": 63.095, "lng": -8.283, "id": "106267", "name": "Evadne", "sprite": "sp-anchoviella_juruasanga.png", "group": "other", "rarity": 1}, {"lat": 63.6723, "lng": -7.388, "id": "13703", "name": "Thecosomata", "sprite": "sp-cowrie_shell.png", "group": "sea_snail", "rarity": 1}, {"lat": 63.3893, "lng": -8.157, "id": "248352", "name": "Unciolidae", "sprite": "sp-american_lobster.png", "group": "crab_lobster", "rarity": 1}, {"lat": 63.4198, "lng": -6.6467, "id": "104467", "name": "Calanus hyperboreus", "sprite": "sp-anchoviella_juruasanga.png", "group": "other", "rarity": 1}, {"lat": 63.1972, "lng": -6.7278, "id": "148922", "name": "Thalassiosira eccentrica", "sprite": "sp-anchoviella_juruasanga.png", "group": "other", "rarity": 1}, {"lat": 63.1, "lng": -6.3333, "id": "162810", "name": "Actinocyclus senarius", "sprite": "sp-anchoviella_juruasanga.png", "group": "other", "rarity": 1}, {"lat": 63.6239, "lng": -7.7658, "id": "118616", "name": "Eurycope dahli", "sprite": "sp-american_lobster.png", "group": "crab_lobster", "rarity": 1}, {"lat": 63.67, "lng": -8.33, "id": "137090", "name": "Balaenoptera musculus", "sprite": "sp-blue_whale.png", "group": "whale", "rarity": 1}, {"lat": 63.5513, "lng": -6.5426, "id": "110217", "name": "Protoperidinium depressum", "sprite": "sp-anchoviella_juruasanga.png", "group": "other", "rarity": 1}, {"lat": 63.4709, "lng": -6.6192, "id": "106656", "name": "Oithona similis", "sprite": "sp-anchoviella_juruasanga.png", "group": "other", "rarity": 1}, {"lat": 63.365, "lng": -6.76, "id": "103259", "name": "Themisto abyssorum", "sprite": "sp-american_lobster.png", "group": "crab_lobster", "rarity": 1}, {"lat": 63.6239, "lng": -7.7658, "id": "255696", "name": "Mirabilicoxa cornuta", "sprite": "sp-american_lobster.png", "group": "crab_lobster", "rarity": 1}, {"lat": 63.3893, "lng": -8.157, "id": "716535", "name": "Corophioidea", "sprite": "sp-american_lobster.png", "group": "crab_lobster", "rarity": 1}, {"lat": 63.6072, "lng": -7.7474, "id": "118685", "name": "Haplomesus quadrispinosus", "sprite": "sp-american_lobster.png", "group": "crab_lobster", "rarity": 1}, {"lat": 63.0284, "lng": -7.0019, "id": "110510", "name": "Hemilamprops assimilis", "sprite": "sp-american_lobster.png", "group": "crab_lobster", "rarity": 1}, {"lat": 63.6, "lng": -7.5, "id": "110486", "name": "Diastylis polaris", "sprite": "sp-american_lobster.png", "group": "crab_lobster", "rarity": 1}, {"lat": 63.351, "lng": -7.7878, "id": "838749", "sprite": "sp-anchoviella_juruasanga.png", "group": "other", "rarity": 1}, {"lat": 63.4583, "lng": -7.4417, "id": "103105", "name": "Stegocephalus inflatus", "sprite": "sp-american_lobster.png", "group": "crab_lobster", "rarity": 1}, {"lat": 63.3792, "lng": -6.6292, "id": "149158", "name": "Coscinodiscus radiatus", "sprite": "sp-anchoviella_juruasanga.png", "group": "other", "rarity": 1}, {"lat": 63.5381, "lng": -7.8889, "id": "183209", "name": "Ilyarachna dubia", "sprite": "sp-american_lobster.png", "group": "crab_lobster", "rarity": 1}, {"lat": 63.4183, "lng": -6.0348, "id": "137142", "name": "Larus fuscus", "sprite": "sp-anchoviella_juruasanga.png", "group": "other", "rarity": 1}, {"lat": 63.1, "lng": -6.3333, "id": "163042", "name": "Syndendrium diadema", "sprite": "sp-anchoviella_juruasanga.png", "group": "other", "rarity": 1}, {"lat": 63.3893, "lng": -8.157, "id": "101369", "name": "Argissidae", "sprite": "sp-american_lobster.png", "group": "crab_lobster", "rarity": 1}, {"lat": 63.3116, "lng": -6.8076, "id": "137174", "name": "Stercorarius skua", "sprite": "sp-anchoviella_juruasanga.png", "group": "other", "rarity": 1}, {"lat": 63.3893, "lng": -8.157, "id": "101401", "name": "Pardaliscidae", "sprite": "sp-american_lobster.png", "group": "crab_lobster", "rarity": 1}, {"lat": 63.4833, "lng": -7.2334, "id": "1599632", "name": "Starkus mixtus", "sprite": "sp-american_lobster.png", "group": "crab_lobster", "rarity": 1}, {"lat": 63.5381, "lng": -7.8889, "id": "118557", "name": "Eugerda reticulata", "sprite": "sp-american_lobster.png", "group": "crab_lobster", "rarity": 1}, {"lat": 63.1964, "lng": -7.0527, "id": "149152", "name": "Pseudo-nitzschia seriata", "sprite": "sp-anchoviella_juruasanga.png", "group": "other", "rarity": 1}, {"lat": 63.079, "lng": -8.044, "id": "146421", "name": "Appendicularia", "sprite": "sp-anchoviella_juruasanga.png", "group": "other", "rarity": 1}, {"lat": 63.0833, "lng": -6.4167, "id": "1571853", "name": "Leucopleurus acutus", "sprite": "sp-bottlenose_dolphin.png", "group": "dolphin", "rarity": 1}, {"lat": 63.45, "lng": -6.133, "id": "113462", "name": "Turborotalita quinqueloba", "sprite": "sp-anchoviella_juruasanga.png", "group": "other", "rarity": 1}, {"lat": 63.5381, "lng": -7.8889, "id": "118751", "name": "Munna acanthifera", "sprite": "sp-american_lobster.png", "group": "crab_lobster", "rarity": 1}, {"lat": 63.6239, "lng": -7.7658, "id": "118688", "name": "Heteromesus frigidus", "sprite": "sp-american_lobster.png", "group": "crab_lobster", "rarity": 1}, {"lat": 63.2561, "lng": -6.5824, "id": "156607", "name": "Chaetoceros concavicornis", "sprite": "sp-anchoviella_juruasanga.png", "group": "other", "rarity": 1}, {"lat": 63.1, "lng": -6.45, "id": "293086", "name": "Eurycletodes (Oligocletodes) monardi", "sprite": "sp-anchoviella_juruasanga.png", "group": "other", "rarity": 1}, {"lat": 63.3893, "lng": -8.157, "id": "101362", "name": "Acanthonotozomatidae", "sprite": "sp-american_lobster.png", "group": "crab_lobster", "rarity": 1}, {"lat": 63.6, "lng": -7.5, "id": "122225", "name": "Rhabdodemania laticauda", "sprite": "sp-anchoviella_juruasanga.png", "group": "other", "rarity": 1}, {"lat": 63.225, "lng": -7.05, "id": "102181", "name": "Cleippides quadricuspis", "sprite": "sp-american_lobster.png", "group": "crab_lobster", "rarity": 1}, {"lat": 63.0284, "lng": -7.0019, "id": "110511", "name": "Hemilamprops cristatus", "sprite": "sp-american_lobster.png", "group": "crab_lobster", "rarity": 1}, {"lat": 63.4333, "lng": -7.9333, "id": "102067", "name": "Astyra abyssi", "sprite": "sp-american_lobster.png", "group": "crab_lobster", "rarity": 1}, {"lat": 63.3667, "lng": -6.9667, "id": "127116", "name": "Scalebelly eelpout", "thumb": "tn_Lysqu_u0.jpg", "sprite": "sp-anchoviella_juruasanga.png", "group": "other", "rarity": 1, "waterType": "Saltwater"}, {"lat": 63.5244, "lng": -6.6711, "id": "109604", "name": "Dinophysis acuta", "sprite": "sp-anchoviella_juruasanga.png", "group": "other", "rarity": 1}, {"lat": 63.0833, "lng": -6.2666, "id": "116202", "name": "Metahuntemannia triarticulata", "sprite": "sp-anchoviella_juruasanga.png", "group": "other", "rarity": 1}, {"lat": 63.1617, "lng": -6.835, "id": "137088", "name": "Balaenoptera borealis", "sprite": "sp-blue_whale.png", "group": "whale", "rarity": 1}, {"lat": 63.25, "lng": -6.08, "id": "137092", "name": "Megaptera novaeangliae", "sprite": "sp-blue_whale.png", "group": "whale", "rarity": 1}, {"lat": 63.1667, "lng": -7.5167, "id": "149159", "name": "Coscinodiscus centralis", "sprite": "sp-anchoviella_juruasanga.png", "group": "other", "rarity": 1}, {"lat": 63.1, "lng": -6.3333, "id": "232598", "name": "Pyrophacus horologium", "sprite": "sp-anchoviella_juruasanga.png", "group": "other", "rarity": 1}, {"lat": 63.3998, "lng": -8.172, "id": "118757", "name": "Munna kroyeri", "sprite": "sp-american_lobster.png", "group": "crab_lobster", "rarity": 1}, {"lat": 63.3893, "lng": -8.157, "id": "176788", "name": "Lysianassoidea", "sprite": "sp-american_lobster.png", "group": "crab_lobster", "rarity": 1}, {"lat": 63.81, "lng": -7.01, "id": "119949", "name": "Amblyopsoides ohlinii", "sprite": "sp-american_lobster.png", "group": "crab_lobster", "rarity": 1}, {"lat": 63.45, "lng": -6.133, "id": "113460", "name": "Orbulina universa", "sprite": "sp-anchoviella_juruasanga.png", "group": "other", "rarity": 1}, {"lat": 63.91, "lng": -6.4, "id": "138915", "name": "Mohnia danielsseni", "sprite": "sp-cowrie_shell.png", "group": "sea_snail", "rarity": 1}, {"lat": 63.2833, "lng": -6.825, "id": "115858", "name": "Paranannopus trisetosus", "sprite": "sp-anchoviella_juruasanga.png", "group": "other", "rarity": 1}, {"lat": 63.1, "lng": -6.3333, "id": "293496", "name": "Teleostei", "sprite": "sp-anchoviella_juruasanga.png", "group": "other", "rarity": 1}, {"lat": 63.9167, "lng": -7.0, "id": "139553", "name": "Diaphana hiemalis", "sprite": "sp-cowrie_shell.png", "group": "sea_snail", "rarity": 1}, {"lat": 63.1132, "lng": -7.0079, "id": "137173", "name": "Stercorarius pomarinus", "sprite": "sp-anchoviella_juruasanga.png", "group": "other", "rarity": 1}, {"lat": 63.91, "lng": -6.4, "id": "423708", "name": "Punctulum wyvillethomsoni", "sprite": "sp-cowrie_shell.png", "group": "sea_snail", "rarity": 1}, {"lat": 63.5906, "lng": -7.729, "id": "183155", "name": "Eurycope sandersi", "sprite": "sp-american_lobster.png", "group": "crab_lobster", "rarity": 1}, {"lat": 63.2605, "lng": -6.5275, "id": "137133", "name": "Uria aalge", "sprite": "sp-anchoviella_juruasanga.png", "group": "other", "rarity": 1}, {"lat": 63.3893, "lng": -8.157, "id": "101974", "name": "Gitana abyssicola", "sprite": "sp-american_lobster.png", "group": "crab_lobster", "rarity": 1}, {"lat": 63.4952, "lng": -7.9505, "id": "295715", "name": "Desmosoma latipes", "sprite": "sp-american_lobster.png", "group": "crab_lobster", "rarity": 1}, {"lat": 63.095, "lng": -8.283, "id": "157083", "name": "Thalassiothrix longissima", "sprite": "sp-anchoviella_juruasanga.png", "group": "other", "rarity": 1}, {"lat": 63.4833, "lng": -6.5333, "id": "115850", "name": "Paranannopus hicksi", "sprite": "sp-anchoviella_juruasanga.png", "group": "other", "rarity": 1}, {"lat": 63.91, "lng": -6.4, "id": "160242", "name": "Curtitoma ovalis", "sprite": "sp-cowrie_shell.png", "group": "sea_snail", "rarity": 1}, {"lat": 63.1, "lng": -6.3333, "id": "135047", "name": "Synchaeta baltica", "sprite": "sp-anchoviella_juruasanga.png", "group": "other", "rarity": 1}, {"lat": 63.1661, "lng": -7.7634, "id": "1130", "name": "Decapoda", "sprite": "sp-american_lobster.png", "group": "crab_lobster", "rarity": 1}, {"lat": 63.1333, "lng": -6.925, "id": "149219", "name": "Chaetoceros debilis", "sprite": "sp-anchoviella_juruasanga.png", "group": "other", "rarity": 1}, {"lat": 63.2938, "lng": -6.7771, "id": "110708", "name": "Thysanoessa inermis", "sprite": "sp-antarctic_krill.png", "group": "shrimp", "rarity": 1}, {"lat": 63.3488, "lng": -6.3043, "id": "137189", "name": "Hydrobates pelagicus", "sprite": "sp-anchoviella_juruasanga.png", "group": "other", "rarity": 1}, {"lat": 63.3998, "lng": -8.172, "id": "118770", "name": "Munnopsis typica", "sprite": "sp-american_lobster.png", "group": "crab_lobster", "rarity": 1}, {"lat": 63.5596, "lng": -7.8582, "id": "118615", "name": "Eurycope cornuta", "sprite": "sp-american_lobster.png", "group": "crab_lobster", "rarity": 1}, {"lat": 63.3893, "lng": -8.157, "id": "101410", "name": "Synopiidae", "sprite": "sp-american_lobster.png", "group": "crab_lobster", "rarity": 1}]}