{"zoom": 7, "x": 61, "y": 46, "points": [{"lat": 44.2171, "lng": -8.2933, "id": "104499", "name": "Centropages typicus", "sprite": "sp-anchoviella_juruasanga.png", "group": "other", "rarity": 1}, {"lat": 43.422, "lng": -8.437, "id": "116162", "name": "Euterpina acutifrons", "sprite": "sp-anchoviella_juruasanga.png", "group": "other", "rarity": 1}, {"lat": 44.0008, "lng": -7.441, "id": "132294", "name": "Levinella thalassae", "sprite": "sp-barrel_sponge.png", "group": "sponge", "rarity": 1}, {"lat": 43.7, "lng": -6.15, "id": "110041", "name": "Gonyaulax spinifera", "sprite": "sp-anchoviella_juruasanga.png", "group": "other", "rarity": 1}, {"lat": 43.422, "lng": -8.437, "id": "146230", "name": "Chrysophyceae", "sprite": "sp-anchoviella_juruasanga.png", "group": "other", "rarity": 1}, {"lat": 44.3678, "lng": -6.7057, "id": "137094", "name": "Delphinus delphis", "sprite": "sp-bottlenose_dolphin.png", "group": "dolphin", "rarity": 1}, {"lat": 44.8024, "lng": -8.207, "id": "106267", "name": "Evadne", "sprite": "sp-anchoviella_juruasanga.png", "group": "other", "rarity": 1}, {"lat": 43.4808, "lng": -7.6362, "id": "140480", "name": "Mytilus edulis", "sprite": "sp-blue_mussel.png", "group": "clam_mussel", "rarity": 1}, {"lat": 44.0, "lng": -6.0, "id": "124898", "name": "Ophiophycis mirabilis", "sprite": "sp-sea_cucumber.png", "group": "starfish", "rarity": 1}, {"lat": 44.6035, "lng": -7.9276, "id": "841259", "name": "Tripos longipes", "sprite": "sp-anchoviella_juruasanga.png", "group": "other", "rarity": 1}, {"lat": 44.785, "lng": -8.1759, "id": "841248", "name": "Tripos hexacanthus", "sprite": "sp-anchoviella_juruasanga.png", "group": "other", "rarity": 1}, {"lat": 43.4767, "lng": -7.0126, "id": "118474", "name": "Cyathura carinata", "sprite": "sp-american_lobster.png", "group": "crab_lobster", "rarity": 1}, {"lat": 43.45, "lng": -8.3, "id": "2381", "name": "Aegialoalaimus", "sprite": "sp-anchoviella_juruasanga.png", "group": "other", "rarity": 1}, {"lat": 43.422, "lng": -8.437, "id": "582421", "name": "Radiozoa", "sprite": "sp-anchoviella_juruasanga.png", "group": "other", "rarity": 1}, {"lat": 43.516, "lng": -7.0293, "id": "103066", "name": "Bathyporeia pelagica", "sprite": "sp-american_lobster.png", "group": "crab_lobster", "rarity": 1}, {"lat": 44.841, "lng": -8.2255, "id": "837460", "name": "Tripos extensus", "sprite": "sp-anchoviella_juruasanga.png", "group": "other", "rarity": 1}, {"lat": 43.422, "lng": -8.437, "id": "118437", "name": "Gnathia", "sprite": "sp-american_lobster.png", "group": "crab_lobster", "rarity": 1}, {"lat": 44.0252, "lng": -5.715, "id": "1311285", "name": "Pleurocorallium occultum", "sprite": "sp-actiniidae.png", "group": "coral", "rarity": 1}, {"lat": 43.7, "lng": -6.15, "id": "837456", "name": "Tripos kofoidii", "sprite": "sp-anchoviella_juruasanga.png", "group": "other", "rarity": 1}, {"lat": 44.05, "lng": -7.017, "id": "107374", "name": "Geryon trispinosus", "sprite": "sp-american_lobster.png", "group": "crab_lobster", "rarity": 1}, {"lat": 43.5951, "lng": -6.5462, "id": "143985", "name": "Ralfsia", "sprite": "sp-anchoviella_juruasanga.png", "group": "other", "rarity": 1}, {"lat": 44.0, "lng": -8.0, "id": "183354", "name": "Polycarpa beuziti", "sprite": "sp-anchoviella_juruasanga.png", "group": "other", "rarity": 1}, {"lat": 43.422, "lng": -8.437, "id": "232625", "name": "Podolampas palmipes", "sprite": "sp-anchoviella_juruasanga.png", "group": "other", "rarity": 1}, {"lat": 43.6508, "lng": -5.8, "id": "136334", "name": "Neotanais hastiger", "sprite": "sp-american_lobster.png", "group": "crab_lobster", "rarity": 1}, {"lat": 44.7658, "lng": -5.7582, "id": "137209", "name": "Dermochelys coriacea", "sprite": "sp-green_sea_turtle.png", "group": "sea_turtle", "rarity": 1}, {"lat": 43.5484, "lng": -7.3975, "id": "163249", "name": "Hemiaulus hauckii", "sprite": "sp-anchoviella_juruasanga.png", "group": "other", "rarity": 1}, {"lat": 43.422, "lng": -8.437, "id": "109890", "name": "Torodinium teredo", "sprite": "sp-anchoviella_juruasanga.png", "group": "other", "rarity": 1}, {"lat": 43.5365, "lng": -8.1606, "id": "841263", "name": "Tripos minutus", "sprite": "sp-anchoviella_juruasanga.png", "group": "other", "rarity": 1}, {"lat": 43.422, "lng": -8.437, "id": "115509", "name": "Aegisthus mucronatus", "sprite": "sp-anchoviella_juruasanga.png", "group": "other", "rarity": 1}, {"lat": 43.6, "lng": -8.3, "id": "2593", "name": "Trefusia", "sprite": "sp-anchoviella_juruasanga.png", "group": "other", "rarity": 1}, {"lat": 44.5778, "lng": -8.2561, "id": "1078", "name": "Ostracoda", "sprite": "sp-anchoviella_juruasanga.png", "group": "other", "rarity": 1}, {"lat": 43.25, "lng": -6.46, "id": "107709", "name": "Scyllarus arctus", "sprite": "sp-american_lobster.png", "group": "crab_lobster", "rarity": 1}, {"lat": 43.706, "lng": -8.255, "id": "126461", "name": "Ling", "thumb": "tn_Gabis_u0.jpg", "sprite": "sp-anchoviella_juruasanga.png", "group": "other", "rarity": 1, "waterType": "Saltwater"}, {"lat": 43.52, "lng": -7.025, "id": "140533", "name": "Euspira montagui", "sprite": "sp-cowrie_shell.png", "group": "sea_snail", "rarity": 1}, {"lat": 43.422, "lng": -8.437, "id": "1267", "name": "Cnidaria", "sprite": "sp-anchoviella_juruasanga.png", "group": "other", "rarity": 1}, {"lat": 43.8072, "lng": -6.3974, "id": "135085", "name": "Caryophyllia", "sprite": "sp-actiniidae.png", "group": "coral", "rarity": 1}, {"lat": 43.42, "lng": -7.19, "id": "117899", "name": "Sertularella ellisii", "sprite": "sp-anchoviella_juruasanga.png", "group": "other", "rarity": 1}, {"lat": 44.1667, "lng": -7.7667, "id": "125355", "name": "Metallogorgia melanotrichos", "sprite": "sp-actiniidae.png", "group": "coral", "rarity": 1}, {"lat": 43.6, "lng": -8.3, "id": "2297", "name": "Dichromadora", "sprite": "sp-anchoviella_juruasanga.png", "group": "other", "rarity": 1}, {"lat": 44.8564, "lng": -8.2737, "id": "842517", "name": "Tripos trichoceros", "sprite": "sp-anchoviella_juruasanga.png", "group": "other", "rarity": 1}, {"lat": 44.0, "lng": -8.0, "id": "137090", "name": "Balaenoptera musculus", "sprite": "sp-blue_whale.png", "group": "whale", "rarity": 1}, {"lat": 43.5797, "lng": -7.1399, "id": "110217", "name": "Protoperidinium depressum", "sprite": "sp-anchoviella_juruasanga.png", "group": "other", "rarity": 1}, {"lat": 43.4711, "lng": -8.0334, "id": "985165", "name": "Rhizosolenia fragilissima f. fragilissima", "sprite": "sp-anchoviella_juruasanga.png", "group": "other", "rarity": 1}, {"lat": 43.422, "lng": -8.437, "id": "119780", "name": "Monstrilla", "sprite": "sp-anchoviella_juruasanga.png", "group": "other", "rarity": 1}, {"lat": 43.7838, "lng": -7.0156, "id": "132005", "name": "Geodia", "sprite": "sp-barrel_sponge.png", "group": "sponge", "rarity": 1}, {"lat": 44.0, "lng": -7.6667, "id": "124237", "name": "Neocomatella europaea", "sprite": "sp-sea_cucumber.png", "group": "starfish", "rarity": 1}, {"lat": 43.422, "lng": -8.437, "id": "106656", "name": "Oithona similis", "sprite": "sp-anchoviella_juruasanga.png", "group": "other", "rarity": 1}, {"lat": 43.422, "lng": -8.437, "id": "234125", "name": "Acartia (Acartiura) discaudata", "sprite": "sp-anchoviella_juruasanga.png", "group": "other", "rarity": 1}, {"lat": 43.422, "lng": -8.437, "id": "1839", "name": "Ascidiacea", "sprite": "sp-anchoviella_juruasanga.png", "group": "other", "rarity": 1}, {"lat": 43.4689, "lng": -8.3108, "id": "144440", "name": "Bonnemaisonia asparagoides", "sprite": "sp-anchoviella_juruasanga.png", "group": "other", "rarity": 1}, {"lat": 43.422, "lng": -8.437, "id": "107190", "name": "Porcellana platycheles", "sprite": "sp-american_lobster.png", "group": "crab_lobster", "rarity": 1}, {"lat": 43.525, "lng": -8.3, "id": "2570", "name": "Viscosia", "sprite": "sp-anchoviella_juruasanga.png", "group": "other", "rarity": 1}, {"lat": 43.5622, "lng": -7.1475, "id": "145092", "name": "Codium tomentosum", "sprite": "sp-anchoviella_juruasanga.png", "group": "other", "rarity": 1}, {"lat": 43.7, "lng": -6.15, "id": "109921", "name": "Noctiluca scintillans", "sprite": "sp-anchoviella_juruasanga.png", "group": "other", "rarity": 1}, {"lat": 43.4959, "lng": -7.0268, "id": "147032", "name": "Nebalia bipes", "sprite": "sp-american_lobster.png", "group": "crab_lobster", "rarity": 1}, {"lat": 43.461, "lng": -8.2976, "id": "145783", "name": "Plocamium raphelisianum", "sprite": "sp-anchoviella_juruasanga.png", "group": "other", "rarity": 1}, {"lat": 43.6691, "lng": -6.4041, "id": "978142", "name": "Pyxidicula compressa var. compressa", "sprite": "sp-anchoviella_juruasanga.png", "group": "other", "rarity": 1}, {"lat": 43.5713, "lng": -6.939, "id": "144737", "name": "Apoglossum ruscifolium", "sprite": "sp-anchoviella_juruasanga.png", "group": "other", "rarity": 1}, {"lat": 43.7, "lng": -6.15, "id": "148925", "name": "Thalassiosira minima", "sprite": "sp-anchoviella_juruasanga.png", "group": "other", "rarity": 1}, {"lat": 43.422, "lng": -8.437, "id": "237966", "name": "Calocalanus tenuis", "sprite": "sp-anchoviella_juruasanga.png", "group": "other", "rarity": 1}, {"lat": 43.5944, "lng": -6.9686, "id": "137142", "name": "Larus fuscus", "sprite": "sp-anchoviella_juruasanga.png", "group": "other", "rarity": 1}, {"lat": 44.6211, "lng": -7.917, "id": "837222", "name": "Tripos gibberus", "sprite": "sp-anchoviella_juruasanga.png", "group": "other", "rarity": 1}, {"lat": 43.3, "lng": -8.4, "id": "283798", "name": "Cerianthus lloydii", "sprite": "sp-actiniidae.png", "group": "coral", "rarity": 1}, {"lat": 43.9137, "lng": -8.3195, "id": "128634", "name": "Corycaeus", "sprite": "sp-anchoviella_juruasanga.png", "group": "other", "rarity": 1}, {"lat": 43.422, "lng": -8.437, "id": "128819", "name": "Onychocorycaeus ovalis", "sprite": "sp-anchoviella_juruasanga.png", "group": "other", "rarity": 1}, {"lat": 43.4263, "lng": -8.4338, "id": "126421", "name": "European pilchard", "thumb": "tn_Sapil_u6.jpg", "sprite": "sp-anchoviella_juruasanga.png", "group": "other", "rarity": 1, "waterType": "Brackish"}, {"lat": 43.42, "lng": -7.19, "id": "117888", "name": "Dynamena pumila", "sprite": "sp-anchoviella_juruasanga.png", "group": "other", "rarity": 1}, {"lat": 43.5778, "lng": -6.8075, "id": "144296", "name": "Ulva", "sprite": "sp-anchoviella_juruasanga.png", "group": "other", "rarity": 1}, {"lat": 43.422, "lng": -8.437, "id": "163042", "name": "Syndendrium diadema", "sprite": "sp-anchoviella_juruasanga.png", "group": "other", "rarity": 1}, {"lat": 43.422, "lng": -8.437, "id": "104501", "name": "Isias clavipes", "sprite": "sp-anchoviella_juruasanga.png", "group": "other", "rarity": 1}, {"lat": 43.7, "lng": -6.15, "id": "109923", "name": "Spatulodinium pseudonoctiluca", "sprite": "sp-anchoviella_juruasanga.png", "group": "other", "rarity": 1}, {"lat": 43.74, "lng": -6.2, "id": "289519", "name": "Bellonella variabilis", "sprite": "sp-actiniidae.png", "group": "coral", "rarity": 1}, {"lat": 43.6, "lng": -8.3, "id": "2327", "name": "Choanolaimus", "sprite": "sp-anchoviella_juruasanga.png", "group": "other", "rarity": 1}, {"lat": 43.6516, "lng": -7.9575, "id": "445503", "name": "Puffinus mauretanicus", "sprite": "sp-anchoviella_juruasanga.png", "group": "other", "rarity": 1}, {"lat": 43.525, "lng": -8.3, "id": "2334", "name": "Richtersia", "sprite": "sp-anchoviella_juruasanga.png", "group": "other", "rarity": 1}, {"lat": 44.1, "lng": -7.2, "id": "124048", "name": "Nymphaster arenatus", "sprite": "sp-sea_cucumber.png", "group": "starfish", "rarity": 1}, {"lat": 44.0, "lng": -8.0, "id": "183378", "name": "Pseudothyone furnestini", "sprite": "sp-sea_cucumber.png", "group": "starfish", "rarity": 1}, {"lat": 43.4689, "lng": -8.3108, "id": "145049", "name": "Cladophora hutchinsiae", "sprite": "sp-anchoviella_juruasanga.png", "group": "other", "rarity": 1}, {"lat": 43.5403, "lng": -7.0266, "id": "107400", "name": "Portumnus latipes", "sprite": "sp-american_lobster.png", "group": "crab_lobster", "rarity": 1}, {"lat": 43.6, "lng": -8.3, "id": "153208", "name": "Filitonchus", "sprite": "sp-anchoviella_juruasanga.png", "group": "other", "rarity": 1}, {"lat": 43.5197, "lng": -7.8871, "id": "140403", "name": "Nucella lapillus", "sprite": "sp-cowrie_shell.png", "group": "sea_snail", "rarity": 1}, {"lat": 43.7, "lng": -6.15, "id": "148953", "name": "Asterionella", "sprite": "sp-anchoviella_juruasanga.png", "group": "other", "rarity": 1}, {"lat": 43.4336, "lng": -8.3417, "id": "149219", "name": "Chaetoceros debilis", "sprite": "sp-anchoviella_juruasanga.png", "group": "other", "rarity": 1}, {"lat": 43.6305, "lng": -6.7218, "id": "109466", "name": "Phalacroma", "sprite": "sp-anchoviella_juruasanga.png", "group": "other", "rarity": 1}, {"lat": 43.6, "lng": -8.3, "id": "153218", "name": "Paramesonchium", "sprite": "sp-anchoviella_juruasanga.png", "group": "other", "rarity": 1}, {"lat": 44.1851, "lng": -7.3654, "id": "137189", "name": "Hydrobates pelagicus", "sprite": "sp-anchoviella_juruasanga.png", "group": "other", "rarity": 1}, {"lat": 43.422, "lng": -8.437, "id": "149668", "name": "Mysida", "sprite": "sp-american_lobster.png", "group": "crab_lobster", "rarity": 1}, {"lat": 43.422, "lng": -8.437, "id": "1135", "name": "Amphipoda", "sprite": "sp-american_lobster.png", "group": "crab_lobster", "rarity": 1}, {"lat": 43.765, "lng": -6.1678, "id": "135157", "name": "Deltocyathus moseleyi", "sprite": "sp-actiniidae.png", "group": "coral", "rarity": 1}, {"lat": 43.46, "lng": -7.28, "id": "117364", "name": "Campanularia hincksii", "sprite": "sp-anchoviella_juruasanga.png", "group": "other", "rarity": 1}, {"lat": 43.89, "lng": -6.4767, "id": "148723", "name": "Odontoceti", "sprite": "sp-anchoviella_juruasanga.png", "group": "other", "rarity": 1}, {"lat": 43.7, "lng": -6.15, "id": "110311", "name": "Prorocentrum rostratum", "sprite": "sp-anchoviella_juruasanga.png", "group": "other", "rarity": 1}, {"lat": 43.422, "lng": -8.437, "id": "231888", "name": "Stephanopyxis palmeriana", "sprite": "sp-anchoviella_juruasanga.png", "group": "other", "rarity": 1}, {"lat": 43.473, "lng": -7.0345, "id": "101891", "name": "Ampelisca brevicornis", "sprite": "sp-american_lobster.png", "group": "crab_lobster", "rarity": 1}, {"lat": 44.0787, "lng": -8.3706, "id": "364368", "name": "Anomalocera patersonii", "sprite": "sp-anchoviella_juruasanga.png", "group": "other", "rarity": 1}, {"lat": 44.6505, "lng": -8.0668, "id": "157083", "name": "Thalassiothrix longissima", "sprite": "sp-anchoviella_juruasanga.png", "group": "other", "rarity": 1}, {"lat": 43.521, "lng": -8.1098, "id": "149074", "name": "Skeletonema costatum", "sprite": "sp-anchoviella_juruasanga.png", "group": "other", "rarity": 1}, {"lat": 43.6967, "lng": -8.3829, "id": "1130", "name": "Decapoda", "sprite": "sp-american_lobster.png", "group": "crab_lobster", "rarity": 1}, {"lat": 43.5089, "lng": -7.7223, "id": "375970", "name": "Octactis octonaria", "sprite": "sp-anchoviella_juruasanga.png", "group": "other", "rarity": 1}, {"lat": 43.422, "lng": -8.437, "id": "495385", "name": "Oltmannsiella lineata", "sprite": "sp-anchoviella_juruasanga.png", "group": "other", "rarity": 1}, {"lat": 43.9423, "lng": -7.4997, "id": "137133", "name": "Uria aalge", "sprite": "sp-anchoviella_juruasanga.png", "group": "other", "rarity": 1}, {"lat": 44.0, "lng": -7.75, "id": "103794", "name": "Molgula platybranchia", "sprite": "sp-anchoviella_juruasanga.png", "group": "other", "rarity": 1}, {"lat": 43.525, "lng": -8.3, "id": "2433", "name": "Sabatieria", "sprite": "sp-anchoviella_juruasanga.png", "group": "other", "rarity": 1}, {"lat": 43.422, "lng": -8.437, "id": "106652", "name": "Oithona plumifera", "sprite": "sp-anchoviella_juruasanga.png", "group": "other", "rarity": 1}, {"lat": 43.7982, "lng": -6.5916, "id": "125312", "name": "Placogorgia", "sprite": "sp-actiniidae.png", "group": "coral", "rarity": 1}, {"lat": 43.75, "lng": -7.7, "id": "145541", "name": "Ascophyllum nodosum", "sprite": "sp-anchoviella_juruasanga.png", "group": "other", "rarity": 1}, {"lat": 44.212, "lng": -8.097, "id": "159040", "name": "Numenius phaeopus", "sprite": "sp-anchoviella_juruasanga.png", "group": "other", "rarity": 1}, {"lat": 44.0, "lng": -6.0, "id": "149880", "name": "Araeosoma fenestratum", "sprite": "sp-sea_cucumber.png", "group": "starfish", "rarity": 1}, {"lat": 44.1, "lng": -6.55, "id": "1048956", "name": "Coronipora austriaca", "sprite": "sp-anchoviella_juruasanga.png", "group": "other", "rarity": 1}, {"lat": 43.4611, "lng": -8.3467, "id": "234476", "name": "Ulva prolifera", "sprite": "sp-anchoviella_juruasanga.png", "group": "other", "rarity": 1}, {"lat": 43.7, "lng": -6.15, "id": "110328", "name": "Pyrocystis fusiformis", "sprite": "sp-anchoviella_juruasanga.png", "group": "other", "rarity": 1}, {"lat": 43.4387, "lng": -8.3, "id": "149122", "name": "Chaetoceros didymus", "sprite": "sp-anchoviella_juruasanga.png", "group": "other", "rarity": 1}, {"lat": 44.747, "lng": -8.1809, "id": "596242", "name": "Pleuromamma abdominalis abdominalis", "sprite": "sp-anchoviella_juruasanga.png", "group": "other", "rarity": 1}, {"lat": 44.1202, "lng": -8.3106, "id": "850801", "name": "Metridia lucens lucens", "sprite": "sp-anchoviella_juruasanga.png", "group": "other", "rarity": 1}, {"lat": 44.0767, "lng": -7.3367, "id": "137202", "name": "Puffinus griseus", "sprite": "sp-anchoviella_juruasanga.png", "group": "other", "rarity": 1}, {"lat": 43.4597, "lng": -8.1268, "id": "163226", "name": "Lauderia pumila", "sprite": "sp-anchoviella_juruasanga.png", "group": "other", "rarity": 1}, {"lat": 44.7491, "lng": -8.2109, "id": "746007", "name": "Pleuromamma robusta robusta", "sprite": "sp-anchoviella_juruasanga.png", "group": "other", "rarity": 1}, {"lat": 43.6702, "lng": -6.395, "id": "8012", "name": "Euglena", "sprite": "sp-anchoviella_juruasanga.png", "group": "other", "rarity": 1}, {"lat": 44.0, "lng": -7.0, "id": "139924", "name": "Fusinus bocagei", "sprite": "sp-cowrie_shell.png", "group": "sea_snail", "rarity": 1}, {"lat": 43.7472, "lng": -7.6542, "id": "145620", "name": "Furcellaria lumbricalis", "sprite": "sp-anchoviella_juruasanga.png", "group": "other", "rarity": 1}]}