{"zoom": 7, "x": 61, "y": 51, "points": [{"lat": 34.0, "lng": -7.0, "id": "126328", "name": "Kaup's arrowtooth eel", "thumb": "tn_Sykau_u2.jpg", "sprite": "sp-electric_eel.png", "group": "eel", "rarity": 1, "waterType": "Saltwater"}, {"lat": 32.2, "lng": -6.6, "id": "275510", "name": "Bermuda anchovy", "thumb": "tn_Ancho_u0.gif", "sprite": "sp-anchoviella_juruasanga.png", "group": "anchovy", "rarity": 1, "waterType": "Saltwater"}, {"lat": 33.65, "lng": -7.5831, "id": "127058", "name": "Red pandora", "thumb": "tn_Pabel_u2.jpg", "sprite": "sp-anchoviella_juruasanga.png", "group": "other", "rarity": 1, "waterType": "Saltwater"}, {"lat": 34.0, "lng": -8.1667, "id": "257507", "name": "Aspidophryxus frontalis", "sprite": "sp-american_lobster.png", "group": "crab_lobster", "rarity": 1}, {"lat": 34.0, "lng": -7.0, "id": "181600", "name": "Alticuma carinatum", "sprite": "sp-american_lobster.png", "group": "crab_lobster", "rarity": 1}, {"lat": 32.0512, "lng": -7.4108, "id": "1461007", "name": "Otala tingitana", "sprite": "sp-cowrie_shell.png", "group": "sea_snail", "rarity": 1}, {"lat": 33.62, "lng": -7.55, "id": "120215", "name": "Siriella norvegica", "sprite": "sp-american_lobster.png", "group": "crab_lobster", "rarity": 1}, {"lat": 34.0, "lng": -7.0, "id": "136054", "name": "Nephasoma (Nephasoma) constricticervix", "sprite": "sp-anchoviella_juruasanga.png", "group": "other", "rarity": 1}, {"lat": 34.0, "lng": -7.0, "id": "103330", "name": "Stichopathes abyssicola", "sprite": "sp-actiniidae.png", "group": "coral", "rarity": 1}, {"lat": 34.0833, "lng": -6.8333, "id": "388682", "name": "Bathyporeia elkaimi", "sprite": "sp-american_lobster.png", "group": "crab_lobster", "rarity": 1}, {"lat": 33.7331, "lng": -7.35, "id": "126908", "name": "Mauligobius maderensis", "thumb": "tn_Mamad_u1.jpg", "sprite": "sp-eviota_bipunctata.png", "group": "goby", "rarity": 1, "waterType": "Saltwater"}, {"lat": 33.8815, "lng": -7.7185, "id": "135166", "name": "Pourtalosmilia anthophyllites", "sprite": "sp-actiniidae.png", "group": "coral", "rarity": 1}, {"lat": 34.0, "lng": -7.0, "id": "134663", "name": "Colossendeis colossea", "sprite": "sp-anchoviella_juruasanga.png", "group": "other", "rarity": 1}, {"lat": 34.0, "lng": -7.0, "id": "110509", "name": "Chalarostylis elegans", "sprite": "sp-american_lobster.png", "group": "crab_lobster", "rarity": 1}, {"lat": 34.0, "lng": -7.0, "id": "128531", "name": "Umbellula lindahli", "sprite": "sp-actiniidae.png", "group": "coral", "rarity": 1}, {"lat": 32.2, "lng": -6.6, "id": "126393", "name": "Common fangtooth", "thumb": "tn_Ancor_u1.jpg", "sprite": "sp-anchoviella_juruasanga.png", "group": "other", "rarity": 1, "waterType": "Saltwater"}, {"lat": 33.65, "lng": -7.5831, "id": "127055", "name": "Sand steenbras", "thumb": "tn_Limor_u3.jpg", "sprite": "sp-anchoviella_juruasanga.png", "group": "other", "rarity": 1, "waterType": "Brackish"}, {"lat": 34.0, "lng": -7.0, "id": "117902", "name": "Sertularella gayi", "sprite": "sp-anchoviella_juruasanga.png", "group": "other", "rarity": 1}, {"lat": 34.0, "lng": -8.0, "id": "314780", "name": "Giant leptocephalus", "sprite": "sp-electric_eel.png", "group": "eel", "rarity": 1, "waterType": "Saltwater"}, {"lat": 34.25, "lng": -7.35, "id": "221512", "name": "Elongated bristlemouth fish", "thumb": "tn_Goelo_u3.jpg", "sprite": "sp-anchoviella_juruasanga.png", "group": "other", "rarity": 1, "waterType": "Saltwater"}, {"lat": 33.9833, "lng": -7.8333, "id": "129575", "name": "Protula", "sprite": "sp-anchoviella_juruasanga.png", "group": "other", "rarity": 1}, {"lat": 34.0, "lng": -7.0, "id": "110539", "name": "Campylaspis alba", "sprite": "sp-american_lobster.png", "group": "crab_lobster", "rarity": 1}, {"lat": 34.0, "lng": -7.0, "id": "182093", "name": "Makrokylindrus (Adiastylis) myriamae", "sprite": "sp-american_lobster.png", "group": "crab_lobster", "rarity": 1}, {"lat": 33.7, "lng": -7.6, "id": "123856", "name": "Astropecten aranciacus", "sprite": "sp-sea_cucumber.png", "group": "starfish", "rarity": 1}, {"lat": 32.2, "lng": -6.6, "id": "277549", "name": "False herring", "thumb": "tn_Haclu_u0.jpg", "sprite": "sp-anchoviella_juruasanga.png", "group": "other", "rarity": 1, "waterType": "Brackish"}, {"lat": 34.0, "lng": -7.0, "id": "110601", "name": "Makrokylindrus (Adiastylis) josephinae", "sprite": "sp-american_lobster.png", "group": "crab_lobster", "rarity": 1}, {"lat": 34.164, "lng": -7.6367, "id": "135197", "name": "Flabellum (Ulocyathus) macandrewi", "sprite": "sp-actiniidae.png", "group": "coral", "rarity": 1}, {"lat": 34.0, "lng": -7.0, "id": "110585", "name": "Procampylaspis lutensis", "sprite": "sp-american_lobster.png", "group": "crab_lobster", "rarity": 1}, {"lat": 34.0, "lng": -7.0, "id": "136055", "name": "Nephasoma (Nephasoma) constrictum", "sprite": "sp-anchoviella_juruasanga.png", "group": "other", "rarity": 1}, {"lat": 34.2556, "lng": -8.0333, "id": "127861", "name": "Proceroecia procera", "sprite": "sp-anchoviella_juruasanga.png", "group": "other", "rarity": 1}, {"lat": 34.25, "lng": -7.35, "id": "105812", "name": "Blackmouth catshark", "thumb": "tn_Gamel_u1.jpg", "sprite": "sp-great_white_shark.png", "group": "shark", "rarity": 1, "waterType": "Saltwater"}, {"lat": 33.0, "lng": -8.0, "id": "110548", "name": "Campylaspis jonesi", "sprite": "sp-american_lobster.png", "group": "crab_lobster", "rarity": 1}, {"lat": 33.6912, "lng": -7.4938, "id": "137142", "name": "Larus fuscus", "sprite": "sp-anchoviella_juruasanga.png", "group": "other", "rarity": 1}, {"lat": 32.2, "lng": -6.6, "id": "126359", "name": "Duckbill barracudina", "thumb": "tn_Maatl_u0.jpg", "sprite": "sp-anchoviella_juruasanga.png", "group": "other", "rarity": 1, "waterType": "Saltwater"}, {"lat": 33.6667, "lng": -7.3333, "id": "136051", "name": "Nephasoma (Nephasoma) abyssorum", "sprite": "sp-anchoviella_juruasanga.png", "group": "other", "rarity": 1}, {"lat": 33.7141, "lng": -7.3993, "id": "22984", "name": "Anabathridae", "sprite": "sp-cowrie_shell.png", "group": "sea_snail", "rarity": 1}, {"lat": 33.5668, "lng": -7.8832, "id": "105887", "name": "Spotted ray", "thumb": "tn_Ramon_u2.jpg", "sprite": "sp-himantura_australis.png", "group": "ray", "rarity": 1, "waterType": "Saltwater"}, {"lat": 34.0, "lng": -7.0, "id": "117971", "name": "Stegolaria geniculata", "sprite": "sp-anchoviella_juruasanga.png", "group": "other", "rarity": 1}, {"lat": 34.2625, "lng": -8.025, "id": "127854", "name": "Porroecia porrecta", "sprite": "sp-anchoviella_juruasanga.png", "group": "other", "rarity": 1}, {"lat": 34.0, "lng": -7.0, "id": "134666", "name": "Colossendeis macerrima", "sprite": "sp-anchoviella_juruasanga.png", "group": "other", "rarity": 1}, {"lat": 34.2583, "lng": -8.03, "id": "127782", "name": "Discoconchoecia elegans", "sprite": "sp-anchoviella_juruasanga.png", "group": "other", "rarity": 1}, {"lat": 34.0, "lng": -7.0, "id": "136083", "name": "Sipunculus (Sipunculus) norvegicus", "sprite": "sp-anchoviella_juruasanga.png", "group": "other", "rarity": 1}, {"lat": 33.8683, "lng": -8.1933, "id": "388026", "name": "Grania mauretanica", "sprite": "sp-anchoviella_juruasanga.png", "group": "other", "rarity": 1}, {"lat": 33.62, "lng": -7.55, "id": "148703", "name": "Haplostylus lobatus", "sprite": "sp-american_lobster.png", "group": "crab_lobster", "rarity": 1}, {"lat": 34.25, "lng": -7.35, "id": "125768", "name": "Lepidion", "sprite": "sp-anchoviella_juruasanga.png", "group": "other", "rarity": 1}, {"lat": 33.9682, "lng": -7.6956, "id": "135163", "name": "Paracyathus pulchellus", "sprite": "sp-actiniidae.png", "group": "coral", "rarity": 1}, {"lat": 33.7887, "lng": -7.6667, "id": "126798", "name": "Phaeton dragonet", "thumb": "tn_Sypha_u0.jpg", "sprite": "sp-anchoviella_juruasanga.png", "group": "other", "rarity": 1, "waterType": "Saltwater"}, {"lat": 33.8217, "lng": -8.3933, "id": "131020", "name": "Metavermilia multicristata", "sprite": "sp-anchoviella_juruasanga.png", "group": "other", "rarity": 1}, {"lat": 33.65, "lng": -7.5831, "id": "127057", "name": "Axillary seabream", "thumb": "tn_Paaca_u0.jpg", "sprite": "sp-anchoviella_juruasanga.png", "group": "other", "rarity": 1, "waterType": "Saltwater"}, {"lat": 33.0, "lng": -8.0, "id": "136059", "name": "Nephasoma (Nephasoma) lilljeborgi", "sprite": "sp-anchoviella_juruasanga.png", "group": "other", "rarity": 1}, {"lat": 34.2417, "lng": -8.05, "id": "127794", "name": "Halocypris inflata", "sprite": "sp-anchoviella_juruasanga.png", "group": "other", "rarity": 1}, {"lat": 34.0, "lng": -7.0, "id": "103326", "name": "Leiopathes glaberrima", "sprite": "sp-actiniidae.png", "group": "coral", "rarity": 1}, {"lat": 33.65, "lng": -7.5831, "id": "127054", "name": "Common two-banded seabream", "thumb": "tn_Divul_u1.jpg", "sprite": "sp-anchoviella_juruasanga.png", "group": "other", "rarity": 1, "waterType": "Saltwater"}, {"lat": 33.503, "lng": -8.416, "id": "397221", "name": "Globocassidulina crassa", "sprite": "sp-anchoviella_juruasanga.png", "group": "other", "rarity": 1}, {"lat": 33.503, "lng": -8.416, "id": "113070", "name": "Stainforthia fusiformis", "sprite": "sp-anchoviella_juruasanga.png", "group": "other", "rarity": 1}, {"lat": 33.4444, "lng": -7.5556, "id": "410717", "name": "Aspidosiphon (Aspidosiphon) muelleri muelleri", "sprite": "sp-anchoviella_juruasanga.png", "group": "other", "rarity": 1}, {"lat": 34.2625, "lng": -8.025, "id": "127795", "name": "Halocypris pelagica", "sprite": "sp-anchoviella_juruasanga.png", "group": "other", "rarity": 1}, {"lat": 32.0, "lng": -6.0, "id": "158576", "name": "False moray", "thumb": "tn_Kahyo_u0.jpg", "sprite": "sp-electric_eel.png", "group": "eel", "rarity": 1, "waterType": "Saltwater"}, {"lat": 33.65, "lng": -7.5831, "id": "127060", "name": "Common pandora", "thumb": "tn_Paery_u0.jpg", "sprite": "sp-anchoviella_juruasanga.png", "group": "other", "rarity": 1, "waterType": "Saltwater"}, {"lat": 33.875, "lng": -7.425, "id": "126404", "name": "Mediterranean slimehead", "thumb": "tn_Homed_u2.jpg", "sprite": "sp-anchoviella_juruasanga.png", "group": "other", "rarity": 1, "waterType": "Saltwater"}, {"lat": 33.8, "lng": -7.2, "id": "110622", "name": "Leucon (Leucon) serratus", "sprite": "sp-american_lobster.png", "group": "crab_lobster", "rarity": 1}, {"lat": 33.0, "lng": -8.0, "id": "127264", "name": "Large-scaled gurnard", "thumb": "tn_Lecav_u1.jpg", "sprite": "sp-anchoviella_juruasanga.png", "group": "other", "rarity": 1, "waterType": "Saltwater"}, {"lat": 34.0, "lng": -7.0, "id": "125392", "name": "Placogorgia coronata", "sprite": "sp-actiniidae.png", "group": "coral", "rarity": 1}, {"lat": 33.98, "lng": -7.83, "id": "135147", "name": "Cladocora debilis", "sprite": "sp-actiniidae.png", "group": "coral", "rarity": 1}, {"lat": 34.0, "lng": -7.0, "id": "117827", "name": "Polyplumaria flabellata", "sprite": "sp-anchoviella_juruasanga.png", "group": "other", "rarity": 1}, {"lat": 33.3333, "lng": -7.6667, "id": "110504", "name": "Leptostylis macrura", "sprite": "sp-american_lobster.png", "group": "crab_lobster", "rarity": 1}, {"lat": 33.875, "lng": -7.125, "id": "136074", "name": "Phascolion (Isomya) tuberculosum", "sprite": "sp-anchoviella_juruasanga.png", "group": "other", "rarity": 1}, {"lat": 33.567, "lng": -7.883, "id": "127261", "name": "Streaked gurnard", "thumb": "tn_Chlas_u0.jpg", "sprite": "sp-anchoviella_juruasanga.png", "group": "other", "rarity": 1, "waterType": "Saltwater"}, {"lat": 32.2, "lng": -6.6, "id": "127354", "name": "Ribbon sawtail fish", "thumb": "tn_Idfas_u1.jpg", "sprite": "sp-anchoviella_juruasanga.png", "group": "other", "rarity": 1, "waterType": "Saltwater"}, {"lat": 33.9, "lng": -6.0, "id": "131046", "name": "Semivermilia torulosa", "sprite": "sp-anchoviella_juruasanga.png", "group": "other", "rarity": 1}, {"lat": 33.0, "lng": -8.0, "id": "136383", "name": "Paranarthrura lusitanus", "sprite": "sp-american_lobster.png", "group": "crab_lobster", "rarity": 1}, {"lat": 33.0, "lng": -8.0, "id": "156256", "name": "Nannastacus longirostris", "sprite": "sp-american_lobster.png", "group": "crab_lobster", "rarity": 1}, {"lat": 34.2583, "lng": -8.03, "id": "127778", "name": "Conchoecissa imbricata", "sprite": "sp-anchoviella_juruasanga.png", "group": "other", "rarity": 1}, {"lat": 34.2625, "lng": -8.025, "id": "127768", "name": "Conchoecetta acuminata", "sprite": "sp-anchoviella_juruasanga.png", "group": "other", "rarity": 1}, {"lat": 33.65, "lng": -7.5831, "id": "127051", "name": "Zebra seabream", "thumb": "tn_Dicer_u2.jpg", "sprite": "sp-anchoviella_juruasanga.png", "group": "other", "rarity": 1, "waterType": "Saltwater"}, {"lat": 33.5833, "lng": -7.5833, "id": "140483", "name": "Perna perna", "sprite": "sp-blue_mussel.png", "group": "clam_mussel", "rarity": 1}, {"lat": 33.503, "lng": -8.416, "id": "815776", "name": "Riminopsis asterizans", "sprite": "sp-anchoviella_juruasanga.png", "group": "other", "rarity": 1}, {"lat": 34.0, "lng": -7.0, "id": "128517", "name": "Pennatula phosphorea", "sprite": "sp-actiniidae.png", "group": "coral", "rarity": 1}, {"lat": 34.0, "lng": -7.0, "id": "106253", "name": "Metaverruca recta", "sprite": "sp-anchoviella_juruasanga.png", "group": "other", "rarity": 1}, {"lat": 32.2, "lng": -6.6, "id": "204605", "name": "Harengula", "sprite": "sp-anchoviella_juruasanga.png", "group": "other", "rarity": 1}, {"lat": 34.0, "lng": -7.0, "id": "136079", "name": "Phascolosoma (Fisherana) capitatum", "sprite": "sp-anchoviella_juruasanga.png", "group": "other", "rarity": 1}, {"lat": 34.2625, "lng": -8.025, "id": "127831", "name": "Orthoconchoecia haddoni", "sprite": "sp-anchoviella_juruasanga.png", "group": "other", "rarity": 1}, {"lat": 33.65, "lng": -7.5831, "id": "998228", "name": "Moroccan white seabream", "thumb": "tn_Disar_u5.jpg", "sprite": "sp-anchoviella_juruasanga.png", "group": "other", "rarity": 1, "waterType": "Saltwater"}, {"lat": 33.7331, "lng": -7.35, "id": "127156", "name": "Sand sole", "thumb": "tn_Pelas_u2.jpg", "sprite": "sp-atlantic_halibut.png", "group": "flatfish", "rarity": 1, "waterType": "Brackish"}, {"lat": 33.503, "lng": -8.416, "id": "112998", "name": "Bolivina variabilis", "sprite": "sp-anchoviella_juruasanga.png", "group": "other", "rarity": 1}, {"lat": 33.65, "lng": -7.5831, "id": "273966", "name": "Morocco dentex", "thumb": "tn_Demar_u1.jpg", "sprite": "sp-anchoviella_juruasanga.png", "group": "other", "rarity": 1, "waterType": "Saltwater"}, {"lat": 34.0, "lng": -7.0, "id": "182042", "name": "Leptostylis bacescoi", "sprite": "sp-american_lobster.png", "group": "crab_lobster", "rarity": 1}, {"lat": 33.0, "lng": -8.0, "id": "103897", "name": "Polycarpa biscayensis", "sprite": "sp-anchoviella_juruasanga.png", "group": "other", "rarity": 1}, {"lat": 33.61, "lng": -7.585, "id": "120019", "name": "Gastrosaccus sanctus", "sprite": "sp-american_lobster.png", "group": "crab_lobster", "rarity": 1}, {"lat": 34.0, "lng": -7.0, "id": "182369", "name": "Campylaspides grandis", "sprite": "sp-american_lobster.png", "group": "crab_lobster", "rarity": 1}, {"lat": 34.0, "lng": -7.0, "id": "410724", "name": "Golfingia (Golfingia) vulgaris vulgaris", "sprite": "sp-anchoviella_juruasanga.png", "group": "other", "rarity": 1}, {"lat": 34.0, "lng": -7.0, "id": "182615", "name": "Procampylaspis ommidion", "sprite": "sp-american_lobster.png", "group": "crab_lobster", "rarity": 1}, {"lat": 33.65, "lng": -7.5831, "id": "127066", "name": "Black seabream", "thumb": "tn_Spcan_u1.jpg", "sprite": "sp-anchoviella_juruasanga.png", "group": "other", "rarity": 1, "waterType": "Saltwater"}, {"lat": 34.183, "lng": -7.5, "id": "126452", "name": "Mediterranean bigeye rockling", "thumb": "tn_Gabis_u1.jpg", "sprite": "sp-anchoviella_juruasanga.png", "group": "other", "rarity": 1, "waterType": "Saltwater"}, {"lat": 33.9, "lng": -6.0, "id": "117957", "name": "Errina aspera", "sprite": "sp-anchoviella_juruasanga.png", "group": "other", "rarity": 1}, {"lat": 34.3, "lng": -8.1667, "id": "589796", "name": "Cerataspis monstrosus", "sprite": "sp-american_lobster.png", "group": "crab_lobster", "rarity": 1}, {"lat": 33.5, "lng": -7.5, "id": "110494", "name": "Diastyloides biplicatus", "sprite": "sp-american_lobster.png", "group": "crab_lobster", "rarity": 1}, {"lat": 33.5833, "lng": -7.5806, "id": "159190", "name": "Pancake batfish", "thumb": "tn_Haacu_u3.jpg", "sprite": "sp-deep_sea_anglerfish.png", "group": "anglerfish", "rarity": 1, "waterType": "Saltwater"}, {"lat": 33.0, "lng": -8.0, "id": "110550", "name": "Campylaspis legendrei", "sprite": "sp-american_lobster.png", "group": "crab_lobster", "rarity": 1}, {"lat": 34.0, "lng": -7.0, "id": "175027", "name": "Golfingia (Golfingia) margaritacea", "sprite": "sp-anchoviella_juruasanga.png", "group": "other", "rarity": 1}, {"lat": 34.0, "lng": -7.0, "id": "110446", "name": "Cyclaspis longicaudata", "sprite": "sp-american_lobster.png", "group": "crab_lobster", "rarity": 1}, {"lat": 33.0, "lng": -8.0, "id": "103806", "name": "Molgula tethys", "sprite": "sp-anchoviella_juruasanga.png", "group": "other", "rarity": 1}, {"lat": 33.0, "lng": -8.0, "id": "127419", "name": "Boarfish", "thumb": "tn_Caape_u0.jpg", "sprite": "sp-anchoviella_juruasanga.png", "group": "other", "rarity": 1, "waterType": "Saltwater"}, {"lat": 34.0, "lng": -7.0, "id": "110586", "name": "Procampylaspis macronyx", "sprite": "sp-american_lobster.png", "group": "crab_lobster", "rarity": 1}, {"lat": 34.242, "lng": -8.05, "id": "127859", "name": "Proceroecia macroprocera", "sprite": "sp-anchoviella_juruasanga.png", "group": "other", "rarity": 1}, {"lat": 33.503, "lng": -8.416, "id": "114282", "name": "Textularia pseudogramen", "sprite": "sp-anchoviella_juruasanga.png", "group": "other", "rarity": 1}, {"lat": 33.0, "lng": -8.0, "id": "110499", "name": "Ekleptostylis walkeri", "sprite": "sp-american_lobster.png", "group": "crab_lobster", "rarity": 1}, {"lat": 33.503, "lng": -8.416, "id": "113755", "name": "Rectuvigerina phlegeri", "sprite": "sp-anchoviella_juruasanga.png", "group": "other", "rarity": 1}, {"lat": 33.6667, "lng": -7.3333, "id": "110497", "name": "Diastyloides serratus", "sprite": "sp-american_lobster.png", "group": "crab_lobster", "rarity": 1}, {"lat": 33.0, "lng": -8.0, "id": "182518", "name": "Cumella (Cumella) polita", "sprite": "sp-american_lobster.png", "group": "crab_lobster", "rarity": 1}, {"lat": 33.9, "lng": -6.0, "id": "471844", "name": "Cribrilaria radiata", "sprite": "sp-anchoviella_juruasanga.png", "group": "other", "rarity": 1}, {"lat": 34.0533, "lng": -7.8667, "id": "272372", "name": "Hymenocephalus billsam", "thumb": "tn_Hybil_u0.jpg", "sprite": "sp-anchoviella_juruasanga.png", "group": "other", "rarity": 1, "waterType": "Saltwater"}, {"lat": 33.0, "lng": -8.0, "id": "127087", "name": "Simony's frostfish", "thumb": "tn_Besim_u0.gif", "sprite": "sp-anchoviella_juruasanga.png", "group": "other", "rarity": 1, "waterType": "Saltwater"}, {"lat": 33.6667, "lng": -7.3333, "id": "110554", "name": "Campylaspis rostrata", "sprite": "sp-american_lobster.png", "group": "crab_lobster", "rarity": 1}, {"lat": 34.0, "lng": -7.0, "id": "117820", "name": "Plumularia filicula", "sprite": "sp-anchoviella_juruasanga.png", "group": "other", "rarity": 1}, {"lat": 34.0, "lng": -7.0, "id": "110583", "name": "Procampylaspis bituberculata", "sprite": "sp-american_lobster.png", "group": "crab_lobster", "rarity": 1}, {"lat": 33.0, "lng": -8.0, "id": "134646", "name": "Callipallene producta", "sprite": "sp-anchoviella_juruasanga.png", "group": "other", "rarity": 1}, {"lat": 33.475, "lng": -7.95, "id": "236715", "name": "Talochlamys pusio", "sprite": "sp-blue_mussel.png", "group": "clam_mussel", "rarity": 1}, {"lat": 34.0, "lng": -7.0, "id": "126462", "name": "Bathygadus favosus", "thumb": "tn_Bafav_u0.gif", "sprite": "sp-anchoviella_juruasanga.png", "group": "other", "rarity": 1, "waterType": "Saltwater"}, {"lat": 34.0, "lng": -7.0, "id": "345640", "name": "Metaverruca trisulcata", "sprite": "sp-anchoviella_juruasanga.png", "group": "other", "rarity": 1}]}