{"zoom": 7, "x": 61, "y": 95, "points": [{"lat": -65.675, "lng": -5.997, "id": "234642", "name": "Brauer’s lanternfish", "thumb": "tn_Gybra_u0.gif", "sprite": "sp-anchoviella_juruasanga.png", "group": "other", "rarity": 1, "waterType": "Saltwater"}, {"lat": -66.0, "lng": -6.0, "id": "236219", "name": "Thysanoessa macrura", "sprite": "sp-antarctic_krill.png", "group": "shrimp", "rarity": 1}, {"lat": -66.2191, "lng": -7.7471, "id": "212631", "name": "Phoebetria palpebrata", "sprite": "sp-anchoviella_juruasanga.png", "group": "other", "rarity": 1}, {"lat": -65.8686, "lng": -6.0103, "id": "217697", "name": "Electrona antarctica", "thumb": "tn_Elant_u0.gif", "sprite": "sp-anchoviella_juruasanga.png", "group": "other", "rarity": 1, "waterType": "Saltwater"}, {"lat": -65.481, "lng": -6.023, "id": "125888", "name": "Bathylagus", "sprite": "sp-anchoviella_juruasanga.png", "group": "other", "rarity": 1}, {"lat": -66.0583, "lng": -6.0917, "id": "137091", "name": "Balaenoptera physalus", "sprite": "sp-blue_whale.png", "group": "whale", "rarity": 1}, {"lat": -65.481, "lng": -6.023, "id": "125471", "name": "Macrouridae", "sprite": "sp-anchoviella_juruasanga.png", "group": "other", "rarity": 1}, {"lat": -65.9302, "lng": -7.145, "id": "231413", "name": "Mirounga leonina", "sprite": "sp-elephant_seal.png", "group": "seal", "rarity": 1}, {"lat": -66.1901, "lng": -7.3145, "id": "344008", "name": "Lobodon carcinophagus", "sprite": "sp-elephant_seal.png", "group": "seal", "rarity": 1}, {"lat": -66.1083, "lng": -6.76, "id": "284479", "name": "Corymorpha gigantea", "sprite": "sp-anchoviella_juruasanga.png", "group": "other", "rarity": 1}, {"lat": -65.8302, "lng": -7.2323, "id": "137165", "name": "Sterna paradisaea", "sprite": "sp-anchoviella_juruasanga.png", "group": "other", "rarity": 1}, {"lat": -66.0743, "lng": -6.9872, "id": "212639", "name": "Thalassoica antarctica", "sprite": "sp-anchoviella_juruasanga.png", "group": "other", "rarity": 1}, {"lat": -66.0, "lng": -6.0, "id": "236217", "name": "Euphausia superba", "sprite": "sp-antarctic_krill.png", "group": "shrimp", "rarity": 1}, {"lat": -65.9161, "lng": -6.0259, "id": "1526062", "name": "Antarctic jonasfish", "thumb": "tn_Nocoa_u0.gif", "sprite": "sp-anchoviella_juruasanga.png", "group": "other", "rarity": 1, "waterType": "Saltwater"}, {"lat": -66.1083, "lng": -6.76, "id": "117617", "name": "Halicreas minimum", "sprite": "sp-anchoviella_juruasanga.png", "group": "other", "rarity": 1}, {"lat": -66.3207, "lng": -6.031, "id": "234631", "name": "Antarctic deepsea smelt", "thumb": "tn_Baant_u0.gif", "sprite": "sp-anchoviella_juruasanga.png", "group": "other", "rarity": 1, "waterType": "Saltwater"}]}