{"zoom": 7, "x": 62, "y": 27, "points": [{"lat": 71.2278, "lng": -4.2856, "id": "137091", "name": "Balaenoptera physalus", "sprite": "sp-blue_whale.png", "group": "whale", "rarity": 1}, {"lat": 71.501, "lng": -5.005, "id": "104164", "name": "Microcalanus", "sprite": "sp-anchoviella_juruasanga.png", "group": "other", "rarity": 1}, {"lat": 70.6667, "lng": -3.8, "id": "137134", "name": "Uria lomvia", "sprite": "sp-anchoviella_juruasanga.png", "group": "other", "rarity": 1}, {"lat": 70.9517, "lng": -5.545, "id": "112890", "name": "Cibicidoides wuellerstorfi", "sprite": "sp-anchoviella_juruasanga.png", "group": "other", "rarity": 1}, {"lat": 71.4927, "lng": -3.941, "id": "156452", "name": "Themisto libellula", "sprite": "sp-american_lobster.png", "group": "crab_lobster", "rarity": 1}, {"lat": 70.9517, "lng": -5.545, "id": "114215", "name": "Thurammina papillata", "sprite": "sp-anchoviella_juruasanga.png", "group": "other", "rarity": 1}, {"lat": 70.9517, "lng": -5.545, "id": "112675", "name": "Quinqueloculina seminulum", "sprite": "sp-anchoviella_juruasanga.png", "group": "other", "rarity": 1}, {"lat": 71.496, "lng": -4.3666, "id": "104464", "name": "Calanus finmarchicus", "sprite": "sp-anchoviella_juruasanga.png", "group": "other", "rarity": 1}, {"lat": 71.501, "lng": -5.005, "id": "146421", "name": "Appendicularia", "sprite": "sp-anchoviella_juruasanga.png", "group": "other", "rarity": 1}, {"lat": 70.9517, "lng": -5.545, "id": "113986", "name": "Hormosinella ovicula", "sprite": "sp-anchoviella_juruasanga.png", "group": "other", "rarity": 1}, {"lat": 70.73, "lng": -5.0, "id": "137020", "name": "Lagenorhynchus", "sprite": "sp-bottlenose_dolphin.png", "group": "dolphin", "rarity": 1}, {"lat": 71.4927, "lng": -3.941, "id": "104632", "name": "Metridia longa", "sprite": "sp-anchoviella_juruasanga.png", "group": "other", "rarity": 1}, {"lat": 71.002, "lng": -5.025, "id": "2", "name": "Animalia", "sprite": "sp-anchoviella_juruasanga.png", "group": "other", "rarity": 1}, {"lat": 71.1494, "lng": -3.6694, "id": "127782", "name": "Discoconchoecia elegans", "sprite": "sp-anchoviella_juruasanga.png", "group": "other", "rarity": 1}, {"lat": 70.9542, "lng": -5.5541, "id": "146203", "name": "Dinoflagellata", "sprite": "sp-anchoviella_juruasanga.png", "group": "other", "rarity": 1}, {"lat": 71.501, "lng": -5.005, "id": "1078", "name": "Ostracoda", "sprite": "sp-anchoviella_juruasanga.png", "group": "other", "rarity": 1}, {"lat": 70.955, "lng": -5.5533, "id": "160561", "name": "Pediastrum", "sprite": "sp-anchoviella_juruasanga.png", "group": "other", "rarity": 1}, {"lat": 70.9517, "lng": -5.545, "id": "112598", "name": "Pyrgo rotalaria", "sprite": "sp-anchoviella_juruasanga.png", "group": "other", "rarity": 1}, {"lat": 70.955, "lng": -5.5533, "id": "233522", "name": "Gonyaulax elongata", "sprite": "sp-anchoviella_juruasanga.png", "group": "other", "rarity": 1}, {"lat": 70.955, "lng": -5.5533, "id": "657391", "name": "Impagidinium pallidum", "sprite": "sp-anchoviella_juruasanga.png", "group": "other", "rarity": 1}, {"lat": 70.9517, "lng": -5.545, "id": "556616", "name": "Laevidentalina communis", "sprite": "sp-anchoviella_juruasanga.png", "group": "other", "rarity": 1}, {"lat": 70.9517, "lng": -5.545, "id": "112333", "name": "Hyperammina", "sprite": "sp-anchoviella_juruasanga.png", "group": "other", "rarity": 1}, {"lat": 70.9517, "lng": -5.545, "id": "112509", "name": "Biloculinella inflata", "sprite": "sp-anchoviella_juruasanga.png", "group": "other", "rarity": 1}, {"lat": 70.9517, "lng": -5.545, "id": "254681", "name": "Cribrostomoides subglobosus", "sprite": "sp-anchoviella_juruasanga.png", "group": "other", "rarity": 1}, {"lat": 70.9517, "lng": -5.545, "id": "114157", "name": "Crithionina hispida", "sprite": "sp-anchoviella_juruasanga.png", "group": "other", "rarity": 1}, {"lat": 71.4927, "lng": -3.941, "id": "104465", "name": "Calanus glacialis", "sprite": "sp-anchoviella_juruasanga.png", "group": "other", "rarity": 1}, {"lat": 70.9517, "lng": -5.545, "id": "480146", "name": "Marginulina similis", "sprite": "sp-anchoviella_juruasanga.png", "group": "other", "rarity": 1}, {"lat": 70.955, "lng": -5.5533, "id": "835690", "name": "Algidasphaeridium minutum", "sprite": "sp-anchoviella_juruasanga.png", "group": "other", "rarity": 1}, {"lat": 70.955, "lng": -5.5533, "id": "110213", "name": "Protoperidinium conicum", "sprite": "sp-anchoviella_juruasanga.png", "group": "other", "rarity": 1}, {"lat": 70.955, "lng": -5.5533, "id": "1321853", "name": "Scrippsiella acuminata", "sprite": "sp-anchoviella_juruasanga.png", "group": "other", "rarity": 1}, {"lat": 70.9517, "lng": -5.545, "id": "114016", "name": "Reophax scorpiurus", "sprite": "sp-anchoviella_juruasanga.png", "group": "other", "rarity": 1}, {"lat": 71.0853, "lng": -4.1671, "id": "127828", "name": "Obtusoecia obtusata", "sprite": "sp-anchoviella_juruasanga.png", "group": "other", "rarity": 1}, {"lat": 71.002, "lng": -5.025, "id": "11676", "name": "Pisces", "sprite": "sp-anchoviella_juruasanga.png", "group": "other", "rarity": 1}, {"lat": 70.9517, "lng": -5.545, "id": "112100", "name": "Valvulineria", "sprite": "sp-anchoviella_juruasanga.png", "group": "other", "rarity": 1}, {"lat": 71.2, "lng": -4.97, "id": "343899", "name": "Hyperoodon ampullatus", "sprite": "sp-blue_whale.png", "group": "whale", "rarity": 1}, {"lat": 70.955, "lng": -5.5533, "id": "603684", "name": "Brigantedinium", "sprite": "sp-anchoviella_juruasanga.png", "group": "other", "rarity": 1}, {"lat": 70.8343, "lng": -3.4843, "id": "137195", "name": "Fulmarus glacialis", "sprite": "sp-anchoviella_juruasanga.png", "group": "other", "rarity": 1}, {"lat": 70.9517, "lng": -5.545, "id": "113994", "name": "Reophax calcareus", "sprite": "sp-anchoviella_juruasanga.png", "group": "other", "rarity": 1}, {"lat": 71.002, "lng": -5.025, "id": "110671", "name": "Euphausiidae", "sprite": "sp-antarctic_krill.png", "group": "shrimp", "rarity": 1}, {"lat": 70.9517, "lng": -5.545, "id": "163159", "name": "Textulariida", "sprite": "sp-anchoviella_juruasanga.png", "group": "other", "rarity": 1}, {"lat": 70.9517, "lng": -5.545, "id": "112488", "name": "Cornuspira involvens", "sprite": "sp-anchoviella_juruasanga.png", "group": "other", "rarity": 1}, {"lat": 70.955, "lng": -5.5533, "id": "110212", "name": "Protoperidinium conicoides", "sprite": "sp-anchoviella_juruasanga.png", "group": "other", "rarity": 1}, {"lat": 70.75, "lng": -3.5833, "id": "136973", "name": "Anatidae", "sprite": "sp-anchoviella_juruasanga.png", "group": "other", "rarity": 1}, {"lat": 71.4982, "lng": -4.6503, "id": "104467", "name": "Calanus hyperboreus", "sprite": "sp-anchoviella_juruasanga.png", "group": "other", "rarity": 1}, {"lat": 70.836, "lng": -4.498, "id": "137087", "name": "Balaenoptera acutorostrata", "sprite": "sp-blue_whale.png", "group": "whale", "rarity": 1}, {"lat": 70.98, "lng": -4.53, "id": "137097", "name": "Globicephala melas", "sprite": "sp-bottlenose_dolphin.png", "group": "dolphin", "rarity": 1}, {"lat": 71.501, "lng": -5.005, "id": "104174", "name": "Euchaeta", "sprite": "sp-anchoviella_juruasanga.png", "group": "other", "rarity": 1}, {"lat": 71.18, "lng": -4.0, "id": "127767", "name": "Boroecia maxima", "sprite": "sp-anchoviella_juruasanga.png", "group": "other", "rarity": 1}, {"lat": 70.9517, "lng": -5.545, "id": "113877", "name": "Hippocrepinella hirudinea", "sprite": "sp-anchoviella_juruasanga.png", "group": "other", "rarity": 1}, {"lat": 71.4948, "lng": -4.207, "id": "104165", "name": "Pseudocalanus", "sprite": "sp-anchoviella_juruasanga.png", "group": "other", "rarity": 1}, {"lat": 70.87, "lng": -4.07, "id": "137119", "name": "Physeter macrocephalus", "sprite": "sp-blue_whale.png", "group": "whale", "rarity": 1}, {"lat": 71.4968, "lng": -4.473, "id": "106485", "name": "Oithona", "sprite": "sp-anchoviella_juruasanga.png", "group": "other", "rarity": 1}, {"lat": 71.501, "lng": -5.005, "id": "1205", "name": "Hyperiidea", "sprite": "sp-american_lobster.png", "group": "crab_lobster", "rarity": 1}, {"lat": 70.9517, "lng": -5.545, "id": "112154", "name": "Fissurina", "sprite": "sp-anchoviella_juruasanga.png", "group": "other", "rarity": 1}, {"lat": 70.87, "lng": -3.95, "id": "137102", "name": "Orcinus orca", "sprite": "sp-bottlenose_dolphin.png", "group": "dolphin", "rarity": 1}, {"lat": 71.002, "lng": -5.025, "id": "1130", "name": "Decapoda", "sprite": "sp-american_lobster.png", "group": "crab_lobster", "rarity": 1}, {"lat": 70.81, "lng": -3.4433, "id": "137041", "name": "Uria", "sprite": "sp-anchoviella_juruasanga.png", "group": "other", "rarity": 1}, {"lat": 71.405, "lng": -4.93, "id": "137092", "name": "Megaptera novaeangliae", "sprite": "sp-blue_whale.png", "group": "whale", "rarity": 1}, {"lat": 71.501, "lng": -5.005, "id": "128690", "name": "Oncaea", "sprite": "sp-anchoviella_juruasanga.png", "group": "other", "rarity": 1}, {"lat": 70.9517, "lng": -5.545, "id": "991800", "name": "Triloculina tricarinata", "sprite": "sp-anchoviella_juruasanga.png", "group": "other", "rarity": 1}, {"lat": 70.955, "lng": -5.5533, "id": "602101", "name": "Spiniferites", "sprite": "sp-anchoviella_juruasanga.png", "group": "other", "rarity": 1}, {"lat": 71.4927, "lng": -3.941, "id": "157675", "name": "Microcalanus pusillus", "sprite": "sp-anchoviella_juruasanga.png", "group": "other", "rarity": 1}, {"lat": 71.4968, "lng": -4.473, "id": "104190", "name": "Metridia", "sprite": "sp-anchoviella_juruasanga.png", "group": "other", "rarity": 1}, {"lat": 71.4989, "lng": -4.739, "id": "2081", "name": "Chaetognatha", "sprite": "sp-anchoviella_juruasanga.png", "group": "other", "rarity": 1}, {"lat": 70.9517, "lng": -5.545, "id": "113267", "name": "Elphidium excavatum", "sprite": "sp-anchoviella_juruasanga.png", "group": "other", "rarity": 1}, {"lat": 70.9517, "lng": -5.545, "id": "112594", "name": "Pyrgo oblonga", "sprite": "sp-anchoviella_juruasanga.png", "group": "other", "rarity": 1}, {"lat": 71.4982, "lng": -4.6503, "id": "1080", "name": "Copepoda", "sprite": "sp-anchoviella_juruasanga.png", "group": "other", "rarity": 1}, {"lat": 70.9542, "lng": -5.5541, "id": "835694", "name": "Operculodinium centrocarpum", "sprite": "sp-anchoviella_juruasanga.png", "group": "other", "rarity": 1}, {"lat": 71.0, "lng": -3.9667, "id": "137133", "name": "Uria aalge", "sprite": "sp-anchoviella_juruasanga.png", "group": "other", "rarity": 1}, {"lat": 70.9517, "lng": -5.545, "id": "163158", "name": "Rotaliida", "sprite": "sp-anchoviella_juruasanga.png", "group": "other", "rarity": 1}]}