{"zoom": 7, "x": 62, "y": 44, "points": [{"lat": 48.0118, "lng": -3.8643, "id": "141936", "name": "Venus verrucosa", "sprite": "sp-blue_mussel.png", "group": "clam_mussel", "rarity": 1}, {"lat": 47.6523, "lng": -3.6057, "id": "548016", "name": "Zanardinia typus", "sprite": "sp-anchoviella_juruasanga.png", "group": "other", "rarity": 1}, {"lat": 48.3892, "lng": -3.9231, "id": "101509", "name": "Apherusa", "sprite": "sp-american_lobster.png", "group": "crab_lobster", "rarity": 1}, {"lat": 48.455, "lng": -3.4775, "id": "140301", "name": "Spisula solida", "sprite": "sp-blue_mussel.png", "group": "clam_mussel", "rarity": 1}, {"lat": 48.0382, "lng": -3.8881, "id": "143996", "name": "Cladophora", "sprite": "sp-anchoviella_juruasanga.png", "group": "other", "rarity": 1}, {"lat": 48.6759, "lng": -3.8977, "id": "1297885", "name": "Paucibranchia bellii", "sprite": "sp-anchoviella_juruasanga.png", "group": "other", "rarity": 1}, {"lat": 48.1937, "lng": -4.0459, "id": "1617535", "name": "Pleurotomoides gracilis", "sprite": "sp-cowrie_shell.png", "group": "sea_snail", "rarity": 1}, {"lat": 48.0851, "lng": -5.0705, "id": "841260", "name": "Tripos macroceros", "sprite": "sp-anchoviella_juruasanga.png", "group": "other", "rarity": 1}, {"lat": 48.609, "lng": -3.8948, "id": "107302", "name": "Ebalia tumefacta", "sprite": "sp-american_lobster.png", "group": "crab_lobster", "rarity": 1}, {"lat": 48.1398, "lng": -3.8661, "id": "107217", "name": "Anapagurus hyndmanni", "sprite": "sp-american_lobster.png", "group": "crab_lobster", "rarity": 1}, {"lat": 48.7717, "lng": -3.9683, "id": "149182", "name": "Pleurosigma normanii", "sprite": "sp-anchoviella_juruasanga.png", "group": "other", "rarity": 1}, {"lat": 47.6852, "lng": -3.1928, "id": "103484", "name": "Ascidiella", "sprite": "sp-anchoviella_juruasanga.png", "group": "other", "rarity": 1}, {"lat": 48.3705, "lng": -4.4026, "id": "162728", "name": "Staurastrum", "sprite": "sp-anchoviella_juruasanga.png", "group": "other", "rarity": 1}, {"lat": 48.7032, "lng": -3.8998, "id": "131077", "name": "Sthenelais limicola", "sprite": "sp-anchoviella_juruasanga.png", "group": "other", "rarity": 1}, {"lat": 48.44, "lng": -3.59, "id": "117491", "name": "Sarsia tubulosa", "sprite": "sp-anchoviella_juruasanga.png", "group": "other", "rarity": 1}, {"lat": 48.0046, "lng": -4.1223, "id": "110298", "name": "Prorocentrum dentatum", "sprite": "sp-anchoviella_juruasanga.png", "group": "other", "rarity": 1}, {"lat": 48.2579, "lng": -3.8134, "id": "126752", "name": "Small sandeel", "thumb": "tn_Amtob_u2.jpg", "sprite": "sp-anchoviella_juruasanga.png", "group": "other", "rarity": 1, "waterType": "Brackish"}, {"lat": 48.3623, "lng": -4.0954, "id": "879714", "name": "Asbjornsenia pygmaea", "sprite": "sp-blue_mussel.png", "group": "clam_mussel", "rarity": 1}, {"lat": 48.7204, "lng": -3.9737, "id": "139772", "name": "Eubranchus vittatus", "sprite": "sp-cowrie_shell.png", "group": "sea_snail", "rarity": 1}, {"lat": 48.7233, "lng": -3.9799, "id": "111409", "name": "Margaretta cereoides", "sprite": "sp-anchoviella_juruasanga.png", "group": "other", "rarity": 1}, {"lat": 48.1504, "lng": -5.2229, "id": "104193", "name": "Calocalanus", "sprite": "sp-anchoviella_juruasanga.png", "group": "other", "rarity": 1}, {"lat": 48.738, "lng": -3.9402, "id": "149338", "name": "Grammatophora marina", "sprite": "sp-anchoviella_juruasanga.png", "group": "other", "rarity": 1}, {"lat": 48.6504, "lng": -4.1857, "id": "160527", "name": "Eunotogramma", "sprite": "sp-anchoviella_juruasanga.png", "group": "other", "rarity": 1}, {"lat": 48.2936, "lng": -4.8956, "id": "104079", "name": "Calanidae", "sprite": "sp-anchoviella_juruasanga.png", "group": "other", "rarity": 1}, {"lat": 48.3828, "lng": -4.1324, "id": "107301", "name": "Ebalia tuberosa", "sprite": "sp-american_lobster.png", "group": "crab_lobster", "rarity": 1}, {"lat": 48.6797, "lng": -3.9188, "id": "103076", "name": "Bathyporeia tenuipes", "sprite": "sp-american_lobster.png", "group": "crab_lobster", "rarity": 1}, {"lat": 47.526, "lng": -5.3176, "id": "130464", "name": "Hyalinoecia tubicola", "sprite": "sp-anchoviella_juruasanga.png", "group": "other", "rarity": 1}, {"lat": 48.5838, "lng": -3.9449, "id": "138992", "name": "Acanthocardia echinata", "sprite": "sp-blue_mussel.png", "group": "clam_mussel", "rarity": 1}, {"lat": 48.4459, "lng": -4.7666, "id": "144135", "name": "Gelidium", "sprite": "sp-anchoviella_juruasanga.png", "group": "other", "rarity": 1}, {"lat": 48.535, "lng": -3.8711, "id": "145051", "name": "Cladophora laetevirens", "sprite": "sp-anchoviella_juruasanga.png", "group": "other", "rarity": 1}, {"lat": 48.7717, "lng": -3.9683, "id": "110245", "name": "Protoperidinium pellucidum", "sprite": "sp-anchoviella_juruasanga.png", "group": "other", "rarity": 1}, {"lat": 48.6292, "lng": -3.8093, "id": "102164", "name": "Apherusa clevei", "sprite": "sp-american_lobster.png", "group": "crab_lobster", "rarity": 1}, {"lat": 48.441, "lng": -4.0713, "id": "978230", "name": "Rhizosolenia robusta var. robusta", "sprite": "sp-anchoviella_juruasanga.png", "group": "other", "rarity": 1}, {"lat": 48.1928, "lng": -4.1979, "id": "1571853", "name": "Leucopleurus acutus", "sprite": "sp-bottlenose_dolphin.png", "group": "dolphin", "rarity": 1}, {"lat": 47.6018, "lng": -3.1229, "id": "146232", "name": "Dictyochophyceae", "sprite": "sp-anchoviella_juruasanga.png", "group": "other", "rarity": 1}, {"lat": 48.2889, "lng": -3.861, "id": "145712", "name": "Hildenbrandia rubra", "sprite": "sp-anchoviella_juruasanga.png", "group": "other", "rarity": 1}, {"lat": 48.7717, "lng": -3.9683, "id": "163856", "name": "Cocconeis costata", "sprite": "sp-anchoviella_juruasanga.png", "group": "other", "rarity": 1}, {"lat": 47.5586, "lng": -3.1352, "id": "148984", "name": "Chaetocerotaceae", "sprite": "sp-anchoviella_juruasanga.png", "group": "other", "rarity": 1}, {"lat": 47.687, "lng": -4.2847, "id": "127266", "name": "Piper gurnard", "thumb": "tn_Trlyr_u0.jpg", "sprite": "sp-anchoviella_juruasanga.png", "group": "other", "rarity": 1, "waterType": "Saltwater"}, {"lat": 48.1246, "lng": -3.7719, "id": "141353", "name": "Rissoa guerinii", "sprite": "sp-cowrie_shell.png", "group": "sea_snail", "rarity": 1}, {"lat": 47.5795, "lng": -4.3475, "id": "107160", "name": "Munida rugosa", "sprite": "sp-american_lobster.png", "group": "crab_lobster", "rarity": 1}, {"lat": 48.7167, "lng": -3.9833, "id": "131334", "name": "Palposyllis prosostoma", "sprite": "sp-anchoviella_juruasanga.png", "group": "other", "rarity": 1}, {"lat": 48.7717, "lng": -3.9683, "id": "978142", "name": "Pyxidicula compressa var. compressa", "sprite": "sp-anchoviella_juruasanga.png", "group": "other", "rarity": 1}, {"lat": 48.5944, "lng": -3.8433, "id": "123111", "name": "Dendrochirotida", "sprite": "sp-sea_cucumber.png", "group": "starfish", "rarity": 1}, {"lat": 47.8447, "lng": -3.7196, "id": "107190", "name": "Porcellana platycheles", "sprite": "sp-american_lobster.png", "group": "crab_lobster", "rarity": 1}, {"lat": 48.7167, "lng": -3.9833, "id": "334840", "name": "Spirorbis (Spirorbis) inornatus", "sprite": "sp-anchoviella_juruasanga.png", "group": "other", "rarity": 1}, {"lat": 48.7632, "lng": -4.0252, "id": "139640", "name": "Doto fragilis", "sprite": "sp-cowrie_shell.png", "group": "sea_snail", "rarity": 1}, {"lat": 48.7333, "lng": -3.9833, "id": "132210", "name": "Ute gladiata", "sprite": "sp-barrel_sponge.png", "group": "sponge", "rarity": 1}, {"lat": 48.6567, "lng": -3.9116, "id": "140771", "name": "Zirfaea crispata", "sprite": "sp-blue_mussel.png", "group": "clam_mussel", "rarity": 1}, {"lat": 47.7918, "lng": -3.8841, "id": "106789", "name": "Pandalidae", "sprite": "sp-american_lobster.png", "group": "crab_lobster", "rarity": 1}, {"lat": 47.735, "lng": -4.0003, "id": "129791", "name": "Auchenoplax crinita", "sprite": "sp-anchoviella_juruasanga.png", "group": "other", "rarity": 1}, {"lat": 48.7167, "lng": -3.9833, "id": "130926", "name": "Manayunkia aestuarina", "sprite": "sp-anchoviella_juruasanga.png", "group": "other", "rarity": 1}, {"lat": 48.2394, "lng": -4.5564, "id": "110378", "name": "Bodotriidae", "sprite": "sp-american_lobster.png", "group": "crab_lobster", "rarity": 1}, {"lat": 48.6833, "lng": -3.9333, "id": "143657", "name": "Promesostoma meixneri roscoffense", "sprite": "sp-anchoviella_juruasanga.png", "group": "other", "rarity": 1}, {"lat": 48.44, "lng": -3.59, "id": "117804", "name": "Phialella quadrata", "sprite": "sp-anchoviella_juruasanga.png", "group": "other", "rarity": 1}, {"lat": 48.7167, "lng": -3.9833, "id": "166634", "name": "Haliclona (Rhizoniera) indistincta", "sprite": "sp-barrel_sponge.png", "group": "sponge", "rarity": 1}, {"lat": 48.7001, "lng": -4.0501, "id": "119906", "name": "Siriella", "sprite": "sp-american_lobster.png", "group": "crab_lobster", "rarity": 1}, {"lat": 48.3868, "lng": -4.8543, "id": "119863", "name": "Heteromysis", "sprite": "sp-american_lobster.png", "group": "crab_lobster", "rarity": 1}, {"lat": 48.2911, "lng": -5.2446, "id": "104464", "name": "Calanus finmarchicus", "sprite": "sp-anchoviella_juruasanga.png", "group": "other", "rarity": 1}, {"lat": 48.7717, "lng": -3.9683, "id": "179573", "name": "Cocconeis pseudomarginata", "sprite": "sp-anchoviella_juruasanga.png", "group": "other", "rarity": 1}, {"lat": 48.1055, "lng": -3.8181, "id": "129625", "name": "Spio", "sprite": "sp-anchoviella_juruasanga.png", "group": "other", "rarity": 1}, {"lat": 48.3105, "lng": -4.3903, "id": "146932", "name": "Paraonis fulgens", "sprite": "sp-anchoviella_juruasanga.png", "group": "other", "rarity": 1}, {"lat": 48.5768, "lng": -3.9438, "id": "103058", "name": "Bathyporeia elegans", "sprite": "sp-american_lobster.png", "group": "crab_lobster", "rarity": 1}, {"lat": 47.6667, "lng": -5.0, "id": "137841", "name": "Corbula", "sprite": "sp-blue_mussel.png", "group": "clam_mussel", "rarity": 1}, {"lat": 48.0097, "lng": -4.0661, "id": "149235", "name": "Hemiaulaceae", "sprite": "sp-anchoviella_juruasanga.png", "group": "other", "rarity": 1}, {"lat": 48.1536, "lng": -5.1618, "id": "104462", "name": "Calanoides carinatus", "sprite": "sp-anchoviella_juruasanga.png", "group": "other", "rarity": 1}, {"lat": 48.2219, "lng": -5.274, "id": "104469", "name": "Nannocalanus minor", "sprite": "sp-anchoviella_juruasanga.png", "group": "other", "rarity": 1}, {"lat": 47.8238, "lng": -3.9578, "id": "122314", "name": "Lineidae", "sprite": "sp-anchoviella_juruasanga.png", "group": "other", "rarity": 1}, {"lat": 48.8105, "lng": -3.822, "id": "107323", "name": "Hyas coarctatus", "sprite": "sp-american_lobster.png", "group": "crab_lobster", "rarity": 1}, {"lat": 48.2286, "lng": -3.8579, "id": "203911", "name": "Limicola", "sprite": "sp-anchoviella_juruasanga.png", "group": "other", "rarity": 1}, {"lat": 48.2232, "lng": -3.9891, "id": "845", "name": "Laminariales", "sprite": "sp-anchoviella_juruasanga.png", "group": "other", "rarity": 1}, {"lat": 48.3352, "lng": -4.6021, "id": "129420", "name": "Orbinia", "sprite": "sp-anchoviella_juruasanga.png", "group": "other", "rarity": 1}, {"lat": 48.3635, "lng": -4.2462, "id": "146230", "name": "Chrysophyceae", "sprite": "sp-anchoviella_juruasanga.png", "group": "other", "rarity": 1}, {"lat": 47.6021, "lng": -3.483, "id": "141280", "name": "Crisilla semistriata", "sprite": "sp-cowrie_shell.png", "group": "sea_snail", "rarity": 1}, {"lat": 48.1427, "lng": -3.8255, "id": "130248", "name": "Lumbrineris latreilli", "sprite": "sp-anchoviella_juruasanga.png", "group": "other", "rarity": 1}, {"lat": 48.1748, "lng": -3.9448, "id": "488966", "name": "Nototropis swammerdamei", "sprite": "sp-american_lobster.png", "group": "crab_lobster", "rarity": 1}, {"lat": 48.3434, "lng": -4.0965, "id": "144438", "name": "Asparagopsis armata", "sprite": "sp-anchoviella_juruasanga.png", "group": "other", "rarity": 1}, {"lat": 48.1092, "lng": -3.7961, "id": "131415", "name": "Syllis armillaris", "sprite": "sp-anchoviella_juruasanga.png", "group": "other", "rarity": 1}, {"lat": 48.4086, "lng": -4.2456, "id": "107632", "name": "Periclimenes sagittifer", "sprite": "sp-american_lobster.png", "group": "crab_lobster", "rarity": 1}, {"lat": 48.0879, "lng": -3.8552, "id": "1491000", "name": "Scoletoma laurentiana", "sprite": "sp-anchoviella_juruasanga.png", "group": "other", "rarity": 1}, {"lat": 48.4414, "lng": -3.9396, "id": "129951", "name": "Chaetozone caputesocis", "sprite": "sp-anchoviella_juruasanga.png", "group": "other", "rarity": 1}, {"lat": 48.4914, "lng": -3.8601, "id": "145908", "name": "Sphaerococcus coronopifolius", "sprite": "sp-anchoviella_juruasanga.png", "group": "other", "rarity": 1}, {"lat": 48.3528, "lng": -4.926, "id": "1082", "name": "Cirripedia", "sprite": "sp-anchoviella_juruasanga.png", "group": "other", "rarity": 1}, {"lat": 48.3046, "lng": -3.8068, "id": "119822", "name": "Mysidae", "sprite": "sp-american_lobster.png", "group": "crab_lobster", "rarity": 1}, {"lat": 48.2425, "lng": -4.8896, "id": "146421", "name": "Appendicularia", "sprite": "sp-anchoviella_juruasanga.png", "group": "other", "rarity": 1}, {"lat": 47.3169, "lng": -3.2499, "id": "144564", "name": "Ceramium siliquosum", "sprite": "sp-anchoviella_juruasanga.png", "group": "other", "rarity": 1}, {"lat": 48.8028, "lng": -3.8806, "id": "921", "name": "Capitellidae", "sprite": "sp-anchoviella_juruasanga.png", "group": "other", "rarity": 1}, {"lat": 48.739, "lng": -3.2656, "id": "148980", "name": "Porosira", "sprite": "sp-anchoviella_juruasanga.png", "group": "other", "rarity": 1}, {"lat": 47.9666, "lng": -3.896, "id": "141651", "name": "Thracia villosiuscula", "sprite": "sp-blue_mussel.png", "group": "clam_mussel", "rarity": 1}, {"lat": 48.1976, "lng": -3.5589, "id": "107468", "name": "Asthenognathus atlanticus", "sprite": "sp-american_lobster.png", "group": "crab_lobster", "rarity": 1}, {"lat": 48.4148, "lng": -4.0738, "id": "668195", "name": "Vertebrata thuyoides", "sprite": "sp-anchoviella_juruasanga.png", "group": "other", "rarity": 1}, {"lat": 48.1978, "lng": -3.8843, "id": "236719", "name": "Mimachlamys varia", "sprite": "sp-blue_mussel.png", "group": "clam_mussel", "rarity": 1}, {"lat": 48.1081, "lng": -3.8009, "id": "131431", "name": "Syllis garciai", "sprite": "sp-anchoviella_juruasanga.png", "group": "other", "rarity": 1}, {"lat": 48.5783, "lng": -3.7866, "id": "117283", "name": "Aglaophenia pluma", "sprite": "sp-anchoviella_juruasanga.png", "group": "other", "rarity": 1}, {"lat": 48.4196, "lng": -3.8689, "id": "147031", "name": "Nebalia", "sprite": "sp-american_lobster.png", "group": "crab_lobster", "rarity": 1}, {"lat": 48.2186, "lng": -4.5022, "id": "101450", "name": "Amphilochus", "sprite": "sp-american_lobster.png", "group": "crab_lobster", "rarity": 1}, {"lat": 48.1797, "lng": -3.7576, "id": "129280", "name": "Lysidice", "sprite": "sp-anchoviella_juruasanga.png", "group": "other", "rarity": 1}, {"lat": 48.6021, "lng": -3.8973, "id": "129346", "name": "Clymenura", "sprite": "sp-anchoviella_juruasanga.png", "group": "other", "rarity": 1}, {"lat": 47.8751, "lng": -5.2637, "id": "103357", "name": "Appendicularia", "sprite": "sp-anchoviella_juruasanga.png", "group": "other", "rarity": 1}, {"lat": 47.75, "lng": -3.35, "id": "126789", "name": "Parrot seaperch", "thumb": "tn_Carub_u6.jpg", "sprite": "sp-anchoviella_juruasanga.png", "group": "other", "rarity": 1, "waterType": "Saltwater"}, {"lat": 48.7717, "lng": -3.9683, "id": "180390", "name": "Lyrella", "sprite": "sp-anchoviella_juruasanga.png", "group": "other", "rarity": 1}, {"lat": 48.7141, "lng": -3.9399, "id": "180912", "name": "Tricolia pullus picta", "sprite": "sp-cowrie_shell.png", "group": "sea_snail", "rarity": 1}, {"lat": 48.1116, "lng": -4.0785, "id": "109477", "name": "Katodinium", "sprite": "sp-anchoviella_juruasanga.png", "group": "other", "rarity": 1}, {"lat": 47.8482, "lng": -5.0917, "id": "104640", "name": "Pleuromamma piseki", "sprite": "sp-anchoviella_juruasanga.png", "group": "other", "rarity": 1}, {"lat": 48.4471, "lng": -3.4459, "id": "491650", "name": "Brachystomia eulimoides", "sprite": "sp-cowrie_shell.png", "group": "sea_snail", "rarity": 1}, {"lat": 48.7169, "lng": -3.9831, "id": "126736", "name": "European smelt", "thumb": "tn_Osepe_u3.jpg", "sprite": "sp-anchoviella_juruasanga.png", "group": "other", "rarity": 1, "waterType": "Brackish"}, {"lat": 48.7265, "lng": -3.9861, "id": "1047602", "name": "Edmundsella pedata", "sprite": "sp-cowrie_shell.png", "group": "sea_snail", "rarity": 1}, {"lat": 48.7167, "lng": -3.9833, "id": "131201", "name": "Circeis spirillum", "sprite": "sp-anchoviella_juruasanga.png", "group": "other", "rarity": 1}, {"lat": 47.7015, "lng": -3.3295, "id": "129206", "name": "Arenicola", "sprite": "sp-anchoviella_juruasanga.png", "group": "other", "rarity": 1}, {"lat": 48.7569, "lng": -4.0063, "id": "491655", "name": "Jordaniella truncatula", "sprite": "sp-cowrie_shell.png", "group": "sea_snail", "rarity": 1}, {"lat": 48.7306, "lng": -3.9833, "id": "168736", "name": "Batzella inops", "sprite": "sp-barrel_sponge.png", "group": "sponge", "rarity": 1}, {"lat": 47.2667, "lng": -5.2667, "id": "117932", "name": "Thuiaria articulata", "sprite": "sp-anchoviella_juruasanga.png", "group": "other", "rarity": 1}, {"lat": 48.7717, "lng": -3.9683, "id": "179377", "name": "Eupodiscus sculptus", "sprite": "sp-anchoviella_juruasanga.png", "group": "other", "rarity": 1}, {"lat": 48.7306, "lng": -3.9897, "id": "102443", "name": "Protomedeia fasciata", "sprite": "sp-american_lobster.png", "group": "crab_lobster", "rarity": 1}, {"lat": 48.7713, "lng": -3.8758, "id": "103169", "name": "Stenothoe monoculoides", "sprite": "sp-american_lobster.png", "group": "crab_lobster", "rarity": 1}, {"lat": 48.2585, "lng": -4.8938, "id": "138636", "name": "Dosinia", "sprite": "sp-blue_mussel.png", "group": "clam_mussel", "rarity": 1}, {"lat": 48.2839, "lng": -3.8765, "id": "148904", "name": "Thalassiosiraceae", "sprite": "sp-anchoviella_juruasanga.png", "group": "other", "rarity": 1}, {"lat": 48.3182, "lng": -4.2589, "id": "107319", "name": "Eurynome spinosa", "sprite": "sp-american_lobster.png", "group": "crab_lobster", "rarity": 1}, {"lat": 48.2913, "lng": -3.7681, "id": "2036", "name": "Oligochaeta", "sprite": "sp-anchoviella_juruasanga.png", "group": "other", "rarity": 1}, {"lat": 48.8909, "lng": -3.4669, "id": "145078", "name": "Codium adhaerens", "sprite": "sp-anchoviella_juruasanga.png", "group": "other", "rarity": 1}]}