{"zoom": 7, "x": 63, "y": 78, "points": [{"lat": -36.8333, "lng": -1.33, "id": "113458", "name": "Neogloboquadrina pachyderma", "sprite": "sp-anchoviella_juruasanga.png", "group": "other", "rarity": 1}, {"lat": -36.8333, "lng": -1.33, "id": "1455327", "name": "Globorotalia (Truncorotalia) crassaformis", "sprite": "sp-anchoviella_juruasanga.png", "group": "other", "rarity": 1}, {"lat": -36.8333, "lng": -1.33, "id": "113444", "name": "Globigerinoides ruber", "sprite": "sp-anchoviella_juruasanga.png", "group": "other", "rarity": 1}, {"lat": -36.8333, "lng": -1.33, "id": "1026357", "name": "Dentigloborotalia anfracta", "sprite": "sp-anchoviella_juruasanga.png", "group": "other", "rarity": 1}, {"lat": -36.8333, "lng": -1.33, "id": "113454", "name": "Globoturborotalita rubescens", "sprite": "sp-anchoviella_juruasanga.png", "group": "other", "rarity": 1}, {"lat": -36.8333, "lng": -1.33, "id": "113441", "name": "Globigerinoides conglobatus", "sprite": "sp-anchoviella_juruasanga.png", "group": "other", "rarity": 1}, {"lat": -36.8333, "lng": -1.33, "id": "113453", "name": "Globorotalia truncatulinoides", "sprite": "sp-anchoviella_juruasanga.png", "group": "other", "rarity": 1}, {"lat": -36.8333, "lng": -1.33, "id": "113440", "name": "Globigerinella siphonifera", "sprite": "sp-anchoviella_juruasanga.png", "group": "other", "rarity": 1}, {"lat": -37.7957, "lng": -1.6376, "id": "212632", "name": "Phoebetria fusca", "sprite": "sp-anchoviella_juruasanga.png", "group": "other", "rarity": 1}, {"lat": -37.3333, "lng": -1.6017, "id": "137165", "name": "Sterna paradisaea", "sprite": "sp-anchoviella_juruasanga.png", "group": "other", "rarity": 1}, {"lat": -36.8333, "lng": -1.33, "id": "113474", "name": "Neogloboquadrina incompta", "sprite": "sp-anchoviella_juruasanga.png", "group": "other", "rarity": 1}, {"lat": -37.8746, "lng": -0.7866, "id": "137119", "name": "Physeter macrocephalus", "sprite": "sp-blue_whale.png", "group": "whale", "rarity": 1}, {"lat": -37.6497, "lng": -1.4019, "id": "220222", "name": "Eubalaena australis", "sprite": "sp-blue_whale.png", "group": "whale", "rarity": 1}]}