{"zoom": 7, "x": 64, "y": 36, "points": [{"lat": 60.8865, "lng": 1.5178, "id": "126441", "name": "Saithe", "thumb": "tn_Povir_u0.jpg", "sprite": "sp-arctogadus.png", "group": "cod", "rarity": 1, "waterType": "Saltwater"}, {"lat": 60.5, "lng": 2.5, "id": "129435", "name": "Paraonis", "sprite": "sp-anchoviella_juruasanga.png", "group": "other", "rarity": 1}, {"lat": 61.3831, "lng": 2.0957, "id": "1581981", "name": "Tryphosella umbonata", "sprite": "sp-american_lobster.png", "group": "crab_lobster", "rarity": 1}, {"lat": 61.1319, "lng": 1.9188, "id": "410717", "name": "Aspidosiphon (Aspidosiphon) muelleri muelleri", "sprite": "sp-anchoviella_juruasanga.png", "group": "other", "rarity": 1}, {"lat": 61.1067, "lng": 1.884, "id": "607402", "name": "Hilbigneris gracilis", "sprite": "sp-anchoviella_juruasanga.png", "group": "other", "rarity": 1}, {"lat": 60.9294, "lng": 1.7349, "id": "214", "name": "Anomiidae", "sprite": "sp-blue_mussel.png", "group": "clam_mussel", "rarity": 1}, {"lat": 61.1667, "lng": 1.2, "id": "874599", "name": "Terebellides shetlandica", "sprite": "sp-anchoviella_juruasanga.png", "group": "other", "rarity": 1}, {"lat": 60.7487, "lng": 1.6913, "id": "151324", "name": "Golden redfish", "thumb": "tn_Semar_ub.jpg", "sprite": "sp-anchoviella_juruasanga.png", "group": "other", "rarity": 1, "waterType": "Saltwater"}, {"lat": 60.7612, "lng": 1.8592, "id": "129446", "name": "Eumida", "sprite": "sp-anchoviella_juruasanga.png", "group": "other", "rarity": 1}, {"lat": 61.5131, "lng": 2.0101, "id": "141519", "name": "Skenea basistriata", "sprite": "sp-cowrie_shell.png", "group": "sea_snail", "rarity": 1}, {"lat": 60.97, "lng": 2.4874, "id": "146951", "name": "Galathowenia fragilis", "sprite": "sp-anchoviella_juruasanga.png", "group": "other", "rarity": 1}, {"lat": 60.5758, "lng": 1.9573, "id": "141912", "name": "Dosinia lupinus", "sprite": "sp-blue_mussel.png", "group": "clam_mussel", "rarity": 1}, {"lat": 60.5, "lng": 2.25, "id": "129379", "name": "Nereis", "sprite": "sp-anchoviella_juruasanga.png", "group": "other", "rarity": 1}, {"lat": 60.8924, "lng": 2.1193, "id": "131169", "name": "Pseudopolydora pulchra", "sprite": "sp-anchoviella_juruasanga.png", "group": "other", "rarity": 1}, {"lat": 60.5283, "lng": 2.6967, "id": "113508", "name": "Lagena substriata", "sprite": "sp-anchoviella_juruasanga.png", "group": "other", "rarity": 1}, {"lat": 61.25, "lng": 2.0, "id": "106676", "name": "Stenopodidea", "sprite": "sp-american_lobster.png", "group": "crab_lobster", "rarity": 1}, {"lat": 61.5691, "lng": 1.8834, "id": "162749", "name": "Protoperidinium cerasus", "sprite": "sp-anchoviella_juruasanga.png", "group": "other", "rarity": 1}, {"lat": 61.1857, "lng": 1.9833, "id": "1258721", "name": "Amblyosyllis spectabilis", "sprite": "sp-anchoviella_juruasanga.png", "group": "other", "rarity": 1}, {"lat": 60.64, "lng": 2.0597, "id": "138474", "name": "Abra", "sprite": "sp-blue_mussel.png", "group": "clam_mussel", "rarity": 1}, {"lat": 60.7402, "lng": 2.6532, "id": "326587", "name": "Aricidea (Acmira) laubieri", "sprite": "sp-anchoviella_juruasanga.png", "group": "other", "rarity": 1}, {"lat": 60.3533, "lng": 2.1267, "id": "126756", "name": "Great sandeel", "thumb": "tn_Hylan_u0.jpg", "sprite": "sp-anchoviella_juruasanga.png", "group": "other", "rarity": 1, "waterType": "Brackish"}, {"lat": 61.2664, "lng": 2.1057, "id": "130041", "name": "Protodorvillea kefersteini", "sprite": "sp-anchoviella_juruasanga.png", "group": "other", "rarity": 1}, {"lat": 60.25, "lng": 2.5, "id": "127203", "name": "Shorthorn sculpin", "thumb": "tn_Mysco_m0.jpg", "sprite": "sp-anchoviella_juruasanga.png", "group": "other", "rarity": 1, "waterType": "Brackish"}, {"lat": 60.75, "lng": 2.2391, "id": "1606699", "name": "Iridonida angulata", "sprite": "sp-american_lobster.png", "group": "crab_lobster", "rarity": 1}, {"lat": 60.5833, "lng": 1.5, "id": "125739", "name": "Trisopterus", "sprite": "sp-arctogadus.png", "group": "cod", "rarity": 1}, {"lat": 61.25, "lng": 2.5, "id": "801", "name": "Chlorophyta", "sprite": "sp-anchoviella_juruasanga.png", "group": "other", "rarity": 1}, {"lat": 61.2785, "lng": 1.8546, "id": "110543", "name": "Campylaspis glabra", "sprite": "sp-american_lobster.png", "group": "crab_lobster", "rarity": 1}, {"lat": 60.5833, "lng": 1.5, "id": "178650", "name": "Astropecten duplicatus", "sprite": "sp-sea_cucumber.png", "group": "starfish", "rarity": 1}, {"lat": 61.0436, "lng": 1.7113, "id": "138223", "name": "Modiolus", "sprite": "sp-blue_mussel.png", "group": "clam_mussel", "rarity": 1}, {"lat": 61.267, "lng": 0.917, "id": "147432", "name": "Calidris", "sprite": "sp-anchoviella_juruasanga.png", "group": "other", "rarity": 1}, {"lat": 61.0178, "lng": 2.2022, "id": "138934", "name": "Turrisipho moebii", "sprite": "sp-cowrie_shell.png", "group": "sea_snail", "rarity": 1}, {"lat": 61.2358, "lng": 2.6417, "id": "154965", "name": "Leaena ebranchiata", "sprite": "sp-anchoviella_juruasanga.png", "group": "other", "rarity": 1}, {"lat": 61.2523, "lng": 1.2879, "id": "137209", "name": "Dermochelys coriacea", "sprite": "sp-green_sea_turtle.png", "group": "sea_turtle", "rarity": 1}, {"lat": 60.5, "lng": 0.0, "id": "146907", "name": "Fabulina fabula", "sprite": "sp-blue_mussel.png", "group": "clam_mussel", "rarity": 1}, {"lat": 61.3938, "lng": 1.7444, "id": "131038", "name": "Salmacina dysteri", "sprite": "sp-anchoviella_juruasanga.png", "group": "other", "rarity": 1}, {"lat": 60.66, "lng": 2.7533, "id": "113186", "name": "Hanzawaia concentrica", "sprite": "sp-anchoviella_juruasanga.png", "group": "other", "rarity": 1}, {"lat": 61.25, "lng": 1.5, "id": "106336", "name": "Haeckelia", "sprite": "sp-anchoviella_juruasanga.png", "group": "other", "rarity": 1}, {"lat": 61.5738, "lng": 1.5167, "id": "109800", "name": "Gymnodinium gracile", "sprite": "sp-anchoviella_juruasanga.png", "group": "other", "rarity": 1}, {"lat": 60.499, "lng": 1.2574, "id": "334512", "name": "Phyllodoce mucosa", "sprite": "sp-anchoviella_juruasanga.png", "group": "other", "rarity": 1}, {"lat": 60.7631, "lng": 2.0616, "id": "124394", "name": "Echinocardium flavescens", "sprite": "sp-sea_cucumber.png", "group": "starfish", "rarity": 1}, {"lat": 60.4184, "lng": 2.2323, "id": "138878", "name": "Buccinum undatum", "sprite": "sp-cowrie_shell.png", "group": "sea_snail", "rarity": 1}, {"lat": 61.0851, "lng": 1.7285, "id": "195953", "name": "Erinaceusyllis erinaceus", "sprite": "sp-anchoviella_juruasanga.png", "group": "other", "rarity": 1}, {"lat": 60.6001, "lng": 1.8402, "id": "153131", "name": "Alloteuthis subulata", "sprite": "sp-giant_pacific_octopus.png", "group": "octopus_squid", "rarity": 1}, {"lat": 61.1856, "lng": 2.0918, "id": "118859", "name": "Natatolana borealis", "sprite": "sp-american_lobster.png", "group": "crab_lobster", "rarity": 1}, {"lat": 60.9752, "lng": 1.635, "id": "130145", "name": "Goniadella gracilis", "sprite": "sp-anchoviella_juruasanga.png", "group": "other", "rarity": 1}, {"lat": 61.0392, "lng": 1.7432, "id": "136340", "name": "Akanthophoreus gracilis", "sprite": "sp-american_lobster.png", "group": "crab_lobster", "rarity": 1}, {"lat": 60.954, "lng": 1.2766, "id": "127251", "name": "Blackbelly rosefish", "thumb": "tn_Hedac_f0.jpg", "sprite": "sp-anchoviella_juruasanga.png", "group": "other", "rarity": 1, "waterType": "Saltwater"}, {"lat": 61.241, "lng": 2.1528, "id": "126964", "name": "Goldsinny-wrasse", "thumb": "tn_Ctrup_u5.jpg", "sprite": "sp-cleaner_wrasse.png", "group": "wrasse", "rarity": 1, "waterType": "Saltwater"}, {"lat": 61.1615, "lng": 2.1821, "id": "131388", "name": "Sphaerosyllis hystrix", "sprite": "sp-anchoviella_juruasanga.png", "group": "other", "rarity": 1}, {"lat": 61.3866, "lng": 1.9688, "id": "138799", "name": "Bathyarca pectunculoides", "sprite": "sp-blue_mussel.png", "group": "clam_mussel", "rarity": 1}, {"lat": 61.004, "lng": 1.4761, "id": "149219", "name": "Chaetoceros debilis", "sprite": "sp-anchoviella_juruasanga.png", "group": "other", "rarity": 1}, {"lat": 60.9127, "lng": 1.8338, "id": "123426", "name": "Echinocardium", "sprite": "sp-sea_cucumber.png", "group": "starfish", "rarity": 1}, {"lat": 61.4889, "lng": 2.1897, "id": "129804", "name": "Melinna cristata", "sprite": "sp-anchoviella_juruasanga.png", "group": "other", "rarity": 1}, {"lat": 60.6706, "lng": 1.6466, "id": "107397", "name": "Macropipus tuberculatus", "sprite": "sp-american_lobster.png", "group": "crab_lobster", "rarity": 1}, {"lat": 60.2503, "lng": 0.656, "id": "212603", "name": "Actitis hypoleucos", "sprite": "sp-anchoviella_juruasanga.png", "group": "other", "rarity": 1}, {"lat": 61.2378, "lng": 1.8098, "id": "334508", "name": "Phyllodoce lineata", "sprite": "sp-anchoviella_juruasanga.png", "group": "other", "rarity": 1}, {"lat": 61.2377, "lng": 2.26, "id": "127718", "name": "Philomedes brenda", "sprite": "sp-anchoviella_juruasanga.png", "group": "other", "rarity": 1}, {"lat": 61.0744, "lng": 1.3547, "id": "104632", "name": "Metridia longa", "sprite": "sp-anchoviella_juruasanga.png", "group": "other", "rarity": 1}, {"lat": 60.9167, "lng": 1.8333, "id": "129413", "name": "Ophelia", "sprite": "sp-anchoviella_juruasanga.png", "group": "other", "rarity": 1}, {"lat": 60.589, "lng": 1.5281, "id": "107273", "name": "Atelecyclus rotundatus", "sprite": "sp-american_lobster.png", "group": "crab_lobster", "rarity": 1}, {"lat": 60.7777, "lng": 1.3223, "id": "149135", "name": "Lauderia annulata", "sprite": "sp-anchoviella_juruasanga.png", "group": "other", "rarity": 1}, {"lat": 61.2388, "lng": 2.0452, "id": "141530", "name": "Skenea rugulosa", "sprite": "sp-cowrie_shell.png", "group": "sea_snail", "rarity": 1}, {"lat": 60.5122, "lng": 2.0082, "id": "231751", "name": "Halecium halecinum", "sprite": "sp-anchoviella_juruasanga.png", "group": "other", "rarity": 1}, {"lat": 61.25, "lng": 2.5, "id": "146230", "name": "Chrysophyceae", "sprite": "sp-anchoviella_juruasanga.png", "group": "other", "rarity": 1}, {"lat": 61.2879, "lng": 1.9924, "id": "130131", "name": "Glycera unicornis", "sprite": "sp-anchoviella_juruasanga.png", "group": "other", "rarity": 1}, {"lat": 61.0357, "lng": 0.6429, "id": "489681", "name": "Epimeria obtusa", "sprite": "sp-american_lobster.png", "group": "crab_lobster", "rarity": 1}, {"lat": 60.8014, "lng": 1.5527, "id": "126793", "name": "Callionymus maculatus", "thumb": "tn_Camac_ul.jpg", "sprite": "sp-anchoviella_juruasanga.png", "group": "other", "rarity": 1, "waterType": "Saltwater"}, {"lat": 61.2157, "lng": 1.3519, "id": "149142", "name": "Navicula", "sprite": "sp-anchoviella_juruasanga.png", "group": "other", "rarity": 1}, {"lat": 61.268, "lng": 2.0756, "id": "131573", "name": "Terebellides stroemii", "sprite": "sp-anchoviella_juruasanga.png", "group": "other", "rarity": 1}, {"lat": 61.3286, "lng": 1.5083, "id": "149228", "name": "Chaetoceros laciniosus", "sprite": "sp-anchoviella_juruasanga.png", "group": "other", "rarity": 1}, {"lat": 61.1338, "lng": 2.2084, "id": "139433", "name": "Cardiomya costellata", "sprite": "sp-blue_mussel.png", "group": "clam_mussel", "rarity": 1}, {"lat": 60.5862, "lng": 2.616, "id": "129437", "name": "Pectinaria", "sprite": "sp-anchoviella_juruasanga.png", "group": "other", "rarity": 1}, {"lat": 60.25, "lng": 2.5, "id": "106903", "name": "Hyas", "sprite": "sp-american_lobster.png", "group": "crab_lobster", "rarity": 1}, {"lat": 61.2035, "lng": 2.0792, "id": "102485", "name": "Liljeborgia pallida", "sprite": "sp-american_lobster.png", "group": "crab_lobster", "rarity": 1}, {"lat": 61.0271, "lng": 2.3415, "id": "107150", "name": "Galathea intermedia", "sprite": "sp-american_lobster.png", "group": "crab_lobster", "rarity": 1}, {"lat": 60.7125, "lng": 2.4134, "id": "101361", "name": "Caprellidae", "sprite": "sp-american_lobster.png", "group": "crab_lobster", "rarity": 1}, {"lat": 61.137, "lng": 2.4876, "id": "146978", "name": "Heteroclymene robusta", "sprite": "sp-anchoviella_juruasanga.png", "group": "other", "rarity": 1}, {"lat": 61.2149, "lng": 1.9075, "id": "131379", "name": "Sphaerosyllis bulbosa", "sprite": "sp-anchoviella_juruasanga.png", "group": "other", "rarity": 1}, {"lat": 60.7036, "lng": 2.3045, "id": "129781", "name": "Ampharete lindstroemi", "sprite": "sp-anchoviella_juruasanga.png", "group": "other", "rarity": 1}, {"lat": 61.0345, "lng": 1.9128, "id": "141435", "name": "Abra nitida", "sprite": "sp-blue_mussel.png", "group": "clam_mussel", "rarity": 1}, {"lat": 60.9706, "lng": 1.6842, "id": "118437", "name": "Gnathia", "sprite": "sp-american_lobster.png", "group": "crab_lobster", "rarity": 1}, {"lat": 60.4444, "lng": 1.7778, "id": "233", "name": "Solenidae", "sprite": "sp-blue_mussel.png", "group": "clam_mussel", "rarity": 1}, {"lat": 60.9946, "lng": 2.1753, "id": "130577", "name": "Cirrophorus furcatus", "sprite": "sp-anchoviella_juruasanga.png", "group": "other", "rarity": 1}, {"lat": 60.4785, "lng": 1.411, "id": "125073", "name": "Amphiura chiajei", "sprite": "sp-sea_cucumber.png", "group": "starfish", "rarity": 1}, {"lat": 61.1617, "lng": 2.3467, "id": "104267", "name": "Aetideopsis armata", "sprite": "sp-anchoviella_juruasanga.png", "group": "other", "rarity": 1}, {"lat": 61.087, "lng": 1.7256, "id": "130407", "name": "Nereis zonata", "sprite": "sp-anchoviella_juruasanga.png", "group": "other", "rarity": 1}, {"lat": 60.9855, "lng": 1.8463, "id": "131516", "name": "Pista cristata", "sprite": "sp-anchoviella_juruasanga.png", "group": "other", "rarity": 1}, {"lat": 60.8433, "lng": 1.8415, "id": "131141", "name": "Polydora ciliata", "sprite": "sp-anchoviella_juruasanga.png", "group": "other", "rarity": 1}, {"lat": 61.122, "lng": 1.9723, "id": "142005", "name": "Yoldiella philippiana", "sprite": "sp-blue_mussel.png", "group": "clam_mussel", "rarity": 1}, {"lat": 60.7229, "lng": 1.9993, "id": "125131", "name": "Ophiothrix fragilis", "sprite": "sp-sea_cucumber.png", "group": "starfish", "rarity": 1}, {"lat": 60.8209, "lng": 1.6786, "id": "156509", "name": "Ceratium arcticum", "sprite": "sp-anchoviella_juruasanga.png", "group": "other", "rarity": 1}, {"lat": 61.25, "lng": 1.5, "id": "143904", "name": "Bostrychia", "sprite": "sp-anchoviella_juruasanga.png", "group": "other", "rarity": 1}, {"lat": 61.5202, "lng": 2.0782, "id": "141859", "name": "Moelleria costulata", "sprite": "sp-cowrie_shell.png", "group": "sea_snail", "rarity": 1}, {"lat": 60.4718, "lng": 2.4161, "id": "130613", "name": "Eteone flava", "sprite": "sp-anchoviella_juruasanga.png", "group": "other", "rarity": 1}, {"lat": 61.3814, "lng": 2.1103, "id": "578334", "name": "Harmothoe mariannae", "sprite": "sp-anchoviella_juruasanga.png", "group": "other", "rarity": 1}, {"lat": 60.41, "lng": 0.678, "id": "119270", "name": "Nitzschia", "sprite": "sp-anchoviella_juruasanga.png", "group": "other", "rarity": 1}, {"lat": 61.1397, "lng": 1.5975, "id": "140687", "name": "Aequipecten opercularis", "sprite": "sp-blue_mussel.png", "group": "clam_mussel", "rarity": 1}, {"lat": 61.5745, "lng": 1.2628, "id": "129432", "name": "Levinsenia", "sprite": "sp-anchoviella_juruasanga.png", "group": "other", "rarity": 1}, {"lat": 61.2848, "lng": 1.967, "id": "138310", "name": "Pandora", "sprite": "sp-blue_mussel.png", "group": "clam_mussel", "rarity": 1}, {"lat": 61.2333, "lng": 0.4833, "id": "101174", "name": "Sea lamprey", "thumb": "tn_Pemar_u7.jpg", "sprite": "sp-pacific_lamprey.png", "group": "lamprey", "rarity": 1, "waterType": "Brackish"}, {"lat": 60.6752, "lng": 1.8548, "id": "136256", "name": "Typhlotanais", "sprite": "sp-american_lobster.png", "group": "crab_lobster", "rarity": 1}, {"lat": 60.52, "lng": 2.7404, "id": "112668", "name": "Quinqueloculina pygmaea", "sprite": "sp-anchoviella_juruasanga.png", "group": "other", "rarity": 1}, {"lat": 60.78, "lng": 1.535, "id": "153095", "name": "Rossia glaucopis", "sprite": "sp-giant_pacific_octopus.png", "group": "octopus_squid", "rarity": 1}, {"lat": 61.1302, "lng": 1.7308, "id": "110574", "name": "Nannastacus unguiculatus", "sprite": "sp-american_lobster.png", "group": "crab_lobster", "rarity": 1}, {"lat": 60.25, "lng": 0.5, "id": "1358", "name": "Pantopoda", "sprite": "sp-anchoviella_juruasanga.png", "group": "other", "rarity": 1}, {"lat": 61.0241, "lng": 1.6959, "id": "138686", "name": "Aclis walleri", "sprite": "sp-cowrie_shell.png", "group": "sea_snail", "rarity": 1}, {"lat": 60.9751, "lng": 2.3929, "id": "129943", "name": "Caulleriella alata", "sprite": "sp-anchoviella_juruasanga.png", "group": "other", "rarity": 1}, {"lat": 61.2484, "lng": 2.0656, "id": "152260", "name": "Scoletoma magnidentata", "sprite": "sp-anchoviella_juruasanga.png", "group": "other", "rarity": 1}, {"lat": 60.5733, "lng": 1.2193, "id": "107254", "name": "Nephrops norvegicus", "sprite": "sp-american_lobster.png", "group": "crab_lobster", "rarity": 1}, {"lat": 60.3479, "lng": 0.3924, "id": "138590", "name": "Gibbula", "sprite": "sp-cowrie_shell.png", "group": "sea_snail", "rarity": 1}, {"lat": 61.5667, "lng": 2.0667, "id": "106651", "name": "Oithona nana", "sprite": "sp-anchoviella_juruasanga.png", "group": "other", "rarity": 1}, {"lat": 60.8346, "lng": 2.3584, "id": "102021", "name": "Autonoe longipes", "sprite": "sp-american_lobster.png", "group": "crab_lobster", "rarity": 1}, {"lat": 61.2493, "lng": 2.214, "id": "123803", "name": "Marthasterias glacialis", "sprite": "sp-sea_cucumber.png", "group": "starfish", "rarity": 1}, {"lat": 60.7266, "lng": 2.3431, "id": "152314", "name": "Spio decorata", "sprite": "sp-anchoviella_juruasanga.png", "group": "other", "rarity": 1}, {"lat": 60.75, "lng": 1.1, "id": "574541", "name": "Doryteuthis pealeii", "sprite": "sp-giant_pacific_octopus.png", "group": "octopus_squid", "rarity": 1}, {"lat": 61.0311, "lng": 1.896, "id": "129778", "name": "Ampharete finmarchica", "sprite": "sp-anchoviella_juruasanga.png", "group": "other", "rarity": 1}, {"lat": 61.11, "lng": 1.63, "id": "1609360", "name": "Pennatuloidea", "sprite": "sp-actiniidae.png", "group": "coral", "rarity": 1}, {"lat": 61.5273, "lng": 2.1463, "id": "130292", "name": "Euclymene lindrothi", "sprite": "sp-anchoviella_juruasanga.png", "group": "other", "rarity": 1}, {"lat": 60.8162, "lng": 1.7839, "id": "123080", "name": "Asteroidea", "sprite": "sp-sea_cucumber.png", "group": "starfish", "rarity": 1}, {"lat": 60.9725, "lng": 2.6288, "id": "110407", "name": "Hemilamprops", "sprite": "sp-american_lobster.png", "group": "crab_lobster", "rarity": 1}]}