{"zoom": 7, "x": 64, "y": 69, "points": [{"lat": -15.983, "lng": 2.033, "id": "377752", "name": "Sergia remipes", "sprite": "sp-american_lobster.png", "group": "crab_lobster", "rarity": 1}, {"lat": -14.8, "lng": 0.1333, "id": "341818", "name": "Liocranchia reinhardtii", "sprite": "sp-giant_pacific_octopus.png", "group": "octopus_squid", "rarity": 1}, {"lat": -15.983, "lng": 2.033, "id": "514137", "name": "Parasergestes diapontius", "sprite": "sp-american_lobster.png", "group": "crab_lobster", "rarity": 1}, {"lat": -15.983, "lng": 2.033, "id": "107093", "name": "Gennadas brevirostris", "sprite": "sp-american_lobster.png", "group": "crab_lobster", "rarity": 1}, {"lat": -15.983, "lng": 2.033, "id": "240809", "name": "Acanthephyra acanthitelsonis", "sprite": "sp-american_lobster.png", "group": "crab_lobster", "rarity": 1}, {"lat": -14.9333, "lng": 0.4667, "id": "126196", "name": "Argyropelecus", "sprite": "sp-anchoviella_juruasanga.png", "group": "other", "rarity": 1}, {"lat": -14.8, "lng": 0.1333, "id": "11733", "name": "Incirrata", "sprite": "sp-giant_pacific_octopus.png", "group": "octopus_squid", "rarity": 1}, {"lat": -15.983, "lng": 2.033, "id": "240814", "name": "Oplophorus novaezeelandiae", "sprite": "sp-american_lobster.png", "group": "crab_lobster", "rarity": 1}, {"lat": -14.8511, "lng": 1.282, "id": "137119", "name": "Physeter macrocephalus", "sprite": "sp-blue_whale.png", "group": "whale", "rarity": 1}, {"lat": -15.983, "lng": 2.033, "id": "183350", "name": "Plesionika richardi", "sprite": "sp-american_lobster.png", "group": "crab_lobster", "rarity": 1}, {"lat": -15.983, "lng": 2.033, "id": "107605", "name": "Systellaspis debilis", "sprite": "sp-american_lobster.png", "group": "crab_lobster", "rarity": 1}, {"lat": -14.718, "lng": 2.656, "id": "137165", "name": "Sterna paradisaea", "sprite": "sp-anchoviella_juruasanga.png", "group": "other", "rarity": 1}, {"lat": -15.42, "lng": 0.4817, "id": "131556", "name": "Tomopteris krampi", "sprite": "sp-anchoviella_juruasanga.png", "group": "other", "rarity": 1}, {"lat": -15.983, "lng": 2.033, "id": "240799", "name": "Gennadas talismani", "sprite": "sp-american_lobster.png", "group": "crab_lobster", "rarity": 1}, {"lat": -15.983, "lng": 2.033, "id": "514130", "name": "Neosergestes edwardsii", "sprite": "sp-american_lobster.png", "group": "crab_lobster", "rarity": 1}, {"lat": -15.983, "lng": 2.033, "id": "107602", "name": "Oplophorus spinosus", "sprite": "sp-american_lobster.png", "group": "crab_lobster", "rarity": 1}, {"lat": -15.42, "lng": 0.4817, "id": "131579", "name": "Travisiopsis lanceolata", "sprite": "sp-anchoviella_juruasanga.png", "group": "other", "rarity": 1}, {"lat": -15.983, "lng": 2.033, "id": "107094", "name": "Gennadas capensis", "sprite": "sp-american_lobster.png", "group": "crab_lobster", "rarity": 1}, {"lat": -16.0, "lng": 2.0165, "id": "107110", "name": "Pelagopenaeus balboae", "sprite": "sp-american_lobster.png", "group": "crab_lobster", "rarity": 1}, {"lat": -16.45, "lng": 1.5833, "id": "274737", "name": "Spotted-fin rockfish", "thumb": "tn_Scste_u1.gif", "sprite": "sp-parascorpaena_moultoni.png", "group": "scorpionfish", "rarity": 1, "waterType": "Saltwater"}, {"lat": -15.9833, "lng": 2.0333, "id": "215608", "name": "Pygmy shark", "thumb": "tn_Eubis_u0.gif", "sprite": "sp-great_white_shark.png", "group": "shark", "rarity": 1, "waterType": "Saltwater"}, {"lat": -14.9333, "lng": 0.4667, "id": "126599", "name": "Longfin lanternfish", "thumb": "tn_Diatl_u1.gif", "sprite": "sp-anchoviella_juruasanga.png", "group": "other", "rarity": 1, "waterType": "Saltwater"}, {"lat": -15.42, "lng": 0.4817, "id": "127716", "name": "Macrocypridina castanea", "sprite": "sp-anchoviella_juruasanga.png", "group": "other", "rarity": 1}, {"lat": -14.8, "lng": 0.1333, "id": "342386", "name": "Sandalops melancholicus", "sprite": "sp-giant_pacific_octopus.png", "group": "octopus_squid", "rarity": 1}, {"lat": -15.9917, "lng": 1.975, "id": "460329", "name": "Macropyxis adunca", "sprite": "sp-anchoviella_juruasanga.png", "group": "other", "rarity": 1}, {"lat": -14.8, "lng": 0.1333, "id": "181386", "name": "Cranchia scabra", "sprite": "sp-giant_pacific_octopus.png", "group": "octopus_squid", "rarity": 1}, {"lat": -15.983, "lng": 2.033, "id": "240810", "name": "Acanthephyra kingsleyi", "sprite": "sp-american_lobster.png", "group": "crab_lobster", "rarity": 1}, {"lat": -15.983, "lng": 2.033, "id": "138168", "name": "Mastigoteuthis", "sprite": "sp-giant_pacific_octopus.png", "group": "octopus_squid", "rarity": 1}, {"lat": -15.42, "lng": 0.4817, "id": "131562", "name": "Tomopteris nisseni", "sprite": "sp-anchoviella_juruasanga.png", "group": "other", "rarity": 1}, {"lat": -15.42, "lng": 0.4817, "id": "130212", "name": "Lopadorrhynchus krohnii", "sprite": "sp-anchoviella_juruasanga.png", "group": "other", "rarity": 1}, {"lat": -15.983, "lng": 2.033, "id": "107600", "name": "Notostomus elegans", "sprite": "sp-american_lobster.png", "group": "crab_lobster", "rarity": 1}, {"lat": -15.4172, "lng": 0.4692, "id": "127374", "name": "Boa dragonfish", "thumb": "tn_Stboa_u1.jpg", "sprite": "sp-anchoviella_juruasanga.png", "group": "other", "rarity": 1, "waterType": "Saltwater"}]}