{"zoom": 7, "x": 64, "y": 75, "points": [{"lat": -29.8382, "lng": 2.4068, "id": "620590", "name": "Coccopterum labyrinthus", "sprite": "sp-anchoviella_juruasanga.png", "group": "other", "rarity": 1}, {"lat": -29.8382, "lng": 2.4068, "id": "235954", "name": "Gephyrocapsa ericsonii", "sprite": "sp-anchoviella_juruasanga.png", "group": "other", "rarity": 1}, {"lat": -31.4667, "lng": 2.5, "id": "125303", "name": "Acanella", "sprite": "sp-actiniidae.png", "group": "coral", "rarity": 1}, {"lat": -31.71, "lng": 2.12, "id": "126395", "name": "Splendid alfonsino", "thumb": "tn_Bespl_ui.jpg", "sprite": "sp-anchoviella_juruasanga.png", "group": "other", "rarity": 1, "waterType": "Saltwater"}, {"lat": -30.0815, "lng": 2.4193, "id": "272657", "name": "Andersen's lantern fish", "thumb": "tn_Diand_u0.gif", "sprite": "sp-anchoviella_juruasanga.png", "group": "other", "rarity": 1, "waterType": "Saltwater"}, {"lat": -29.8383, "lng": 2.4067, "id": "113434", "name": "Globigerina bulloides", "sprite": "sp-anchoviella_juruasanga.png", "group": "other", "rarity": 1}, {"lat": -29.9833, "lng": 1.225, "id": "127861", "name": "Proceroecia procera", "sprite": "sp-anchoviella_juruasanga.png", "group": "other", "rarity": 1}, {"lat": -30.0, "lng": 0.0, "id": "127780", "name": "Conchoecissa symmetrica", "sprite": "sp-anchoviella_juruasanga.png", "group": "other", "rarity": 1}, {"lat": -29.838, "lng": 2.407, "id": "603684", "name": "Brigantedinium", "sprite": "sp-anchoviella_juruasanga.png", "group": "other", "rarity": 1}, {"lat": -29.8383, "lng": 2.4067, "id": "235863", "name": "Helicosphaera", "sprite": "sp-anchoviella_juruasanga.png", "group": "other", "rarity": 1}, {"lat": -29.8383, "lng": 2.4067, "id": "906779", "name": "Globorotalia inflata", "sprite": "sp-anchoviella_juruasanga.png", "group": "other", "rarity": 1}, {"lat": -29.9933, "lng": 1.1217, "id": "428694", "name": "Ledella ultima", "sprite": "sp-blue_mussel.png", "group": "clam_mussel", "rarity": 1}, {"lat": -29.97, "lng": 0.3081, "id": "2", "name": "Animalia", "sprite": "sp-anchoviella_juruasanga.png", "group": "other", "rarity": 1}, {"lat": -30.0815, "lng": 2.4193, "id": "127314", "name": "Diaphanous hatchet fish", "thumb": "tn_Stdia_u7.jpg", "sprite": "sp-anchoviella_juruasanga.png", "group": "other", "rarity": 1, "waterType": "Saltwater"}, {"lat": -29.8381, "lng": 2.4069, "id": "110277", "name": "Thoracosphaera heimii", "sprite": "sp-anchoviella_juruasanga.png", "group": "other", "rarity": 1}, {"lat": -31.4667, "lng": 2.5, "id": "1340", "name": "Hexacorallia", "sprite": "sp-actiniidae.png", "group": "coral", "rarity": 1}, {"lat": -29.8382, "lng": 2.4068, "id": "845955", "name": "Pyxidinopsis reticulata", "sprite": "sp-anchoviella_juruasanga.png", "group": "other", "rarity": 1}, {"lat": -29.8383, "lng": 2.4067, "id": "146203", "name": "Dinoflagellata", "sprite": "sp-anchoviella_juruasanga.png", "group": "other", "rarity": 1}, {"lat": -29.838, "lng": 2.407, "id": "577881", "name": "Syracosphaera nodosa", "sprite": "sp-anchoviella_juruasanga.png", "group": "other", "rarity": 1}, {"lat": -29.8383, "lng": 2.4067, "id": "113473", "name": "Neogloboquadrina dutertrei", "sprite": "sp-anchoviella_juruasanga.png", "group": "other", "rarity": 1}, {"lat": -29.8383, "lng": 2.4067, "id": "113453", "name": "Globorotalia truncatulinoides", "sprite": "sp-anchoviella_juruasanga.png", "group": "other", "rarity": 1}, {"lat": -29.8382, "lng": 2.4068, "id": "341588", "name": "Gephyrocapsa muellerae", "sprite": "sp-anchoviella_juruasanga.png", "group": "other", "rarity": 1}, {"lat": -29.8383, "lng": 2.4067, "id": "113458", "name": "Neogloboquadrina pachyderma", "sprite": "sp-anchoviella_juruasanga.png", "group": "other", "rarity": 1}, {"lat": -31.71, "lng": 2.12, "id": "125819", "name": "Diaphus", "sprite": "sp-anchoviella_juruasanga.png", "group": "other", "rarity": 1}, {"lat": -29.9667, "lng": 2.45, "id": "127854", "name": "Porroecia porrecta", "sprite": "sp-anchoviella_juruasanga.png", "group": "other", "rarity": 1}, {"lat": -29.8383, "lng": 2.4067, "id": "623770", "name": "Impagidinium aculeatum", "sprite": "sp-anchoviella_juruasanga.png", "group": "other", "rarity": 1}, {"lat": -30.0, "lng": 0.0, "id": "127832", "name": "Orthoconchoecia secernenda", "sprite": "sp-anchoviella_juruasanga.png", "group": "other", "rarity": 1}, {"lat": -30.3, "lng": 0.0, "id": "285821", "name": "Errina sinuosa", "sprite": "sp-anchoviella_juruasanga.png", "group": "other", "rarity": 1}, {"lat": -29.8383, "lng": 2.4067, "id": "113450", "name": "Globorotalia menardii", "sprite": "sp-anchoviella_juruasanga.png", "group": "other", "rarity": 1}, {"lat": -29.8381, "lng": 2.4069, "id": "233837", "name": "Calciodinellum levantinum", "sprite": "sp-anchoviella_juruasanga.png", "group": "other", "rarity": 1}, {"lat": -29.77, "lng": 2.19, "id": "137165", "name": "Sterna paradisaea", "sprite": "sp-anchoviella_juruasanga.png", "group": "other", "rarity": 1}, {"lat": -29.8382, "lng": 2.4068, "id": "622622", "name": "Pernambugia tuberosa", "sprite": "sp-anchoviella_juruasanga.png", "group": "other", "rarity": 1}, {"lat": -29.9833, "lng": 1.225, "id": "127830", "name": "Orthoconchoecia bispinosa", "sprite": "sp-anchoviella_juruasanga.png", "group": "other", "rarity": 1}, {"lat": -29.8383, "lng": 2.4067, "id": "1455327", "name": "Globorotalia (Truncorotalia) crassaformis", "sprite": "sp-anchoviella_juruasanga.png", "group": "other", "rarity": 1}, {"lat": -30.0, "lng": 0.0, "id": "217670", "name": "Variegated lizardfish", "thumb": "tn_Syvar_uq.jpg", "sprite": "sp-anchoviella_juruasanga.png", "group": "other", "rarity": 1, "waterType": "Saltwater"}, {"lat": -29.8383, "lng": 2.4067, "id": "113444", "name": "Globigerinoides ruber", "sprite": "sp-anchoviella_juruasanga.png", "group": "other", "rarity": 1}, {"lat": -29.9833, "lng": 1.225, "id": "127773", "name": "Conchoecia magna", "sprite": "sp-anchoviella_juruasanga.png", "group": "other", "rarity": 1}, {"lat": -29.8383, "lng": 2.4067, "id": "113452", "name": "Globorotalia scitula", "sprite": "sp-anchoviella_juruasanga.png", "group": "other", "rarity": 1}, {"lat": -29.8383, "lng": 2.4067, "id": "163159", "name": "Textulariida", "sprite": "sp-anchoviella_juruasanga.png", "group": "other", "rarity": 1}, {"lat": -30.0, "lng": 0.0, "id": "158920", "name": "Scrawled cowfish", "thumb": "tn_Acqua_u4.jpg", "sprite": "sp-anchoviella_juruasanga.png", "group": "other", "rarity": 1, "waterType": "Saltwater"}, {"lat": -30.0, "lng": 0.0, "id": "127787", "name": "Fellia cornuta", "sprite": "sp-anchoviella_juruasanga.png", "group": "other", "rarity": 1}, {"lat": -29.9833, "lng": 1.225, "id": "127845", "name": "Paraconchoecia oblonga", "sprite": "sp-anchoviella_juruasanga.png", "group": "other", "rarity": 1}, {"lat": -29.95, "lng": 0.0, "id": "325420", "name": "Adenocystis utricularis", "sprite": "sp-anchoviella_juruasanga.png", "group": "other", "rarity": 1}, {"lat": -29.8383, "lng": 2.4067, "id": "623771", "name": "Impagidinium sphaericum", "sprite": "sp-anchoviella_juruasanga.png", "group": "other", "rarity": 1}, {"lat": -31.1882, "lng": 1.0213, "id": "220222", "name": "Eubalaena australis", "sprite": "sp-blue_whale.png", "group": "whale", "rarity": 1}, {"lat": -30.0815, "lng": 2.4193, "id": "158900", "name": "Dofleini's lantern fish", "thumb": "tn_Lodof_u1.jpg", "sprite": "sp-anchoviella_juruasanga.png", "group": "other", "rarity": 1, "waterType": "Saltwater"}, {"lat": -29.8383, "lng": 2.4067, "id": "235955", "name": "Gephyrocapsa oceanica", "sprite": "sp-anchoviella_juruasanga.png", "group": "other", "rarity": 1}, {"lat": -30.0, "lng": 0.0, "id": "172482", "name": "Conchoecilla chuni", "sprite": "sp-anchoviella_juruasanga.png", "group": "other", "rarity": 1}, {"lat": -29.8383, "lng": 2.4067, "id": "1026410", "name": "Globoconella inflata", "sprite": "sp-anchoviella_juruasanga.png", "group": "other", "rarity": 1}, {"lat": -30.0, "lng": 0.0, "id": "127776", "name": "Conchoecilla daphnoides", "sprite": "sp-anchoviella_juruasanga.png", "group": "other", "rarity": 1}, {"lat": -29.8383, "lng": 2.4067, "id": "1567956", "name": "Tenuitellita iota", "sprite": "sp-anchoviella_juruasanga.png", "group": "other", "rarity": 1}, {"lat": -29.8382, "lng": 2.4068, "id": "235923", "name": "Calcidiscus leptoporus", "sprite": "sp-anchoviella_juruasanga.png", "group": "other", "rarity": 1}, {"lat": -29.8383, "lng": 2.4067, "id": "113440", "name": "Globigerinella siphonifera", "sprite": "sp-anchoviella_juruasanga.png", "group": "other", "rarity": 1}, {"lat": -29.8382, "lng": 2.4068, "id": "115104", "name": "Emiliania huxleyi", "sprite": "sp-anchoviella_juruasanga.png", "group": "other", "rarity": 1}, {"lat": -29.8383, "lng": 2.4067, "id": "113474", "name": "Neogloboquadrina incompta", "sprite": "sp-anchoviella_juruasanga.png", "group": "other", "rarity": 1}, {"lat": -29.8383, "lng": 2.4067, "id": "838885", "sprite": "sp-anchoviella_juruasanga.png", "group": "other", "rarity": 1}, {"lat": -29.8383, "lng": 2.4067, "id": "109553", "name": "Protoperidinium", "sprite": "sp-anchoviella_juruasanga.png", "group": "other", "rarity": 1}, {"lat": -29.8383, "lng": 2.4067, "id": "838887", "sprite": "sp-anchoviella_juruasanga.png", "group": "other", "rarity": 1}, {"lat": -29.8383, "lng": 2.4067, "id": "113462", "name": "Turborotalita quinqueloba", "sprite": "sp-anchoviella_juruasanga.png", "group": "other", "rarity": 1}, {"lat": -29.9833, "lng": 1.225, "id": "127831", "name": "Orthoconchoecia haddoni", "sprite": "sp-anchoviella_juruasanga.png", "group": "other", "rarity": 1}, {"lat": -29.8383, "lng": 2.4067, "id": "113464", "name": "Globigerinita glutinata", "sprite": "sp-anchoviella_juruasanga.png", "group": "other", "rarity": 1}, {"lat": -29.9833, "lng": 1.225, "id": "127793", "name": "Halocypria globosa", "sprite": "sp-anchoviella_juruasanga.png", "group": "other", "rarity": 1}, {"lat": -30.0815, "lng": 2.4193, "id": "159666", "name": "Kali indica", "thumb": "tn_Kaind_u0.gif", "sprite": "sp-anchoviella_juruasanga.png", "group": "other", "rarity": 1, "waterType": "Saltwater"}, {"lat": -29.8383, "lng": 2.4067, "id": "221249", "name": "Globigerina falconensis", "sprite": "sp-anchoviella_juruasanga.png", "group": "other", "rarity": 1}, {"lat": -29.9833, "lng": 1.225, "id": "127775", "name": "Conchoecia subarcuata", "sprite": "sp-anchoviella_juruasanga.png", "group": "other", "rarity": 1}, {"lat": -29.8382, "lng": 2.4068, "id": "109533", "name": "Calciodinellum", "sprite": "sp-anchoviella_juruasanga.png", "group": "other", "rarity": 1}, {"lat": -29.8383, "lng": 2.4067, "id": "113460", "name": "Orbulina universa", "sprite": "sp-anchoviella_juruasanga.png", "group": "other", "rarity": 1}, {"lat": -29.8383, "lng": 2.4067, "id": "603719", "name": "Rhabdothorax", "sprite": "sp-anchoviella_juruasanga.png", "group": "other", "rarity": 1}, {"lat": -31.71, "lng": 2.12, "id": "158916", "name": "Patchwork lampfish", "thumb": "tn_Nores_u0.jpg", "sprite": "sp-anchoviella_juruasanga.png", "group": "other", "rarity": 1, "waterType": "Saltwater"}, {"lat": -29.8383, "lng": 2.4067, "id": "115084", "name": "Syracosphaera", "sprite": "sp-anchoviella_juruasanga.png", "group": "other", "rarity": 1}, {"lat": -29.8383, "lng": 2.4067, "id": "113454", "name": "Globoturborotalita rubescens", "sprite": "sp-anchoviella_juruasanga.png", "group": "other", "rarity": 1}, {"lat": -29.838, "lng": 2.407, "id": "601728", "name": "Impagidinium", "sprite": "sp-anchoviella_juruasanga.png", "group": "other", "rarity": 1}, {"lat": -29.8383, "lng": 2.4067, "id": "235985", "name": "Umbilicosphaera sibogae", "sprite": "sp-anchoviella_juruasanga.png", "group": "other", "rarity": 1}, {"lat": -30.0, "lng": 0.0, "id": "127732", "name": "Alacia alata", "sprite": "sp-anchoviella_juruasanga.png", "group": "other", "rarity": 1}, {"lat": -30.0, "lng": 0.0, "id": "1314243", "name": "Parthenoecia parthenoda", "sprite": "sp-anchoviella_juruasanga.png", "group": "other", "rarity": 1}, {"lat": -31.2651, "lng": 2.683, "id": "137119", "name": "Physeter macrocephalus", "sprite": "sp-blue_whale.png", "group": "whale", "rarity": 1}, {"lat": -29.838, "lng": 2.407, "id": "233786", "name": "Scrippsiella regalis", "sprite": "sp-anchoviella_juruasanga.png", "group": "other", "rarity": 1}, {"lat": -29.8383, "lng": 2.4067, "id": "1026286", "name": "Trilobatus sacculifer", "sprite": "sp-anchoviella_juruasanga.png", "group": "other", "rarity": 1}, {"lat": -30.0, "lng": 0.0, "id": "536006", "name": "Nasoecia nasotuberculata", "sprite": "sp-anchoviella_juruasanga.png", "group": "other", "rarity": 1}, {"lat": -29.8383, "lng": 2.4067, "id": "113433", "name": "Beella digitata", "sprite": "sp-anchoviella_juruasanga.png", "group": "other", "rarity": 1}, {"lat": -29.8383, "lng": 2.4067, "id": "418106", "name": "Globigerinella calida", "sprite": "sp-anchoviella_juruasanga.png", "group": "other", "rarity": 1}, {"lat": -29.8383, "lng": 2.4067, "id": "112047", "name": "Triloculina", "sprite": "sp-anchoviella_juruasanga.png", "group": "other", "rarity": 1}, {"lat": -29.9833, "lng": 1.225, "id": "127820", "name": "Mikroconchoecia curta", "sprite": "sp-anchoviella_juruasanga.png", "group": "other", "rarity": 1}, {"lat": -30.0, "lng": 0.0, "id": "127778", "name": "Conchoecissa imbricata", "sprite": "sp-anchoviella_juruasanga.png", "group": "other", "rarity": 1}, {"lat": -30.0, "lng": 0.0, "id": "127798", "name": "Loricoecia loricata", "sprite": "sp-anchoviella_juruasanga.png", "group": "other", "rarity": 1}, {"lat": -29.9833, "lng": 1.225, "id": "127782", "name": "Discoconchoecia elegans", "sprite": "sp-anchoviella_juruasanga.png", "group": "other", "rarity": 1}, {"lat": -30.0815, "lng": 2.4193, "id": "127309", "name": "Half-naked hatchetfish", "thumb": "tn_Arhem_u6.jpg", "sprite": "sp-anchoviella_juruasanga.png", "group": "other", "rarity": 1, "waterType": "Saltwater"}, {"lat": -29.8383, "lng": 2.4067, "id": "113448", "name": "Globorotalia hirsuta", "sprite": "sp-anchoviella_juruasanga.png", "group": "other", "rarity": 1}, {"lat": -29.8382, "lng": 2.4068, "id": "233839", "name": "Calciodinellum albatrosianum", "sprite": "sp-anchoviella_juruasanga.png", "group": "other", "rarity": 1}, {"lat": -29.8382, "lng": 2.4068, "id": "235952", "name": "Florisphaera profunda", "sprite": "sp-anchoviella_juruasanga.png", "group": "other", "rarity": 1}, {"lat": -29.9833, "lng": 1.225, "id": "127819", "name": "Mikroconchoecia acuticosta", "sprite": "sp-anchoviella_juruasanga.png", "group": "other", "rarity": 1}, {"lat": -29.8383, "lng": 2.4067, "id": "418108", "name": "Sphaeroidinella dehiscens", "sprite": "sp-anchoviella_juruasanga.png", "group": "other", "rarity": 1}, {"lat": -29.8382, "lng": 2.4068, "id": "623007", "name": "Leonella granifera", "sprite": "sp-anchoviella_juruasanga.png", "group": "other", "rarity": 1}, {"lat": -29.8383, "lng": 2.4067, "id": "418114", "name": "Globorotalia tumida", "sprite": "sp-anchoviella_juruasanga.png", "group": "other", "rarity": 1}, {"lat": -30.0, "lng": 0.0, "id": "127846", "name": "Paraconchoecia spinifera", "sprite": "sp-anchoviella_juruasanga.png", "group": "other", "rarity": 1}, {"lat": -29.8383, "lng": 2.4067, "id": "603344", "name": "Rhabdolithes", "sprite": "sp-anchoviella_juruasanga.png", "group": "other", "rarity": 1}, {"lat": -29.838, "lng": 2.407, "id": "109435", "name": "Protoperidiniaceae", "sprite": "sp-anchoviella_juruasanga.png", "group": "other", "rarity": 1}, {"lat": -31.15, "lng": 0.75, "id": "359877", "name": "Paraeuchaeta sesquipedalis", "sprite": "sp-anchoviella_juruasanga.png", "group": "other", "rarity": 1}, {"lat": -29.8383, "lng": 2.4067, "id": "235962", "name": "Oolithotus fragilis", "sprite": "sp-anchoviella_juruasanga.png", "group": "other", "rarity": 1}, {"lat": -29.9833, "lng": 1.225, "id": "176554", "name": "Obtusoecia antarctica", "sprite": "sp-anchoviella_juruasanga.png", "group": "other", "rarity": 1}, {"lat": -29.8383, "lng": 2.4067, "id": "418107", "name": "Globigerinoides tenellus", "sprite": "sp-anchoviella_juruasanga.png", "group": "other", "rarity": 1}]}