{"zoom": 7, "x": 65, "y": 78, "points": [{"lat": -37.5042, "lng": 4.6, "id": "117617", "name": "Halicreas minimum", "sprite": "sp-anchoviella_juruasanga.png", "group": "other", "rarity": 1}, {"lat": -37.133, "lng": 5.383, "id": "135294", "name": "Periphylla periphylla", "sprite": "sp-box_jellyfish.png", "group": "jellyfish", "rarity": 1}, {"lat": -37.5042, "lng": 4.6, "id": "174743", "name": "Crossota brunnea", "sprite": "sp-anchoviella_juruasanga.png", "group": "other", "rarity": 1}, {"lat": -36.8333, "lng": 4.0048, "id": "113454", "name": "Globoturborotalita rubescens", "sprite": "sp-anchoviella_juruasanga.png", "group": "other", "rarity": 1}, {"lat": -36.8333, "lng": 3.9142, "id": "113444", "name": "Globigerinoides ruber", "sprite": "sp-anchoviella_juruasanga.png", "group": "other", "rarity": 1}, {"lat": -37.7833, "lng": 3.9833, "id": "325407", "name": "Cyllopus magellanicus", "sprite": "sp-american_lobster.png", "group": "crab_lobster", "rarity": 1}, {"lat": -36.8333, "lng": 4.2767, "id": "418106", "name": "Globigerinella calida", "sprite": "sp-anchoviella_juruasanga.png", "group": "other", "rarity": 1}, {"lat": -37.133, "lng": 5.383, "id": "325300", "name": "Gonatus antarcticus", "sprite": "sp-giant_pacific_octopus.png", "group": "octopus_squid", "rarity": 1}, {"lat": -36.8333, "lng": 4.1012, "id": "1026286", "name": "Trilobatus sacculifer", "sprite": "sp-anchoviella_juruasanga.png", "group": "other", "rarity": 1}, {"lat": -36.8333, "lng": 4.4292, "id": "113461", "name": "Turborotalita humilis", "sprite": "sp-anchoviella_juruasanga.png", "group": "other", "rarity": 1}, {"lat": -36.8333, "lng": 4.1559, "id": "1455327", "name": "Globorotalia (Truncorotalia) crassaformis", "sprite": "sp-anchoviella_juruasanga.png", "group": "other", "rarity": 1}, {"lat": -37.525, "lng": 4.55, "id": "127734", "name": "Alacia valdiviae", "sprite": "sp-anchoviella_juruasanga.png", "group": "other", "rarity": 1}, {"lat": -36.8333, "lng": 3.5517, "id": "1567942", "name": "Globorotalia eastropacia", "sprite": "sp-anchoviella_juruasanga.png", "group": "other", "rarity": 1}, {"lat": -36.8333, "lng": 3.9905, "id": "113441", "name": "Globigerinoides conglobatus", "sprite": "sp-anchoviella_juruasanga.png", "group": "other", "rarity": 1}, {"lat": -37.133, "lng": 5.383, "id": "514121", "name": "Deosergestes henseni", "sprite": "sp-american_lobster.png", "group": "crab_lobster", "rarity": 1}, {"lat": -36.8333, "lng": 4.1559, "id": "113440", "name": "Globigerinella siphonifera", "sprite": "sp-anchoviella_juruasanga.png", "group": "other", "rarity": 1}, {"lat": -37.1, "lng": 5.4, "id": "126291", "name": "Narrownecked oceanic eel", "thumb": "tn_Deser_u1.gif", "sprite": "sp-electric_eel.png", "group": "eel", "rarity": 1, "waterType": "Saltwater"}, {"lat": -37.8283, "lng": 5.0297, "id": "290086", "name": "Hensenanthula rotunda", "sprite": "sp-actiniidae.png", "group": "coral", "rarity": 1}, {"lat": -36.8333, "lng": 3.5517, "id": "418107", "name": "Globigerinoides tenellus", "sprite": "sp-anchoviella_juruasanga.png", "group": "other", "rarity": 1}, {"lat": -37.05, "lng": 5.2, "id": "127367", "name": "Smalltooth dragonfish", "thumb": "tn_Pamic_u0.gif", "sprite": "sp-anchoviella_juruasanga.png", "group": "other", "rarity": 1, "waterType": "Saltwater"}, {"lat": -37.1, "lng": 5.4, "id": "126841", "name": "Kali macrodon", "thumb": "tn_Kamac_u1.gif", "sprite": "sp-anchoviella_juruasanga.png", "group": "other", "rarity": 1, "waterType": "Saltwater"}, {"lat": -37.7354, "lng": 5.4313, "id": "120216", "name": "Siriella thompsonii", "sprite": "sp-american_lobster.png", "group": "crab_lobster", "rarity": 1}, {"lat": -38.0546, "lng": 4.7079, "id": "212632", "name": "Phoebetria fusca", "sprite": "sp-anchoviella_juruasanga.png", "group": "other", "rarity": 1}, {"lat": -37.0333, "lng": 5.1333, "id": "127358", "name": "Stoplight loosejaw", "thumb": "tn_Manig_u6.jpg", "sprite": "sp-anchoviella_juruasanga.png", "group": "other", "rarity": 1, "waterType": "Saltwater"}, {"lat": -36.8333, "lng": 4.1559, "id": "113474", "name": "Neogloboquadrina incompta", "sprite": "sp-anchoviella_juruasanga.png", "group": "other", "rarity": 1}, {"lat": -37.5519, "lng": 3.9901, "id": "220222", "name": "Eubalaena australis", "sprite": "sp-blue_whale.png", "group": "whale", "rarity": 1}, {"lat": -36.8333, "lng": 3.5517, "id": "991763", "name": "Globigerinoides elongatus", "sprite": "sp-anchoviella_juruasanga.png", "group": "other", "rarity": 1}, {"lat": -36.8333, "lng": 4.76, "id": "113458", "name": "Neogloboquadrina pachyderma", "sprite": "sp-anchoviella_juruasanga.png", "group": "other", "rarity": 1}, {"lat": -36.8333, "lng": 3.9257, "id": "113473", "name": "Neogloboquadrina dutertrei", "sprite": "sp-anchoviella_juruasanga.png", "group": "other", "rarity": 1}, {"lat": -37.1, "lng": 5.4, "id": "127276", "name": "Longjaw bigscale", "thumb": "tn_Scrob_u0.jpg", "sprite": "sp-anchoviella_juruasanga.png", "group": "other", "rarity": 1, "waterType": "Saltwater"}, {"lat": -37.3186, "lng": 4.9915, "id": "135282", "name": "Atolla wyvillei", "sprite": "sp-box_jellyfish.png", "group": "jellyfish", "rarity": 1}, {"lat": -37.133, "lng": 5.383, "id": "514278", "name": "Systellaspis eltanini", "sprite": "sp-american_lobster.png", "group": "crab_lobster", "rarity": 1}, {"lat": -37.05, "lng": 5.2, "id": "127270", "name": "Shoulderspine bigscale", "thumb": "tn_Mesub_u0.gif", "sprite": "sp-anchoviella_juruasanga.png", "group": "other", "rarity": 1, "waterType": "Brackish"}, {"lat": -37.1, "lng": 5.4, "id": "217617", "name": "Fangtooth dragonfish", "thumb": "tn_Menig_ud.jpg", "sprite": "sp-anchoviella_juruasanga.png", "group": "other", "rarity": 1, "waterType": "Saltwater"}, {"lat": -37.8204, "lng": 4.0777, "id": "212583", "name": "Diomedea exulans", "sprite": "sp-anchoviella_juruasanga.png", "group": "other", "rarity": 1}, {"lat": -36.8333, "lng": 5.0017, "id": "113453", "name": "Globorotalia truncatulinoides", "sprite": "sp-anchoviella_juruasanga.png", "group": "other", "rarity": 1}, {"lat": -37.9757, "lng": 4.4269, "id": "212631", "name": "Phoebetria palpebrata", "sprite": "sp-anchoviella_juruasanga.png", "group": "other", "rarity": 1}, {"lat": -37.517, "lng": 4.7087, "id": "137165", "name": "Sterna paradisaea", "sprite": "sp-anchoviella_juruasanga.png", "group": "other", "rarity": 1}]}