{"zoom": 7, "x": 66, "y": 76, "points": [{"lat": -33.0, "lng": 7.5, "id": "127377", "name": "Threelight dragonfish", "thumb": "tn_Trmir_u0.gif", "sprite": "sp-anchoviella_juruasanga.png", "group": "other", "rarity": 1, "waterType": "Saltwater"}, {"lat": -33.0, "lng": 7.833, "id": "341870", "name": "Histioteuthis macrohista", "sprite": "sp-giant_pacific_octopus.png", "group": "octopus_squid", "rarity": 1}, {"lat": -33.4167, "lng": 6.5167, "id": "119931", "name": "Neognathophausia gigas", "sprite": "sp-american_lobster.png", "group": "crab_lobster", "rarity": 1}, {"lat": -33.4167, "lng": 6.5167, "id": "127286", "name": "Veiled anglemouth", "thumb": "tn_Cymic_u5.jpg", "sprite": "sp-anchoviella_juruasanga.png", "group": "other", "rarity": 1, "waterType": "Saltwater"}, {"lat": -33.4167, "lng": 6.5167, "id": "119917", "name": "Eucopia grimaldii", "sprite": "sp-american_lobster.png", "group": "crab_lobster", "rarity": 1}, {"lat": -33.4167, "lng": 6.5167, "id": "135290", "name": "Nausithoe punctata", "sprite": "sp-box_jellyfish.png", "group": "jellyfish", "rarity": 1}, {"lat": -33.6833, "lng": 5.9, "id": "126187", "name": "Cyclothone", "sprite": "sp-anchoviella_juruasanga.png", "group": "other", "rarity": 1}, {"lat": -33.4167, "lng": 6.5167, "id": "148267", "name": "Pelagonemertes rollestoni", "sprite": "sp-anchoviella_juruasanga.png", "group": "other", "rarity": 1}, {"lat": -33.4167, "lng": 6.5167, "id": "126359", "name": "Duckbill barracudina", "thumb": "tn_Maatl_u0.jpg", "sprite": "sp-anchoviella_juruasanga.png", "group": "other", "rarity": 1, "waterType": "Saltwater"}, {"lat": -33.0, "lng": 7.833, "id": "287146", "name": "Atolla chuni", "sprite": "sp-box_jellyfish.png", "group": "jellyfish", "rarity": 1}, {"lat": -33.0, "lng": 7.8, "id": "127308", "name": "Hatchetfish", "thumb": "tn_Argig_u8.jpg", "sprite": "sp-anchoviella_juruasanga.png", "group": "other", "rarity": 1, "waterType": "Saltwater"}, {"lat": -33.0, "lng": 7.8333, "id": "215612", "name": "Cookie cutter shark", "thumb": "tn_Isbra_f1.jpg", "sprite": "sp-great_white_shark.png", "group": "shark", "rarity": 1, "waterType": "Saltwater"}, {"lat": -33.4167, "lng": 6.5167, "id": "126306", "name": "Slender snipe eel", "thumb": "tn_Nesco_u3.jpg", "sprite": "sp-electric_eel.png", "group": "eel", "rarity": 1, "waterType": "Saltwater"}, {"lat": -33.4167, "lng": 6.5167, "id": "122850", "name": "Calonemertes hardyi", "sprite": "sp-anchoviella_juruasanga.png", "group": "other", "rarity": 1}, {"lat": -33.0, "lng": 7.8, "id": "127306", "name": "Lovely hatchetfish", "thumb": "tn_Aracu_u4.jpg", "sprite": "sp-anchoviella_juruasanga.png", "group": "other", "rarity": 1, "waterType": "Saltwater"}, {"lat": -33.4167, "lng": 6.5167, "id": "220999", "name": "Neognathophausia ingens", "sprite": "sp-american_lobster.png", "group": "crab_lobster", "rarity": 1}, {"lat": -33.4167, "lng": 6.5167, "id": "135465", "name": "Nectopyramis thetis", "sprite": "sp-anchoviella_juruasanga.png", "group": "other", "rarity": 1}, {"lat": -33.1784, "lng": 7.1189, "id": "137119", "name": "Physeter macrocephalus", "sprite": "sp-blue_whale.png", "group": "whale", "rarity": 1}, {"lat": -33.4167, "lng": 6.5167, "id": "103264", "name": "Lanceola pacifica", "sprite": "sp-american_lobster.png", "group": "crab_lobster", "rarity": 1}, {"lat": -33.2083, "lng": 6.5167, "id": "126619", "name": "Pygmy lanternfish", "thumb": "tn_Lapus_u0.jpg", "sprite": "sp-anchoviella_juruasanga.png", "group": "other", "rarity": 1, "waterType": "Saltwater"}, {"lat": -33.6833, "lng": 5.9, "id": "126586", "name": "Warming's lantern fish", "thumb": "tn_Cewar_u0.jpg", "sprite": "sp-anchoviella_juruasanga.png", "group": "other", "rarity": 1, "waterType": "Saltwater"}, {"lat": -33.4167, "lng": 6.5167, "id": "126744", "name": "Mentodus rostratus", "thumb": "tn_Meros_u0.gif", "sprite": "sp-anchoviella_juruasanga.png", "group": "other", "rarity": 1, "waterType": "Saltwater"}, {"lat": -33.4167, "lng": 6.5167, "id": "180730", "name": "Scypholanceola aestiva", "sprite": "sp-american_lobster.png", "group": "crab_lobster", "rarity": 1}, {"lat": -33.0, "lng": 7.833, "id": "341850", "name": "Abraliopsis gilchristi", "sprite": "sp-giant_pacific_octopus.png", "group": "octopus_squid", "rarity": 1}, {"lat": -33.0, "lng": 7.833, "id": "140649", "name": "Onychoteuthis banksii", "sprite": "sp-giant_pacific_octopus.png", "group": "octopus_squid", "rarity": 1}, {"lat": -33.6833, "lng": 5.9, "id": "126319", "name": "Stout sawpalate", "thumb": "tn_Sebea_u2.jpg", "sprite": "sp-electric_eel.png", "group": "eel", "rarity": 1, "waterType": "Saltwater"}, {"lat": -33.55, "lng": 6.2083, "id": "220007", "name": "Silver lightfish", "thumb": "tn_Pharg_u0.jpg", "sprite": "sp-anchoviella_juruasanga.png", "group": "other", "rarity": 1, "waterType": "Saltwater"}, {"lat": -33.4167, "lng": 6.5167, "id": "103279", "name": "Scina crassicornis", "sprite": "sp-american_lobster.png", "group": "crab_lobster", "rarity": 1}, {"lat": -33.0, "lng": 7.833, "id": "137931", "name": "Abraliopsis", "sprite": "sp-giant_pacific_octopus.png", "group": "octopus_squid", "rarity": 1}, {"lat": -33.4167, "lng": 6.5167, "id": "127316", "name": "Constellationfish", "thumb": "tn_Vatri_u0.jpg", "sprite": "sp-anchoviella_juruasanga.png", "group": "other", "rarity": 1, "waterType": "Saltwater"}, {"lat": -33.4167, "lng": 6.5167, "id": "126990", "name": "Driftfish", "thumb": "tn_Cugra_u0.gif", "sprite": "sp-anchoviella_juruasanga.png", "group": "other", "rarity": 1, "waterType": "Saltwater"}, {"lat": -33.4167, "lng": 6.5167, "id": "119964", "name": "Boreomysis bispinosa", "sprite": "sp-american_lobster.png", "group": "crab_lobster", "rarity": 1}, {"lat": -33.4167, "lng": 6.5167, "id": "234692", "name": "Nordenskjold's bigscale", "thumb": "tn_Sinor_u0.gif", "sprite": "sp-anchoviella_juruasanga.png", "group": "other", "rarity": 1, "waterType": "Saltwater"}, {"lat": -33.4167, "lng": 6.5167, "id": "139494", "name": "Cymbulia peronii", "sprite": "sp-cowrie_shell.png", "group": "sea_snail", "rarity": 1}, {"lat": -33.0, "lng": 7.833, "id": "141446", "name": "Heteroteuthis dispar", "sprite": "sp-giant_pacific_octopus.png", "group": "octopus_squid", "rarity": 1}, {"lat": -33.4167, "lng": 6.5167, "id": "126352", "name": "Spotted barracudina", "thumb": "tn_Arris_u0.jpg", "sprite": "sp-anchoviella_juruasanga.png", "group": "other", "rarity": 1, "waterType": "Saltwater"}, {"lat": -33.2083, "lng": 7.1748, "id": "135282", "name": "Atolla wyvillei", "sprite": "sp-box_jellyfish.png", "group": "jellyfish", "rarity": 1}, {"lat": -33.4167, "lng": 6.5167, "id": "117854", "name": "Colobonema sericeum", "sprite": "sp-anchoviella_juruasanga.png", "group": "other", "rarity": 1}, {"lat": -33.0, "lng": 7.833, "id": "514136", "name": "Parasergestes armatus", "sprite": "sp-american_lobster.png", "group": "crab_lobster", "rarity": 1}, {"lat": -33.6833, "lng": 5.9, "id": "127366", "name": "Cape snaggletooth", "thumb": "tn_Necap_u0.gif", "sprite": "sp-anchoviella_juruasanga.png", "group": "other", "rarity": 1, "waterType": "Saltwater"}, {"lat": -33.4167, "lng": 6.5167, "id": "126840", "name": "Black swallower", "thumb": "tn_Chnig_ue.jpg", "sprite": "sp-anchoviella_juruasanga.png", "group": "other", "rarity": 1, "waterType": "Saltwater"}, {"lat": -33.4167, "lng": 7.6, "id": "107122", "name": "Lucifer typus", "sprite": "sp-american_lobster.png", "group": "crab_lobster", "rarity": 1}, {"lat": -33.4167, "lng": 6.5167, "id": "119921", "name": "Eucopia unguiculata", "sprite": "sp-american_lobster.png", "group": "crab_lobster", "rarity": 1}, {"lat": -33.6833, "lng": 5.9, "id": "126538", "name": "Triplewart seadevil", "thumb": "tn_Crcou_u0.gif", "sprite": "sp-deep_sea_anglerfish.png", "group": "anglerfish", "rarity": 1, "waterType": "Saltwater"}, {"lat": -33.66, "lng": 7.36, "id": "137165", "name": "Sterna paradisaea", "sprite": "sp-anchoviella_juruasanga.png", "group": "other", "rarity": 1}, {"lat": -33.55, "lng": 6.2083, "id": "127314", "name": "Diaphanous hatchet fish", "thumb": "tn_Stdia_u7.jpg", "sprite": "sp-anchoviella_juruasanga.png", "group": "other", "rarity": 1, "waterType": "Saltwater"}, {"lat": -33.4517, "lng": 6.5742, "id": "226891", "name": "Boreomysis rostrata", "sprite": "sp-american_lobster.png", "group": "crab_lobster", "rarity": 1}, {"lat": -33.4167, "lng": 6.5167, "id": "126611", "name": "Dusky lanternfish", "thumb": "tn_Laate_u0.gif", "sprite": "sp-anchoviella_juruasanga.png", "group": "other", "rarity": 1, "waterType": "Saltwater"}, {"lat": -33.4167, "lng": 6.5167, "id": "103272", "name": "Phronima sedentaria", "sprite": "sp-american_lobster.png", "group": "crab_lobster", "rarity": 1}, {"lat": -33.4167, "lng": 6.5167, "id": "102557", "name": "Cyphocaris richardi", "sprite": "sp-american_lobster.png", "group": "crab_lobster", "rarity": 1}, {"lat": -33.4517, "lng": 6.5742, "id": "117617", "name": "Halicreas minimum", "sprite": "sp-anchoviella_juruasanga.png", "group": "other", "rarity": 1}, {"lat": -33.0, "lng": 7.833, "id": "106790", "name": "Pasiphaeidae", "sprite": "sp-american_lobster.png", "group": "crab_lobster", "rarity": 1}, {"lat": -33.0, "lng": 7.5, "id": "275022", "name": "Astronesthes illuminatus", "sprite": "sp-anchoviella_juruasanga.png", "group": "other", "rarity": 1, "waterType": "Saltwater"}, {"lat": -33.3667, "lng": 6.3111, "id": "234631", "name": "Antarctic deepsea smelt", "thumb": "tn_Baant_u0.gif", "sprite": "sp-anchoviella_juruasanga.png", "group": "other", "rarity": 1, "waterType": "Saltwater"}, {"lat": -33.4167, "lng": 6.5167, "id": "221402", "name": "Pelagic cod", "thumb": "tn_Megra_u0.gif", "sprite": "sp-anchoviella_juruasanga.png", "group": "other", "rarity": 1, "waterType": "Saltwater"}, {"lat": -33.6833, "lng": 5.9, "id": "217706", "name": "Mermaid lanternfish", "thumb": "tn_Lalep_u0.gif", "sprite": "sp-anchoviella_juruasanga.png", "group": "other", "rarity": 1, "waterType": "Saltwater"}, {"lat": -33.4167, "lng": 6.5167, "id": "127358", "name": "Stoplight loosejaw", "thumb": "tn_Manig_u6.jpg", "sprite": "sp-anchoviella_juruasanga.png", "group": "other", "rarity": 1, "waterType": "Saltwater"}, {"lat": -33.2083, "lng": 6.5167, "id": "272701", "name": "Diogenes lanternfish", "sprite": "sp-anchoviella_juruasanga.png", "group": "other", "rarity": 1, "waterType": "Saltwater"}, {"lat": -33.4867, "lng": 6.6317, "id": "135471", "name": "Rosacea plicata", "sprite": "sp-anchoviella_juruasanga.png", "group": "other", "rarity": 1}, {"lat": -33.3667, "lng": 6.7389, "id": "127309", "name": "Half-naked hatchetfish", "thumb": "tn_Arhem_u6.jpg", "sprite": "sp-anchoviella_juruasanga.png", "group": "other", "rarity": 1, "waterType": "Saltwater"}, {"lat": -33.4167, "lng": 6.5167, "id": "125825", "name": "Lampanyctus", "sprite": "sp-anchoviella_juruasanga.png", "group": "other", "rarity": 1}, {"lat": -33.0, "lng": 7.833, "id": "514278", "name": "Systellaspis eltanini", "sprite": "sp-american_lobster.png", "group": "crab_lobster", "rarity": 1}, {"lat": -33.0, "lng": 7.833, "id": "181377", "name": "Chtenopteryx sicula", "sprite": "sp-giant_pacific_octopus.png", "group": "octopus_squid", "rarity": 1}, {"lat": -33.078, "lng": 6.056, "id": "137098", "name": "Grampus griseus", "sprite": "sp-bottlenose_dolphin.png", "group": "dolphin", "rarity": 1}, {"lat": -33.0, "lng": 6.0, "id": "570537", "name": "Bolitaena massyae", "sprite": "sp-giant_pacific_octopus.png", "group": "octopus_squid", "rarity": 1}, {"lat": -33.3362, "lng": 7.3048, "id": "137209", "name": "Dermochelys coriacea", "sprite": "sp-green_sea_turtle.png", "group": "sea_turtle", "rarity": 1}, {"lat": -33.3667, "lng": 6.3111, "id": "398363", "name": "Spark anglemouth", "thumb": "tn_Gobat_u2.jpg", "sprite": "sp-anchoviella_juruasanga.png", "group": "other", "rarity": 1, "waterType": "Saltwater"}, {"lat": -33.6833, "lng": 5.9, "id": "1525487", "name": "Lampanyctus wisneri", "sprite": "sp-anchoviella_juruasanga.png", "group": "other", "rarity": 1, "waterType": "Saltwater"}, {"lat": -33.55, "lng": 6.2083, "id": "127274", "name": "Poromitra megalops", "thumb": "tn_Pomeg_u0.jpg", "sprite": "sp-anchoviella_juruasanga.png", "group": "other", "rarity": 1, "waterType": "Saltwater"}, {"lat": -33.9683, "lng": 6.7833, "id": "334948", "name": "Tomopteris (Johnstonella) pacifica", "sprite": "sp-anchoviella_juruasanga.png", "group": "other", "rarity": 1}, {"lat": -33.0922, "lng": 7.0259, "id": "220222", "name": "Eubalaena australis", "sprite": "sp-blue_whale.png", "group": "whale", "rarity": 1}, {"lat": -33.4167, "lng": 6.5167, "id": "139030", "name": "Cavolinia tridentata", "sprite": "sp-cowrie_shell.png", "group": "sea_snail", "rarity": 1}, {"lat": -33.0, "lng": 7.833, "id": "342361", "name": "Lycoteuthis lorigera", "sprite": "sp-giant_pacific_octopus.png", "group": "octopus_squid", "rarity": 1}, {"lat": -33.6833, "lng": 5.9, "id": "217707", "name": "Lantern fish", "thumb": "tn_Naach_u0.jpg", "sprite": "sp-anchoviella_juruasanga.png", "group": "other", "rarity": 1, "waterType": "Saltwater"}, {"lat": -33.4167, "lng": 6.5167, "id": "127278", "name": "Bean's bigscale", "thumb": "tn_Scbea_u0.gif", "sprite": "sp-anchoviella_juruasanga.png", "group": "other", "rarity": 1, "waterType": "Saltwater"}, {"lat": -33.9683, "lng": 6.7833, "id": "129749", "name": "Alciopa reynaudii", "sprite": "sp-anchoviella_juruasanga.png", "group": "other", "rarity": 1}, {"lat": -33.8058, "lng": 6.3415, "id": "212632", "name": "Phoebetria fusca", "sprite": "sp-anchoviella_juruasanga.png", "group": "other", "rarity": 1}, {"lat": -33.4167, "lng": 6.5167, "id": "214723", "name": "Cyphocaris faurei", "sprite": "sp-american_lobster.png", "group": "crab_lobster", "rarity": 1}, {"lat": -32.9074, "lng": 7.9061, "id": "212651", "name": "Procellaria aequinoctialis", "sprite": "sp-anchoviella_juruasanga.png", "group": "other", "rarity": 1}, {"lat": -33.0, "lng": 7.0833, "id": "126841", "name": "Kali macrodon", "thumb": "tn_Kamac_u1.gif", "sprite": "sp-anchoviella_juruasanga.png", "group": "other", "rarity": 1, "waterType": "Saltwater"}, {"lat": -33.3667, "lng": 6.3111, "id": "127338", "name": "Sloane's viperfish", "thumb": "tn_Chslo_u5.jpg", "sprite": "sp-anchoviella_juruasanga.png", "group": "other", "rarity": 1, "waterType": "Saltwater"}, {"lat": -33.0, "lng": 7.833, "id": "138747", "name": "Ancistrocheirus lesueurii", "sprite": "sp-giant_pacific_octopus.png", "group": "octopus_squid", "rarity": 1}, {"lat": -33.4167, "lng": 6.5167, "id": "570539", "name": "Bolitaena massyae purpurea", "sprite": "sp-giant_pacific_octopus.png", "group": "octopus_squid", "rarity": 1}, {"lat": -33.4167, "lng": 6.5167, "id": "119920", "name": "Eucopia sculpticauda", "sprite": "sp-american_lobster.png", "group": "crab_lobster", "rarity": 1}, {"lat": -33.4167, "lng": 6.5167, "id": "236592", "name": "Streetsia challengeri", "sprite": "sp-american_lobster.png", "group": "crab_lobster", "rarity": 1}, {"lat": -33.4167, "lng": 6.5167, "id": "135294", "name": "Periphylla periphylla", "sprite": "sp-box_jellyfish.png", "group": "jellyfish", "rarity": 1}, {"lat": -33.4167, "lng": 6.5167, "id": "126614", "name": "Festive lanternfish", "thumb": "tn_Lafes_u1.gif", "sprite": "sp-anchoviella_juruasanga.png", "group": "other", "rarity": 1, "waterType": "Saltwater"}, {"lat": -33.55, "lng": 6.2083, "id": "127302", "name": "Slender lightfish", "thumb": "tn_Viatt_u1.gif", "sprite": "sp-anchoviella_juruasanga.png", "group": "other", "rarity": 1, "waterType": "Saltwater"}, {"lat": -33.4167, "lng": 6.5167, "id": "174743", "name": "Crossota brunnea", "sprite": "sp-anchoviella_juruasanga.png", "group": "other", "rarity": 1}, {"lat": -33.0, "lng": 7.5, "id": "217616", "name": "Black dragonfish", "thumb": "tn_Idatl_u0.jpg", "sprite": "sp-anchoviella_juruasanga.png", "group": "other", "rarity": 1, "waterType": "Saltwater"}, {"lat": -32.99, "lng": 7.2667, "id": "107100", "name": "Funchalia villosa", "sprite": "sp-american_lobster.png", "group": "crab_lobster", "rarity": 1}, {"lat": -33.4167, "lng": 6.5167, "id": "103266", "name": "Lanceola serrata", "sprite": "sp-american_lobster.png", "group": "crab_lobster", "rarity": 1}, {"lat": -33.6833, "lng": 5.9, "id": "217708", "name": "Southern lanternfish", "thumb": "tn_Laaus_u4.jpg", "sprite": "sp-anchoviella_juruasanga.png", "group": "other", "rarity": 1, "waterType": "Saltwater"}, {"lat": -33.4167, "lng": 6.5167, "id": "117860", "name": "Pantachogon haeckeli", "sprite": "sp-anchoviella_juruasanga.png", "group": "other", "rarity": 1}, {"lat": -33.4167, "lng": 6.5167, "id": "127337", "name": "Dana viperfish", "thumb": "tn_Chdan_u0.gif", "sprite": "sp-anchoviella_juruasanga.png", "group": "other", "rarity": 1, "waterType": "Saltwater"}, {"lat": -33.0, "lng": 7.8, "id": "127367", "name": "Smalltooth dragonfish", "thumb": "tn_Pamic_u0.gif", "sprite": "sp-anchoviella_juruasanga.png", "group": "other", "rarity": 1, "waterType": "Saltwater"}]}