{"zoom": 7, "x": 67, "y": 38, "points": [{"lat": 58.3513, "lng": 10.8798, "id": "152397", "name": "Tellimya tenella", "sprite": "sp-blue_mussel.png", "group": "clam_mussel", "rarity": 1}, {"lat": 57.9743, "lng": 10.9401, "id": "127141", "name": "European flounder", "thumb": "tn_Plfle_u2.jpg", "sprite": "sp-atlantic_halibut.png", "group": "flatfish", "rarity": 1, "waterType": "Brackish"}, {"lat": 57.68, "lng": 10.2198, "id": "137128", "name": "Alca torda", "sprite": "sp-anchoviella_juruasanga.png", "group": "other", "rarity": 1}, {"lat": 57.7362, "lng": 9.8976, "id": "837453", "name": "Tripos horridus", "sprite": "sp-anchoviella_juruasanga.png", "group": "other", "rarity": 1}, {"lat": 57.5538, "lng": 10.7477, "id": "146932", "name": "Paraonis fulgens", "sprite": "sp-anchoviella_juruasanga.png", "group": "other", "rarity": 1}, {"lat": 57.6628, "lng": 10.5019, "id": "423507", "name": "Medicorophium affine", "sprite": "sp-american_lobster.png", "group": "crab_lobster", "rarity": 1}, {"lat": 58.1823, "lng": 10.3705, "id": "110219", "name": "Protoperidinium divergens", "sprite": "sp-anchoviella_juruasanga.png", "group": "other", "rarity": 1}, {"lat": 57.8354, "lng": 10.5965, "id": "130266", "name": "Magelona alleni", "sprite": "sp-anchoviella_juruasanga.png", "group": "other", "rarity": 1}, {"lat": 57.7764, "lng": 9.8964, "id": "104152", "name": "Calanus", "sprite": "sp-anchoviella_juruasanga.png", "group": "other", "rarity": 1}, {"lat": 58.0611, "lng": 8.6389, "id": "159047", "name": "Calidris alpina", "sprite": "sp-anchoviella_juruasanga.png", "group": "other", "rarity": 1}, {"lat": 58.3867, "lng": 10.361, "id": "141434", "name": "Abra longicallus", "sprite": "sp-blue_mussel.png", "group": "clam_mussel", "rarity": 1}, {"lat": 58.275, "lng": 10.5133, "id": "247923", "name": "Pleopis", "sprite": "sp-anchoviella_juruasanga.png", "group": "other", "rarity": 1}, {"lat": 58.275, "lng": 10.5133, "id": "237874", "name": "Thysanoessa spinifera", "sprite": "sp-antarctic_krill.png", "group": "shrimp", "rarity": 1}, {"lat": 58.498, "lng": 11.1928, "id": "126965", "name": "Ballan wrasse", "thumb": "tn_Laber_u2.jpg", "sprite": "sp-cleaner_wrasse.png", "group": "wrasse", "rarity": 1, "waterType": "Saltwater"}, {"lat": 58.3401, "lng": 11.2246, "id": "1311384", "name": "Gaillona rosea", "sprite": "sp-anchoviella_juruasanga.png", "group": "other", "rarity": 1}, {"lat": 57.618, "lng": 10.3153, "id": "130357", "name": "Nephtys cirrosa", "sprite": "sp-anchoviella_juruasanga.png", "group": "other", "rarity": 1}, {"lat": 58.3633, "lng": 11.0786, "id": "144686", "name": "Ptilota gunneri", "sprite": "sp-anchoviella_juruasanga.png", "group": "other", "rarity": 1}, {"lat": 58.2533, "lng": 11.0583, "id": "101569", "name": "Ischyrocerus", "sprite": "sp-american_lobster.png", "group": "crab_lobster", "rarity": 1}, {"lat": 57.9997, "lng": 10.9124, "id": "558", "name": "Porifera", "sprite": "sp-barrel_sponge.png", "group": "sponge", "rarity": 1}, {"lat": 58.4796, "lng": 11.1626, "id": "144672", "name": "Polysiphonia stricta", "sprite": "sp-anchoviella_juruasanga.png", "group": "other", "rarity": 1}, {"lat": 57.75, "lng": 8.5, "id": "220697", "name": "Cirolana parva", "sprite": "sp-american_lobster.png", "group": "crab_lobster", "rarity": 1}, {"lat": 57.5872, "lng": 10.5702, "id": "139547", "name": "Colpodaspis pusilla", "sprite": "sp-cowrie_shell.png", "group": "sea_snail", "rarity": 1}, {"lat": 58.4235, "lng": 11.1858, "id": "165853", "name": "Halichondria (Halichondria) panicea", "sprite": "sp-barrel_sponge.png", "group": "sponge", "rarity": 1}, {"lat": 58.1321, "lng": 10.9948, "id": "101368", "name": "Aoridae", "sprite": "sp-american_lobster.png", "group": "crab_lobster", "rarity": 1}, {"lat": 58.8044, "lng": 9.3981, "id": "147431", "name": "Arenaria interpres", "sprite": "sp-anchoviella_juruasanga.png", "group": "other", "rarity": 1}, {"lat": 58.3533, "lng": 11.24, "id": "149297", "name": "Chaetoceros ceratosporus", "sprite": "sp-anchoviella_juruasanga.png", "group": "other", "rarity": 1}, {"lat": 58.3583, "lng": 11.1375, "id": "145487", "name": "Erythrocladia irregularis", "sprite": "sp-anchoviella_juruasanga.png", "group": "other", "rarity": 1}, {"lat": 58.5138, "lng": 10.6581, "id": "101770", "name": "Stenothoe", "sprite": "sp-american_lobster.png", "group": "crab_lobster", "rarity": 1}, {"lat": 58.6031, "lng": 11.1882, "id": "162", "name": "Pyramidellidae", "sprite": "sp-cowrie_shell.png", "group": "sea_snail", "rarity": 1}, {"lat": 57.9734, "lng": 10.7555, "id": "254745", "name": "Laonome kroyeri", "sprite": "sp-anchoviella_juruasanga.png", "group": "other", "rarity": 1}, {"lat": 57.8938, "lng": 10.6728, "id": "126996", "name": "Rock gunnel", "thumb": "tn_Phgun_u1.jpg", "sprite": "sp-anchoviella_juruasanga.png", "group": "other", "rarity": 1, "waterType": "Brackish"}, {"lat": 58.3077, "lng": 10.8001, "id": "110247", "name": "Protoperidinium pentagonum", "sprite": "sp-anchoviella_juruasanga.png", "group": "other", "rarity": 1}, {"lat": 58.3657, "lng": 10.414, "id": "1268", "name": "Sipuncula", "sprite": "sp-anchoviella_juruasanga.png", "group": "other", "rarity": 1}, {"lat": 58.359, "lng": 11.1317, "id": "144705", "name": "Sphondylothamnion multifidum", "sprite": "sp-anchoviella_juruasanga.png", "group": "other", "rarity": 1}, {"lat": 57.7, "lng": 9.2167, "id": "126160", "name": "Liparis", "sprite": "sp-anchoviella_juruasanga.png", "group": "other", "rarity": 1}, {"lat": 58.4991, "lng": 8.8814, "id": "148790", "name": "Tachybaptus ruficollis", "sprite": "sp-anchoviella_juruasanga.png", "group": "other", "rarity": 1}, {"lat": 58.424, "lng": 11.186, "id": "106057", "name": "Balanidae", "sprite": "sp-anchoviella_juruasanga.png", "group": "other", "rarity": 1}, {"lat": 57.585, "lng": 8.9717, "id": "104638", "name": "Pleuromamma borealis", "sprite": "sp-anchoviella_juruasanga.png", "group": "other", "rarity": 1}, {"lat": 58.5167, "lng": 10.0833, "id": "133902", "name": "Plocamiancora arndti", "sprite": "sp-barrel_sponge.png", "group": "sponge", "rarity": 1}, {"lat": 58.3508, "lng": 11.1502, "id": "145915", "name": "Sporochnus pedunculatus", "sprite": "sp-anchoviella_juruasanga.png", "group": "other", "rarity": 1}, {"lat": 58.2533, "lng": 11.0583, "id": "101669", "name": "Cheirocratus", "sprite": "sp-american_lobster.png", "group": "crab_lobster", "rarity": 1}, {"lat": 58.487, "lng": 10.6062, "id": "129161", "name": "Eclysippe", "sprite": "sp-anchoviella_juruasanga.png", "group": "other", "rarity": 1}, {"lat": 58.3431, "lng": 11.1301, "id": "127029", "name": "Atlantic bluefin tuna", "thumb": "tn_Ththy_ug.jpg", "sprite": "sp-bluefin_tuna.png", "group": "tuna_mackerel", "rarity": 1, "waterType": "Brackish"}, {"lat": 58.0784, "lng": 10.256, "id": "149023", "name": "Ditylum brightwellii", "sprite": "sp-anchoviella_juruasanga.png", "group": "other", "rarity": 1}, {"lat": 57.567, "lng": 10.4422, "id": "102783", "name": "Megaluropus agilis", "sprite": "sp-american_lobster.png", "group": "crab_lobster", "rarity": 1}, {"lat": 58.3951, "lng": 10.8803, "id": "110524", "name": "Eudorella emarginata", "sprite": "sp-american_lobster.png", "group": "crab_lobster", "rarity": 1}, {"lat": 58.1307, "lng": 10.1245, "id": "105", "name": "Bivalvia", "sprite": "sp-blue_mussel.png", "group": "clam_mussel", "rarity": 1}, {"lat": 58.3615, "lng": 8.7038, "id": "1610477", "name": "Belknapchiton alveolus", "sprite": "sp-anchoviella_juruasanga.png", "group": "other", "rarity": 1}, {"lat": 57.9456, "lng": 10.0889, "id": "104878", "name": "Temora longicornis", "sprite": "sp-anchoviella_juruasanga.png", "group": "other", "rarity": 1}, {"lat": 58.0167, "lng": 10.4002, "id": "149152", "name": "Pseudo-nitzschia seriata", "sprite": "sp-anchoviella_juruasanga.png", "group": "other", "rarity": 1}, {"lat": 58.2076, "lng": 10.9393, "id": "130131", "name": "Glycera unicornis", "sprite": "sp-anchoviella_juruasanga.png", "group": "other", "rarity": 1}, {"lat": 58.3505, "lng": 10.8159, "id": "939", "name": "Polynoidae", "sprite": "sp-anchoviella_juruasanga.png", "group": "other", "rarity": 1}, {"lat": 58.2223, "lng": 10.4225, "id": "233619", "name": "Heterocapsa minima", "sprite": "sp-anchoviella_juruasanga.png", "group": "other", "rarity": 1}, {"lat": 57.4738, "lng": 8.8996, "id": "126756", "name": "Great sandeel", "thumb": "tn_Hylan_u0.jpg", "sprite": "sp-anchoviella_juruasanga.png", "group": "other", "rarity": 1, "waterType": "Brackish"}, {"lat": 58.35, "lng": 11.2167, "id": "126306", "name": "Slender snipe eel", "thumb": "tn_Nesco_u3.jpg", "sprite": "sp-electric_eel.png", "group": "eel", "rarity": 1, "waterType": "Saltwater"}, {"lat": 57.8794, "lng": 10.4577, "id": "1133", "name": "Tanaidacea", "sprite": "sp-american_lobster.png", "group": "crab_lobster", "rarity": 1}, {"lat": 58.275, "lng": 10.5133, "id": "160528", "name": "Pseudo-nitzschia pungens", "sprite": "sp-anchoviella_juruasanga.png", "group": "other", "rarity": 1}, {"lat": 58.319, "lng": 8.6019, "id": "141148", "name": "Rissoella globularis", "sprite": "sp-cowrie_shell.png", "group": "sea_snail", "rarity": 1}, {"lat": 58.0246, "lng": 10.853, "id": "102387", "name": "Photis reinhardi", "sprite": "sp-american_lobster.png", "group": "crab_lobster", "rarity": 1}, {"lat": 58.3722, "lng": 10.5921, "id": "130238", "name": "Lumbrineris aniara", "sprite": "sp-anchoviella_juruasanga.png", "group": "other", "rarity": 1}, {"lat": 58.3296, "lng": 8.6139, "id": "141023", "name": "Odostomia umbilicaris", "sprite": "sp-cowrie_shell.png", "group": "sea_snail", "rarity": 1}, {"lat": 58.2583, "lng": 11.0558, "id": "101928", "name": "Ampelisca spinipes", "sprite": "sp-american_lobster.png", "group": "crab_lobster", "rarity": 1}, {"lat": 58.5376, "lng": 10.7638, "id": "130506", "name": "Ophelina minima", "sprite": "sp-anchoviella_juruasanga.png", "group": "other", "rarity": 1}, {"lat": 58.1736, "lng": 10.2201, "id": "106656", "name": "Oithona similis", "sprite": "sp-anchoviella_juruasanga.png", "group": "other", "rarity": 1}, {"lat": 58.0917, "lng": 9.7489, "id": "1371", "name": "Siphonophorae", "sprite": "sp-anchoviella_juruasanga.png", "group": "other", "rarity": 1}, {"lat": 58.3416, "lng": 8.6342, "id": "141358", "name": "Rissoa lilacina", "sprite": "sp-cowrie_shell.png", "group": "sea_snail", "rarity": 1}, {"lat": 58.3512, "lng": 11.157, "id": "497297", "name": "Chaetopteris plumosa", "sprite": "sp-anchoviella_juruasanga.png", "group": "other", "rarity": 1}, {"lat": 57.4833, "lng": 11.2333, "id": "137185", "name": "Gavia adamsii", "sprite": "sp-anchoviella_juruasanga.png", "group": "other", "rarity": 1}, {"lat": 58.4396, "lng": 10.5618, "id": "123813", "name": "Stichastrella rosea", "sprite": "sp-sea_cucumber.png", "group": "starfish", "rarity": 1}, {"lat": 58.3167, "lng": 10.4833, "id": "868940", "name": "Deontolaimus paraguillei", "sprite": "sp-anchoviella_juruasanga.png", "group": "other", "rarity": 1}, {"lat": 57.75, "lng": 9.4, "id": "887519", "name": "Pectinaria", "sprite": "sp-anchoviella_juruasanga.png", "group": "other", "rarity": 1}, {"lat": 58.4402, "lng": 10.5658, "id": "123335", "name": "Pteraster", "sprite": "sp-sea_cucumber.png", "group": "starfish", "rarity": 1}, {"lat": 58.3215, "lng": 8.5972, "id": "196375", "name": "Antalis dentalis", "sprite": "sp-anchoviella_juruasanga.png", "group": "other", "rarity": 1}, {"lat": 58.275, "lng": 10.5133, "id": "148378", "name": "Phoronidae", "sprite": "sp-anchoviella_juruasanga.png", "group": "other", "rarity": 1}, {"lat": 58.75, "lng": 8.483, "id": "105807", "name": "Iceland catshark", "thumb": "tn_Aplau_u0.jpg", "sprite": "sp-great_white_shark.png", "group": "shark", "rarity": 1, "waterType": "Saltwater"}, {"lat": 58.3137, "lng": 8.6704, "id": "140242", "name": "Limatula subauriculata", "sprite": "sp-blue_mussel.png", "group": "clam_mussel", "rarity": 1}, {"lat": 58.5525, "lng": 10.8058, "id": "1245747", "name": "Desmophyllum pertusum", "sprite": "sp-actiniidae.png", "group": "coral", "rarity": 1}, {"lat": 57.52, "lng": 9.4, "id": "206833", "name": "Anthus", "sprite": "sp-anchoviella_juruasanga.png", "group": "other", "rarity": 1}, {"lat": 58.275, "lng": 10.5133, "id": "417184", "name": "Helicostomella fusiformis", "sprite": "sp-anchoviella_juruasanga.png", "group": "other", "rarity": 1}, {"lat": 57.75, "lng": 9.0, "id": "101614", "name": "Ichnopus", "sprite": "sp-american_lobster.png", "group": "crab_lobster", "rarity": 1}, {"lat": 58.3835, "lng": 10.8691, "id": "103057", "name": "Xenodice frauenfeldti", "sprite": "sp-american_lobster.png", "group": "crab_lobster", "rarity": 1}, {"lat": 57.7967, "lng": 9.7213, "id": "137131", "name": "Fratercula arctica", "sprite": "sp-anchoviella_juruasanga.png", "group": "other", "rarity": 1}, {"lat": 58.4508, "lng": 10.8871, "id": "130581", "name": "Paradoneis eliasoni", "sprite": "sp-anchoviella_juruasanga.png", "group": "other", "rarity": 1}, {"lat": 57.6887, "lng": 10.4679, "id": "120020", "name": "Gastrosaccus spinifer", "sprite": "sp-american_lobster.png", "group": "crab_lobster", "rarity": 1}, {"lat": 57.4238, "lng": 10.9856, "id": "131107", "name": "Aonides paucibranchiata", "sprite": "sp-anchoviella_juruasanga.png", "group": "other", "rarity": 1}, {"lat": 58.5, "lng": 11.0, "id": "283550", "name": "Edwardsiella loveni", "sprite": "sp-actiniidae.png", "group": "coral", "rarity": 1}, {"lat": 58.1833, "lng": 10.6781, "id": "126458", "name": "Three-bearded rockling", "thumb": "tn_Gavul_u4.jpg", "sprite": "sp-anchoviella_juruasanga.png", "group": "other", "rarity": 1, "waterType": "Saltwater"}, {"lat": 58.0372, "lng": 9.3994, "id": "141138", "name": "Retusa truncatula", "sprite": "sp-cowrie_shell.png", "group": "sea_snail", "rarity": 1}, {"lat": 58.0606, "lng": 9.9929, "id": "106485", "name": "Oithona", "sprite": "sp-anchoviella_juruasanga.png", "group": "other", "rarity": 1}, {"lat": 58.1186, "lng": 10.5437, "id": "110244", "name": "Protoperidinium pallidum", "sprite": "sp-anchoviella_juruasanga.png", "group": "other", "rarity": 1}, {"lat": 57.9317, "lng": 11.0417, "id": "123825", "name": "Pedicellaster typicus", "sprite": "sp-sea_cucumber.png", "group": "starfish", "rarity": 1}, {"lat": 58.3817, "lng": 11.1533, "id": "129938", "name": "Aphelochaeta marioni", "sprite": "sp-anchoviella_juruasanga.png", "group": "other", "rarity": 1}, {"lat": 58.0734, "lng": 9.7821, "id": "128525", "name": "Protoptilum carpenterii", "sprite": "sp-actiniidae.png", "group": "coral", "rarity": 1}, {"lat": 57.6267, "lng": 9.7804, "id": "125743", "name": "Gaidropsarus", "sprite": "sp-anchoviella_juruasanga.png", "group": "other", "rarity": 1}, {"lat": 58.37, "lng": 8.7387, "id": "153952", "name": "Limaria loscombi", "sprite": "sp-blue_mussel.png", "group": "clam_mussel", "rarity": 1}, {"lat": 58.3427, "lng": 9.5024, "id": "141672", "name": "Thyasira sarsii", "sprite": "sp-blue_mussel.png", "group": "clam_mussel", "rarity": 1}, {"lat": 58.119, "lng": 10.3932, "id": "126450", "name": "Fourbeard rockling", "thumb": "tn_Encim_u2.jpg", "sprite": "sp-anchoviella_juruasanga.png", "group": "other", "rarity": 1, "waterType": "Saltwater"}, {"lat": 58.3462, "lng": 8.7075, "id": "152774", "name": "Lepidochitona cinerea", "sprite": "sp-anchoviella_juruasanga.png", "group": "other", "rarity": 1}, {"lat": 58.3214, "lng": 8.6108, "id": "140712", "name": "Pecten maximus", "sprite": "sp-blue_mussel.png", "group": "clam_mussel", "rarity": 1}, {"lat": 58.3879, "lng": 10.6003, "id": "118802", "name": "Pleurogonium spinosissimum", "sprite": "sp-american_lobster.png", "group": "crab_lobster", "rarity": 1}, {"lat": 57.552, "lng": 10.4573, "id": "134595", "name": "Pycnogonum", "sprite": "sp-anchoviella_juruasanga.png", "group": "other", "rarity": 1}, {"lat": 58.6113, "lng": 11.1412, "id": "102347", "name": "Iphimedia obesa", "sprite": "sp-american_lobster.png", "group": "crab_lobster", "rarity": 1}, {"lat": 57.6833, "lng": 9.6167, "id": "137062", "name": "Calonectris", "sprite": "sp-anchoviella_juruasanga.png", "group": "other", "rarity": 1}, {"lat": 58.3779, "lng": 11.0035, "id": "130326", "name": "Praxillella praetermissa", "sprite": "sp-anchoviella_juruasanga.png", "group": "other", "rarity": 1}, {"lat": 57.6552, "lng": 9.8244, "id": "128634", "name": "Corycaeus", "sprite": "sp-anchoviella_juruasanga.png", "group": "other", "rarity": 1}, {"lat": 58.6333, "lng": 9.3472, "id": "160248", "name": "Curtitoma violacea", "sprite": "sp-cowrie_shell.png", "group": "sea_snail", "rarity": 1}, {"lat": 57.6232, "lng": 9.5351, "id": "104501", "name": "Isias clavipes", "sprite": "sp-anchoviella_juruasanga.png", "group": "other", "rarity": 1}, {"lat": 57.75, "lng": 9.5, "id": "1517500", "name": "Gobiiformes", "sprite": "sp-anchoviella_juruasanga.png", "group": "other", "rarity": 1}, {"lat": 58.2828, "lng": 10.586, "id": "464444", "name": "Attheya longicornis", "sprite": "sp-anchoviella_juruasanga.png", "group": "other", "rarity": 1}, {"lat": 58.6112, "lng": 11.1806, "id": "144272", "name": "Sphacelaria", "sprite": "sp-anchoviella_juruasanga.png", "group": "other", "rarity": 1}, {"lat": 58.3508, "lng": 11.1502, "id": "145603", "name": "Schmitzia hiscockiana", "sprite": "sp-anchoviella_juruasanga.png", "group": "other", "rarity": 1}, {"lat": 58.3508, "lng": 11.1502, "id": "144903", "name": "Gomontia polyrhiza", "sprite": "sp-anchoviella_juruasanga.png", "group": "other", "rarity": 1}, {"lat": 57.5, "lng": 9.0, "id": "1276", "name": "Tardigrada", "sprite": "sp-anchoviella_juruasanga.png", "group": "other", "rarity": 1}, {"lat": 58.487, "lng": 10.6062, "id": "102860", "name": "Melphidippella macra", "sprite": "sp-american_lobster.png", "group": "crab_lobster", "rarity": 1}, {"lat": 58.5104, "lng": 11.1172, "id": "144737", "name": "Apoglossum ruscifolium", "sprite": "sp-anchoviella_juruasanga.png", "group": "other", "rarity": 1}, {"lat": 58.26, "lng": 10.7134, "id": "109475", "name": "Gymnodinium", "sprite": "sp-anchoviella_juruasanga.png", "group": "other", "rarity": 1}, {"lat": 57.8714, "lng": 9.4883, "id": "1128", "name": "Euphausiacea", "sprite": "sp-antarctic_krill.png", "group": "shrimp", "rarity": 1}, {"lat": 58.276, "lng": 10.9504, "id": "130980", "name": "Scalibregma inflatum", "sprite": "sp-anchoviella_juruasanga.png", "group": "other", "rarity": 1}, {"lat": 58.2938, "lng": 10.643, "id": "129233", "name": "Spiochaetopterus", "sprite": "sp-anchoviella_juruasanga.png", "group": "other", "rarity": 1}, {"lat": 58.275, "lng": 10.5133, "id": "178825", "name": "Stenosemella", "sprite": "sp-anchoviella_juruasanga.png", "group": "other", "rarity": 1}]}