{"zoom": 7, "x": 67, "y": 46, "points": [{"lat": 44.3167, "lng": 9.2167, "id": "165519", "name": "Axinella vaceleti", "sprite": "sp-barrel_sponge.png", "group": "sponge", "rarity": 1}, {"lat": 43.9667, "lng": 9.0979, "id": "104152", "name": "Calanus", "sprite": "sp-anchoviella_juruasanga.png", "group": "other", "rarity": 1}, {"lat": 44.3356, "lng": 9.2025, "id": "2409", "name": "Paramicrolaimus", "sprite": "sp-anchoviella_juruasanga.png", "group": "other", "rarity": 1}, {"lat": 43.2625, "lng": 10.0677, "id": "558", "name": "Porifera", "sprite": "sp-barrel_sponge.png", "group": "sponge", "rarity": 1}, {"lat": 44.4026, "lng": 8.9466, "id": "271691", "name": "Common torpedo", "thumb": "tn_Totor_u2.jpg", "sprite": "sp-himantura_australis.png", "group": "ray", "rarity": 1, "waterType": "Saltwater"}, {"lat": 43.5, "lng": 10.0, "id": "195997", "name": "Syllis beneliahuae", "sprite": "sp-anchoviella_juruasanga.png", "group": "other", "rarity": 1}, {"lat": 44.0833, "lng": 9.1, "id": "104431", "name": "Haloptilus longicornis", "sprite": "sp-anchoviella_juruasanga.png", "group": "other", "rarity": 1}, {"lat": 43.7147, "lng": 10.2778, "id": "2554", "name": "Paroxystomina", "sprite": "sp-anchoviella_juruasanga.png", "group": "other", "rarity": 1}, {"lat": 43.5, "lng": 10.0, "id": "131406", "name": "Syllides convolutus", "sprite": "sp-anchoviella_juruasanga.png", "group": "other", "rarity": 1}, {"lat": 43.1, "lng": 9.0833, "id": "104638", "name": "Pleuromamma borealis", "sprite": "sp-anchoviella_juruasanga.png", "group": "other", "rarity": 1}, {"lat": 43.5833, "lng": 9.75, "id": "141509", "name": "Palazzia ausonia", "sprite": "sp-cowrie_shell.png", "group": "sea_snail", "rarity": 1}, {"lat": 44.1667, "lng": 8.9167, "id": "126287", "name": "Thinlip conger", "thumb": "tn_Gnmys_u0.jpg", "sprite": "sp-electric_eel.png", "group": "eel", "rarity": 1, "waterType": "Saltwater"}, {"lat": 44.1333, "lng": 9.1, "id": "106656", "name": "Oithona similis", "sprite": "sp-anchoviella_juruasanga.png", "group": "other", "rarity": 1}, {"lat": 44.3, "lng": 9.2, "id": "127247", "name": "Black scorpionfish", "thumb": "tn_Scpor_u0.jpg", "sprite": "sp-parascorpaena_moultoni.png", "group": "scorpionfish", "rarity": 1, "waterType": "Saltwater"}, {"lat": 44.3602, "lng": 8.9363, "id": "127083", "name": "Starry weever", "thumb": "tn_Trrad_u4.jpg", "sprite": "sp-anchoviella_juruasanga.png", "group": "other", "rarity": 1, "waterType": "Saltwater"}, {"lat": 43.3519, "lng": 9.52, "id": "1245747", "name": "Desmophyllum pertusum", "sprite": "sp-actiniidae.png", "group": "coral", "rarity": 1}, {"lat": 43.7877, "lng": 10.1782, "id": "135299", "name": "Rhizostoma pulmo", "sprite": "sp-box_jellyfish.png", "group": "jellyfish", "rarity": 1}, {"lat": 44.25, "lng": 8.57, "id": "138603", "name": "Bolma", "sprite": "sp-cowrie_shell.png", "group": "sea_snail", "rarity": 1}, {"lat": 44.0251, "lng": 9.7401, "id": "2321", "name": "Paracyatholaimoides", "sprite": "sp-anchoviella_juruasanga.png", "group": "other", "rarity": 1}, {"lat": 44.3, "lng": 9.2, "id": "127246", "name": "Small red scorpionfish", "thumb": "tn_Scnot_u0.jpg", "sprite": "sp-parascorpaena_moultoni.png", "group": "scorpionfish", "rarity": 1, "waterType": "Saltwater"}, {"lat": 43.4903, "lng": 10.3146, "id": "15308", "name": "Corallinales", "sprite": "sp-anchoviella_juruasanga.png", "group": "other", "rarity": 1}, {"lat": 43.5, "lng": 10.0, "id": "761614", "name": "Paraehlersia dionisi", "sprite": "sp-anchoviella_juruasanga.png", "group": "other", "rarity": 1}, {"lat": 43.9575, "lng": 9.3194, "id": "1371", "name": "Siphonophorae", "sprite": "sp-anchoviella_juruasanga.png", "group": "other", "rarity": 1}, {"lat": 44.3356, "lng": 9.2025, "id": "2381", "name": "Aegialoalaimus", "sprite": "sp-anchoviella_juruasanga.png", "group": "other", "rarity": 1}, {"lat": 44.1, "lng": 9.75, "id": "148703", "name": "Haplostylus lobatus", "sprite": "sp-american_lobster.png", "group": "crab_lobster", "rarity": 1}, {"lat": 43.7147, "lng": 10.2778, "id": "228679", "name": "Haliplectus minimus", "sprite": "sp-anchoviella_juruasanga.png", "group": "other", "rarity": 1}, {"lat": 44.23, "lng": 8.92, "id": "129753", "name": "Naiades cantrainii", "sprite": "sp-anchoviella_juruasanga.png", "group": "other", "rarity": 1}, {"lat": 44.3151, "lng": 9.1636, "id": "159814", "name": "Guachanche barracuda", "thumb": "tn_Spgua_u2.jpg", "sprite": "sp-sphyraena.png", "group": "barracuda", "rarity": 1, "waterType": "Brackish"}, {"lat": 44.3356, "lng": 9.2025, "id": "2404", "name": "Diodontolaimus", "sprite": "sp-anchoviella_juruasanga.png", "group": "other", "rarity": 1}, {"lat": 43.4717, "lng": 10.3333, "id": "144785", "name": "Alsidium helminthochorton", "sprite": "sp-anchoviella_juruasanga.png", "group": "other", "rarity": 1}, {"lat": 43.5, "lng": 10.0, "id": "131447", "name": "Syllis nigricirris", "sprite": "sp-anchoviella_juruasanga.png", "group": "other", "rarity": 1}, {"lat": 44.0833, "lng": 9.1, "id": "104659", "name": "Calocalanus lomonosovi", "sprite": "sp-anchoviella_juruasanga.png", "group": "other", "rarity": 1}, {"lat": 43.1523, "lng": 9.9276, "id": "989", "name": "Spirorbinae", "sprite": "sp-anchoviella_juruasanga.png", "group": "other", "rarity": 1}, {"lat": 44.2553, "lng": 9.2575, "id": "124316", "name": "Paracentrotus lividus", "sprite": "sp-sea_cucumber.png", "group": "starfish", "rarity": 1}, {"lat": 43.4717, "lng": 10.3333, "id": "141138", "name": "Retusa truncatula", "sprite": "sp-cowrie_shell.png", "group": "sea_snail", "rarity": 1}, {"lat": 44.0176, "lng": 9.1115, "id": "106485", "name": "Oithona", "sprite": "sp-anchoviella_juruasanga.png", "group": "other", "rarity": 1}, {"lat": 44.3356, "lng": 9.2025, "id": "2389", "name": "Pselionema", "sprite": "sp-anchoviella_juruasanga.png", "group": "other", "rarity": 1}, {"lat": 43.9209, "lng": 9.7319, "id": "137758", "name": "Bittium", "sprite": "sp-cowrie_shell.png", "group": "sea_snail", "rarity": 1}, {"lat": 43.7999, "lng": 10.1367, "id": "159380", "name": "Ardea", "sprite": "sp-anchoviella_juruasanga.png", "group": "other", "rarity": 1}, {"lat": 44.1333, "lng": 9.1, "id": "106659", "name": "Oithona vivida", "sprite": "sp-anchoviella_juruasanga.png", "group": "other", "rarity": 1}, {"lat": 43.63, "lng": 10.32, "id": "141115", "name": "Ranella olearium", "sprite": "sp-cowrie_shell.png", "group": "sea_snail", "rarity": 1}, {"lat": 43.4717, "lng": 10.3333, "id": "140211", "name": "Leptochiton scabridus", "sprite": "sp-anchoviella_juruasanga.png", "group": "other", "rarity": 1}, {"lat": 43.8165, "lng": 9.2652, "id": "128634", "name": "Corycaeus", "sprite": "sp-anchoviella_juruasanga.png", "group": "other", "rarity": 1}, {"lat": 44.3356, "lng": 9.2025, "id": "2346", "name": "Metachromadora", "sprite": "sp-anchoviella_juruasanga.png", "group": "other", "rarity": 1}, {"lat": 44.2, "lng": 8.68, "id": "467112", "name": "Distansescharella alcicornis", "sprite": "sp-anchoviella_juruasanga.png", "group": "other", "rarity": 1}, {"lat": 43.842, "lng": 9.5518, "id": "164", "name": "Gymnosomata", "sprite": "sp-cowrie_shell.png", "group": "sea_snail", "rarity": 1}, {"lat": 43.7818, "lng": 10.261, "id": "122222", "name": "Rhabdodemania coronata", "sprite": "sp-anchoviella_juruasanga.png", "group": "other", "rarity": 1}, {"lat": 44.73, "lng": 8.87, "id": "824004", "name": "Melanopsis narzolina italica", "sprite": "sp-cowrie_shell.png", "group": "sea_snail", "rarity": 1}, {"lat": 43.0724, "lng": 9.8261, "id": "144272", "name": "Sphacelaria", "sprite": "sp-anchoviella_juruasanga.png", "group": "other", "rarity": 1}, {"lat": 44.78, "lng": 8.92, "id": "822691", "name": "Saccoia perforata", "sprite": "sp-cowrie_shell.png", "group": "sea_snail", "rarity": 1}, {"lat": 43.4717, "lng": 10.3333, "id": "138728", "name": "Aglaja tricolorata", "sprite": "sp-cowrie_shell.png", "group": "sea_snail", "rarity": 1}, {"lat": 44.3891, "lng": 8.9685, "id": "107458", "name": "Percnon gibbesi", "sprite": "sp-american_lobster.png", "group": "crab_lobster", "rarity": 1}, {"lat": 43.8489, "lng": 10.2442, "id": "2143", "name": "Rhabditida", "sprite": "sp-anchoviella_juruasanga.png", "group": "other", "rarity": 1}, {"lat": 43.8579, "lng": 9.5875, "id": "1337", "name": "Hydrozoa", "sprite": "sp-anchoviella_juruasanga.png", "group": "other", "rarity": 1}, {"lat": 43.7275, "lng": 10.8925, "id": "1344829", "name": "Leucophytia serresi dachiardii", "sprite": "sp-cowrie_shell.png", "group": "sea_snail", "rarity": 1}, {"lat": 43.3244, "lng": 9.1914, "id": "104061", "name": "Megerlia truncata", "sprite": "sp-anchoviella_juruasanga.png", "group": "other", "rarity": 1}, {"lat": 44.3831, "lng": 8.9331, "id": "126781", "name": "Peacock blenny", "thumb": "tn_Sapav_u4.jpg", "sprite": "sp-helcogramma_ascensionis.png", "group": "blenny", "rarity": 1, "waterType": "Brackish"}, {"lat": 44.2745, "lng": 9.2384, "id": "660621", "name": "Caulerpa cylindracea", "sprite": "sp-anchoviella_juruasanga.png", "group": "other", "rarity": 1}, {"lat": 43.5617, "lng": 10.3009, "id": "143192", "name": "Papia bifida", "sprite": "sp-anchoviella_juruasanga.png", "group": "other", "rarity": 1}, {"lat": 43.4717, "lng": 10.3333, "id": "141369", "name": "Rissoa similis", "sprite": "sp-cowrie_shell.png", "group": "sea_snail", "rarity": 1}, {"lat": 44.3356, "lng": 9.2025, "id": "2416", "name": "Axonolaimus", "sprite": "sp-anchoviella_juruasanga.png", "group": "other", "rarity": 1}, {"lat": 44.3356, "lng": 9.2025, "id": "2345", "name": "Chromaspirina", "sprite": "sp-anchoviella_juruasanga.png", "group": "other", "rarity": 1}, {"lat": 44.3035, "lng": 9.1987, "id": "218429", "name": "Golden trevally", "thumb": "tn_Gnspe_u8.jpg", "sprite": "sp-anchoviella_juruasanga.png", "group": "other", "rarity": 1, "waterType": "Saltwater"}, {"lat": 43.5, "lng": 10.0, "id": "1459087", "name": "Parexogone meridionalis", "sprite": "sp-anchoviella_juruasanga.png", "group": "other", "rarity": 1}, {"lat": 44.4167, "lng": 8.95, "id": "127338", "name": "Sloane's viperfish", "thumb": "tn_Chslo_u5.jpg", "sprite": "sp-anchoviella_juruasanga.png", "group": "other", "rarity": 1, "waterType": "Saltwater"}, {"lat": 44.1697, "lng": 9.6081, "id": "138455", "name": "Pusillina", "sprite": "sp-cowrie_shell.png", "group": "sea_snail", "rarity": 1}, {"lat": 44.0833, "lng": 9.1, "id": "104468", "name": "Mesocalanus tenuicornis", "sprite": "sp-anchoviella_juruasanga.png", "group": "other", "rarity": 1}, {"lat": 43.7147, "lng": 10.2778, "id": "121296", "name": "Tarvaia angusta", "sprite": "sp-anchoviella_juruasanga.png", "group": "other", "rarity": 1}, {"lat": 43.5, "lng": 10.0, "id": "195986", "name": "Salvatoria clavata", "sprite": "sp-anchoviella_juruasanga.png", "group": "other", "rarity": 1}, {"lat": 44.38, "lng": 8.9, "id": "135160", "name": "Hoplangia durotrix", "sprite": "sp-actiniidae.png", "group": "coral", "rarity": 1}, {"lat": 44.3356, "lng": 9.2025, "id": "1", "name": "Biota", "sprite": "sp-anchoviella_juruasanga.png", "group": "other", "rarity": 1}, {"lat": 44.2574, "lng": 9.211, "id": "134110", "name": "Chondrilla nucula", "sprite": "sp-barrel_sponge.png", "group": "sponge", "rarity": 1}, {"lat": 44.3356, "lng": 9.2025, "id": "2388", "name": "Metadasynemella", "sprite": "sp-anchoviella_juruasanga.png", "group": "other", "rarity": 1}, {"lat": 44.3356, "lng": 9.2025, "id": "2499", "name": "Chaetonema", "sprite": "sp-anchoviella_juruasanga.png", "group": "other", "rarity": 1}, {"lat": 43.9604, "lng": 9.7858, "id": "137789", "name": "Eatonina", "sprite": "sp-cowrie_shell.png", "group": "sea_snail", "rarity": 1}, {"lat": 44.2635, "lng": 8.9265, "id": "127049", "name": "Annular seabream", "thumb": "tn_Diann_u4.jpg", "sprite": "sp-anchoviella_juruasanga.png", "group": "other", "rarity": 1, "waterType": "Brackish"}, {"lat": 44.5, "lng": 8.5, "id": "127187", "name": "Sea trout", "thumb": "tn_Satru_u2.jpg", "sprite": "sp-atlantic_salmon.png", "group": "salmon_trout", "rarity": 1, "waterType": "Brackish"}, {"lat": 43.8579, "lng": 9.5875, "id": "117865", "name": "Rhopalonema velatum", "sprite": "sp-anchoviella_juruasanga.png", "group": "other", "rarity": 1}, {"lat": 43.8842, "lng": 9.6363, "id": "104669", "name": "Calocalanus pavo", "sprite": "sp-anchoviella_juruasanga.png", "group": "other", "rarity": 1}, {"lat": 43.4717, "lng": 10.3333, "id": "140235", "name": "Limaria hians", "sprite": "sp-blue_mussel.png", "group": "clam_mussel", "rarity": 1}, {"lat": 43.5, "lng": 10.0, "id": "195978", "name": "Prosphaerosyllis campoyi", "sprite": "sp-anchoviella_juruasanga.png", "group": "other", "rarity": 1}, {"lat": 44.1119, "lng": 9.1, "id": "104807", "name": "Scolecithricella dentata", "sprite": "sp-anchoviella_juruasanga.png", "group": "other", "rarity": 1}, {"lat": 43.5961, "lng": 10.291, "id": "1055920", "name": "Moerella pulchella", "sprite": "sp-blue_mussel.png", "group": "clam_mussel", "rarity": 1}, {"lat": 43.4717, "lng": 10.3333, "id": "957145", "name": "Pusia tricolor", "sprite": "sp-cowrie_shell.png", "group": "sea_snail", "rarity": 1}, {"lat": 43.567, "lng": 9.475, "id": "129400", "name": "Hyalinoecia", "sprite": "sp-anchoviella_juruasanga.png", "group": "other", "rarity": 1}, {"lat": 44.3356, "lng": 9.2025, "id": "2479", "name": "Terschellingia", "sprite": "sp-anchoviella_juruasanga.png", "group": "other", "rarity": 1}, {"lat": 44.3965, "lng": 8.9399, "id": "302165", "name": "Lipophrys trigloides", "thumb": "tn_Litri_u0.jpg", "sprite": "sp-helcogramma_ascensionis.png", "group": "blenny", "rarity": 1, "waterType": "Saltwater"}, {"lat": 43.4717, "lng": 10.3333, "id": "144756", "name": "Hypoglossum hypoglossoides", "sprite": "sp-anchoviella_juruasanga.png", "group": "other", "rarity": 1}, {"lat": 44.883, "lng": 9.583, "id": "432540", "name": "Pseudorhaphitoma", "sprite": "sp-cowrie_shell.png", "group": "sea_snail", "rarity": 1}, {"lat": 43.5, "lng": 10.0, "id": "131396", "name": "Sphaerosyllis thomasi", "sprite": "sp-anchoviella_juruasanga.png", "group": "other", "rarity": 1}, {"lat": 44.0908, "lng": 9.4214, "id": "117832", "name": "Velella velella", "sprite": "sp-anchoviella_juruasanga.png", "group": "other", "rarity": 1}, {"lat": 44.1697, "lng": 9.6081, "id": "381057", "name": "Acanthocardia tuberculata", "sprite": "sp-blue_mussel.png", "group": "clam_mussel", "rarity": 1}, {"lat": 43.4717, "lng": 10.3333, "id": "156464", "name": "Tricolia pullus pullus", "sprite": "sp-cowrie_shell.png", "group": "sea_snail", "rarity": 1}, {"lat": 43.4985, "lng": 10.3054, "id": "141376", "name": "Rissoina bruguieri", "sprite": "sp-cowrie_shell.png", "group": "sea_snail", "rarity": 1}, {"lat": 43.716, "lng": 10.4, "id": "101163", "name": "Petromyzontidae", "sprite": "sp-pacific_lamprey.png", "group": "lamprey", "rarity": 1}, {"lat": 43.5, "lng": 10.0, "id": "131386", "name": "Sphaerosyllis glandulata", "sprite": "sp-anchoviella_juruasanga.png", "group": "other", "rarity": 1}, {"lat": 43.5, "lng": 10.0, "id": "131295", "name": "Exogone (Sylline) brevipes", "sprite": "sp-anchoviella_juruasanga.png", "group": "other", "rarity": 1}, {"lat": 43.55, "lng": 10.316, "id": "137718", "name": "Caecum", "sprite": "sp-cowrie_shell.png", "group": "sea_snail", "rarity": 1}, {"lat": 44.1333, "lng": 9.1, "id": "104481", "name": "Candacia longimana", "sprite": "sp-anchoviella_juruasanga.png", "group": "other", "rarity": 1}, {"lat": 44.1333, "lng": 9.1, "id": "236632", "name": "Vibilia armata", "sprite": "sp-american_lobster.png", "group": "crab_lobster", "rarity": 1}, {"lat": 43.4717, "lng": 10.3333, "id": "1473657", "name": "Duvaucelia manicata", "sprite": "sp-cowrie_shell.png", "group": "sea_snail", "rarity": 1}, {"lat": 43.8829, "lng": 9.9496, "id": "878285", "name": "Peronidia albicans", "sprite": "sp-blue_mussel.png", "group": "clam_mussel", "rarity": 1}, {"lat": 43.5, "lng": 10.0, "id": "131394", "name": "Sphaerosyllis taylori", "sprite": "sp-anchoviella_juruasanga.png", "group": "other", "rarity": 1}, {"lat": 43.2333, "lng": 9.6, "id": "124663", "name": "Pseudothyone serrifera", "sprite": "sp-sea_cucumber.png", "group": "starfish", "rarity": 1}, {"lat": 43.6727, "lng": 9.287, "id": "104499", "name": "Centropages typicus", "sprite": "sp-anchoviella_juruasanga.png", "group": "other", "rarity": 1}, {"lat": 43.4717, "lng": 10.3333, "id": "749062", "name": "Lepidochitona monterosatoi", "sprite": "sp-anchoviella_juruasanga.png", "group": "other", "rarity": 1}, {"lat": 43.5, "lng": 10.0, "id": "195983", "name": "Salvatoria alvaradoi", "sprite": "sp-anchoviella_juruasanga.png", "group": "other", "rarity": 1}, {"lat": 43.4717, "lng": 10.3333, "id": "139169", "name": "Eatonina fulgida", "sprite": "sp-cowrie_shell.png", "group": "sea_snail", "rarity": 1}, {"lat": 43.465, "lng": 9.4593, "id": "1130", "name": "Decapoda", "sprite": "sp-american_lobster.png", "group": "crab_lobster", "rarity": 1}, {"lat": 44.1697, "lng": 9.6081, "id": "138275", "name": "Ammonicera", "sprite": "sp-cowrie_shell.png", "group": "sea_snail", "rarity": 1}, {"lat": 43.4717, "lng": 10.3333, "id": "141353", "name": "Rissoa guerinii", "sprite": "sp-cowrie_shell.png", "group": "sea_snail", "rarity": 1}, {"lat": 44.4167, "lng": 8.95, "id": "126612", "name": "Jewel lanternfish", "thumb": "tn_Lacro_u0.jpg", "sprite": "sp-anchoviella_juruasanga.png", "group": "other", "rarity": 1, "waterType": "Saltwater"}, {"lat": 43.5, "lng": 10.0, "id": "195990", "name": "Salvatoria neapolitana", "sprite": "sp-anchoviella_juruasanga.png", "group": "other", "rarity": 1}, {"lat": 44.3356, "lng": 9.2025, "id": "1296200", "name": "Tricoma (Quadricoma)", "sprite": "sp-anchoviella_juruasanga.png", "group": "other", "rarity": 1}, {"lat": 44.3831, "lng": 8.9331, "id": "126761", "name": "Butterfly blenny", "thumb": "tn_Bloce_u1.jpg", "sprite": "sp-helcogramma_ascensionis.png", "group": "blenny", "rarity": 1, "waterType": "Saltwater"}, {"lat": 43.4717, "lng": 10.3333, "id": "224401", "name": "Megastomia conoidea", "sprite": "sp-cowrie_shell.png", "group": "sea_snail", "rarity": 1}, {"lat": 43.4717, "lng": 10.3333, "id": "140080", "name": "Weinkauffia turgidula", "sprite": "sp-cowrie_shell.png", "group": "sea_snail", "rarity": 1}, {"lat": 43.7458, "lng": 9.353, "id": "103356", "name": "Oikopleuridae", "sprite": "sp-anchoviella_juruasanga.png", "group": "other", "rarity": 1}, {"lat": 43.5, "lng": 10.0, "id": "131393", "name": "Sphaerosyllis piriferopsis", "sprite": "sp-anchoviella_juruasanga.png", "group": "other", "rarity": 1}, {"lat": 44.067, "lng": 9.833, "id": "140687", "name": "Aequipecten opercularis", "sprite": "sp-blue_mussel.png", "group": "clam_mussel", "rarity": 1}]}