{"zoom": 7, "x": 67, "y": 75, "points": [{"lat": -31.6417, "lng": 8.5083, "id": "127820", "name": "Mikroconchoecia curta", "sprite": "sp-anchoviella_juruasanga.png", "group": "other", "rarity": 1}, {"lat": -31.6333, "lng": 8.5667, "id": "536006", "name": "Nasoecia nasotuberculata", "sprite": "sp-anchoviella_juruasanga.png", "group": "other", "rarity": 1}, {"lat": -31.3167, "lng": 10.0133, "id": "240798", "name": "Gennadas bouvieri", "sprite": "sp-american_lobster.png", "group": "crab_lobster", "rarity": 1}, {"lat": -30.0, "lng": 9.6, "id": "2", "name": "Animalia", "sprite": "sp-anchoviella_juruasanga.png", "group": "other", "rarity": 1}, {"lat": -31.3019, "lng": 10.427, "id": "343995", "name": "Thalassarche melanophris", "sprite": "sp-anchoviella_juruasanga.png", "group": "other", "rarity": 1}, {"lat": -31.55, "lng": 8.5833, "id": "126998", "name": "Wreckfish", "thumb": "tn_Poame_f0.jpg", "sprite": "sp-anchoviella_juruasanga.png", "group": "other", "rarity": 1, "waterType": "Saltwater"}, {"lat": -31.3167, "lng": 10.1333, "id": "127338", "name": "Sloane's viperfish", "thumb": "tn_Chslo_u5.jpg", "sprite": "sp-anchoviella_juruasanga.png", "group": "other", "rarity": 1, "waterType": "Saltwater"}, {"lat": -31.3167, "lng": 10.1333, "id": "126721", "name": "Bigscale deepsea smelt", "thumb": "tn_Meber_u1.jpg", "sprite": "sp-anchoviella_juruasanga.png", "group": "other", "rarity": 1, "waterType": "Saltwater"}, {"lat": -31.9, "lng": 9.833, "id": "1056516", "name": "Prehensilosergia prehensilis", "sprite": "sp-american_lobster.png", "group": "crab_lobster", "rarity": 1}, {"lat": -31.35, "lng": 9.75, "id": "127831", "name": "Orthoconchoecia haddoni", "sprite": "sp-anchoviella_juruasanga.png", "group": "other", "rarity": 1}, {"lat": -31.35, "lng": 9.75, "id": "176603", "name": "Fellia dispar", "sprite": "sp-anchoviella_juruasanga.png", "group": "other", "rarity": 1}, {"lat": -31.3167, "lng": 10.1333, "id": "217616", "name": "Black dragonfish", "thumb": "tn_Idatl_u0.jpg", "sprite": "sp-anchoviella_juruasanga.png", "group": "other", "rarity": 1, "waterType": "Saltwater"}, {"lat": -31.35, "lng": 9.75, "id": "127797", "name": "Loricoecia ctenophora", "sprite": "sp-anchoviella_juruasanga.png", "group": "other", "rarity": 1}, {"lat": -31.55, "lng": 8.5833, "id": "219737", "name": "Bluenose warehou", "thumb": "tn_Hyant_u0.jpg", "sprite": "sp-anchoviella_juruasanga.png", "group": "other", "rarity": 1, "waterType": "Saltwater"}, {"lat": -31.35, "lng": 9.75, "id": "175693", "name": "Archiconchoecissa cucullata", "sprite": "sp-anchoviella_juruasanga.png", "group": "other", "rarity": 1}, {"lat": -31.9085, "lng": 9.858, "id": "107127", "name": "Sergestes atlanticus", "sprite": "sp-american_lobster.png", "group": "crab_lobster", "rarity": 1}, {"lat": -31.6083, "lng": 9.9832, "id": "377442", "name": "Gennadas propinquus", "sprite": "sp-american_lobster.png", "group": "crab_lobster", "rarity": 1}, {"lat": -31.35, "lng": 9.75, "id": "1314237", "name": "Parvidentoecia parvidentata", "sprite": "sp-anchoviella_juruasanga.png", "group": "other", "rarity": 1}, {"lat": -31.6333, "lng": 8.5667, "id": "127819", "name": "Mikroconchoecia acuticosta", "sprite": "sp-anchoviella_juruasanga.png", "group": "other", "rarity": 1}, {"lat": -31.35, "lng": 9.75, "id": "127777", "name": "Conchoecissa ametra", "sprite": "sp-anchoviella_juruasanga.png", "group": "other", "rarity": 1}, {"lat": -31.6333, "lng": 8.5667, "id": "127832", "name": "Orthoconchoecia secernenda", "sprite": "sp-anchoviella_juruasanga.png", "group": "other", "rarity": 1}, {"lat": -31.35, "lng": 9.75, "id": "955214", "name": "Atolla verrillii", "sprite": "sp-box_jellyfish.png", "group": "jellyfish", "rarity": 1}, {"lat": -31.3167, "lng": 10.1333, "id": "126211", "name": "Idiacanthus", "sprite": "sp-anchoviella_juruasanga.png", "group": "other", "rarity": 1}, {"lat": -31.3167, "lng": 10.1333, "id": "241271", "name": "Gennadas gilchristi", "sprite": "sp-american_lobster.png", "group": "crab_lobster", "rarity": 1}, {"lat": -31.3167, "lng": 10.1333, "id": "126619", "name": "Pygmy lanternfish", "thumb": "tn_Lapus_u0.jpg", "sprite": "sp-anchoviella_juruasanga.png", "group": "other", "rarity": 1, "waterType": "Saltwater"}, {"lat": -31.35, "lng": 9.75, "id": "172482", "name": "Conchoecilla chuni", "sprite": "sp-anchoviella_juruasanga.png", "group": "other", "rarity": 1}, {"lat": -31.3167, "lng": 10.1333, "id": "126599", "name": "Longfin lanternfish", "thumb": "tn_Diatl_u1.gif", "sprite": "sp-anchoviella_juruasanga.png", "group": "other", "rarity": 1, "waterType": "Saltwater"}, {"lat": -31.1927, "lng": 10.2684, "id": "137209", "name": "Dermochelys coriacea", "sprite": "sp-green_sea_turtle.png", "group": "sea_turtle", "rarity": 1}, {"lat": -31.764, "lng": 8.687, "id": "137095", "name": "Feresa attenuata", "sprite": "sp-bottlenose_dolphin.png", "group": "dolphin", "rarity": 1}, {"lat": -31.3167, "lng": 10.1333, "id": "217720", "name": "Barnards lanternfishes", "thumb": "tn_Sybar_u0.jpg", "sprite": "sp-anchoviella_juruasanga.png", "group": "other", "rarity": 1, "waterType": "Saltwater"}, {"lat": -31.5, "lng": 11.1167, "id": "105839", "name": "Shortfin mako", "thumb": "tn_Isoxy_u0.jpg", "sprite": "sp-great_white_shark.png", "group": "shark", "rarity": 1, "waterType": "Saltwater"}, {"lat": -31.5355, "lng": 9.894, "id": "137098", "name": "Grampus griseus", "sprite": "sp-bottlenose_dolphin.png", "group": "dolphin", "rarity": 1}, {"lat": -31.6417, "lng": 8.5083, "id": "127861", "name": "Proceroecia procera", "sprite": "sp-anchoviella_juruasanga.png", "group": "other", "rarity": 1}, {"lat": -31.3167, "lng": 10.1333, "id": "241273", "name": "Gennadas parvus", "sprite": "sp-american_lobster.png", "group": "crab_lobster", "rarity": 1}, {"lat": -31.5444, "lng": 8.9222, "id": "127830", "name": "Orthoconchoecia bispinosa", "sprite": "sp-anchoviella_juruasanga.png", "group": "other", "rarity": 1}, {"lat": -31.3167, "lng": 10.1333, "id": "107094", "name": "Gennadas capensis", "sprite": "sp-american_lobster.png", "group": "crab_lobster", "rarity": 1}, {"lat": -30.9022, "lng": 9.9657, "id": "137165", "name": "Sterna paradisaea", "sprite": "sp-anchoviella_juruasanga.png", "group": "other", "rarity": 1}, {"lat": -31.9, "lng": 9.833, "id": "107605", "name": "Systellaspis debilis", "sprite": "sp-american_lobster.png", "group": "crab_lobster", "rarity": 1}, {"lat": -31.9, "lng": 9.833, "id": "514112", "name": "Allosergestes pectinatus", "sprite": "sp-american_lobster.png", "group": "crab_lobster", "rarity": 1}, {"lat": -31.3167, "lng": 10.1333, "id": "126611", "name": "Dusky lanternfish", "thumb": "tn_Laate_u0.gif", "sprite": "sp-anchoviella_juruasanga.png", "group": "other", "rarity": 1, "waterType": "Saltwater"}, {"lat": -31.3167, "lng": 10.1333, "id": "127309", "name": "Half-naked hatchetfish", "thumb": "tn_Arhem_u6.jpg", "sprite": "sp-anchoviella_juruasanga.png", "group": "other", "rarity": 1, "waterType": "Saltwater"}, {"lat": -31.9, "lng": 9.833, "id": "246164", "name": "Gennadas incertus", "sprite": "sp-american_lobster.png", "group": "crab_lobster", "rarity": 1}, {"lat": -31.3167, "lng": 10.1333, "id": "127270", "name": "Shoulderspine bigscale", "thumb": "tn_Mesub_u0.gif", "sprite": "sp-anchoviella_juruasanga.png", "group": "other", "rarity": 1, "waterType": "Brackish"}, {"lat": -31.6333, "lng": 8.5667, "id": "127846", "name": "Paraconchoecia spinifera", "sprite": "sp-anchoviella_juruasanga.png", "group": "other", "rarity": 1}, {"lat": -31.35, "lng": 9.75, "id": "127716", "name": "Macrocypridina castanea", "sprite": "sp-anchoviella_juruasanga.png", "group": "other", "rarity": 1}, {"lat": -31.35, "lng": 9.75, "id": "176551", "name": "Mollicia amblypostha", "sprite": "sp-anchoviella_juruasanga.png", "group": "other", "rarity": 1}, {"lat": -31.3167, "lng": 10.1333, "id": "127278", "name": "Bean's bigscale", "thumb": "tn_Scbea_u0.gif", "sprite": "sp-anchoviella_juruasanga.png", "group": "other", "rarity": 1, "waterType": "Saltwater"}, {"lat": -31.3167, "lng": 10.1333, "id": "220007", "name": "Silver lightfish", "thumb": "tn_Pharg_u0.jpg", "sprite": "sp-anchoviella_juruasanga.png", "group": "other", "rarity": 1, "waterType": "Saltwater"}, {"lat": -31.3167, "lng": 10.1333, "id": "127366", "name": "Cape snaggletooth", "thumb": "tn_Necap_u0.gif", "sprite": "sp-anchoviella_juruasanga.png", "group": "other", "rarity": 1, "waterType": "Saltwater"}, {"lat": -30.8291, "lng": 9.7394, "id": "220222", "name": "Eubalaena australis", "sprite": "sp-blue_whale.png", "group": "whale", "rarity": 1}, {"lat": -31.3167, "lng": 10.1333, "id": "106828", "name": "Petalidium", "sprite": "sp-american_lobster.png", "group": "crab_lobster", "rarity": 1}, {"lat": -31.4917, "lng": 9.1583, "id": "127778", "name": "Conchoecissa imbricata", "sprite": "sp-anchoviella_juruasanga.png", "group": "other", "rarity": 1}, {"lat": -31.3167, "lng": 10.1333, "id": "127302", "name": "Slender lightfish", "thumb": "tn_Viatt_u1.gif", "sprite": "sp-anchoviella_juruasanga.png", "group": "other", "rarity": 1, "waterType": "Saltwater"}, {"lat": -31.7717, "lng": 9.1822, "id": "136980", "name": "Delphinidae", "sprite": "sp-bottlenose_dolphin.png", "group": "dolphin", "rarity": 1}, {"lat": -31.5444, "lng": 8.9222, "id": "1314243", "name": "Parthenoecia parthenoda", "sprite": "sp-anchoviella_juruasanga.png", "group": "other", "rarity": 1}, {"lat": -31.6417, "lng": 8.5083, "id": "127773", "name": "Conchoecia magna", "sprite": "sp-anchoviella_juruasanga.png", "group": "other", "rarity": 1}, {"lat": -31.3167, "lng": 10.1333, "id": "127367", "name": "Smalltooth dragonfish", "thumb": "tn_Pamic_u0.gif", "sprite": "sp-anchoviella_juruasanga.png", "group": "other", "rarity": 1, "waterType": "Saltwater"}, {"lat": -31.917, "lng": 9.883, "id": "107100", "name": "Funchalia villosa", "sprite": "sp-american_lobster.png", "group": "crab_lobster", "rarity": 1}, {"lat": -31.6417, "lng": 8.5083, "id": "127845", "name": "Paraconchoecia oblonga", "sprite": "sp-anchoviella_juruasanga.png", "group": "other", "rarity": 1}, {"lat": -31.35, "lng": 9.75, "id": "127734", "name": "Alacia valdiviae", "sprite": "sp-anchoviella_juruasanga.png", "group": "other", "rarity": 1}, {"lat": -31.3167, "lng": 10.1333, "id": "158901", "name": "Cocco's lantern fish", "thumb": "tn_Logem_u0.jpg", "sprite": "sp-anchoviella_juruasanga.png", "group": "other", "rarity": 1, "waterType": "Saltwater"}, {"lat": -31.3167, "lng": 10.1333, "id": "126631", "name": "Deepwater lanternfish", "thumb": "tn_Tabat_u0.jpg", "sprite": "sp-anchoviella_juruasanga.png", "group": "other", "rarity": 1, "waterType": "Saltwater"}, {"lat": -31.3167, "lng": 10.1333, "id": "217708", "name": "Southern lanternfish", "thumb": "tn_Laaus_u4.jpg", "sprite": "sp-anchoviella_juruasanga.png", "group": "other", "rarity": 1, "waterType": "Saltwater"}, {"lat": -31.3167, "lng": 10.1333, "id": "127314", "name": "Diaphanous hatchet fish", "thumb": "tn_Stdia_u7.jpg", "sprite": "sp-anchoviella_juruasanga.png", "group": "other", "rarity": 1, "waterType": "Saltwater"}, {"lat": -31.3167, "lng": 10.1333, "id": "1525487", "name": "Lampanyctus wisneri", "sprite": "sp-anchoviella_juruasanga.png", "group": "other", "rarity": 1, "waterType": "Saltwater"}, {"lat": -31.6083, "lng": 9.9832, "id": "514117", "name": "Deosergestes corniculum", "sprite": "sp-american_lobster.png", "group": "crab_lobster", "rarity": 1}, {"lat": -30.0, "lng": 11.0, "id": "536010", "name": "Rotundoecia teretivalvata", "sprite": "sp-anchoviella_juruasanga.png", "group": "other", "rarity": 1}, {"lat": -31.8783, "lng": 9.4927, "id": "137109", "name": "Stenella longirostris", "sprite": "sp-bottlenose_dolphin.png", "group": "dolphin", "rarity": 1}, {"lat": -31.3167, "lng": 10.1333, "id": "217707", "name": "Lantern fish", "thumb": "tn_Naach_u0.jpg", "sprite": "sp-anchoviella_juruasanga.png", "group": "other", "rarity": 1, "waterType": "Saltwater"}, {"lat": -31.3167, "lng": 10.1333, "id": "221512", "name": "Elongated bristlemouth fish", "thumb": "tn_Goelo_u3.jpg", "sprite": "sp-anchoviella_juruasanga.png", "group": "other", "rarity": 1, "waterType": "Saltwater"}, {"lat": -31.5, "lng": 11.1167, "id": "105840", "name": "Longfin mako", "thumb": "tn_Ispau_u2.jpg", "sprite": "sp-great_white_shark.png", "group": "shark", "rarity": 1, "waterType": "Saltwater"}, {"lat": -31.4689, "lng": 9.9839, "id": "820374", "name": "Pseudotanais affinis", "sprite": "sp-american_lobster.png", "group": "crab_lobster", "rarity": 1}, {"lat": -31.3167, "lng": 10.1333, "id": "1056519", "name": "Robustosergia regalis", "sprite": "sp-american_lobster.png", "group": "crab_lobster", "rarity": 1}, {"lat": -31.3167, "lng": 10.1333, "id": "127351", "name": "Longbarb dragonfish", "thumb": "tn_Flbou_u0.jpg", "sprite": "sp-anchoviella_juruasanga.png", "group": "other", "rarity": 1, "waterType": "Saltwater"}, {"lat": -30.8988, "lng": 10.4226, "id": "212651", "name": "Procellaria aequinoctialis", "sprite": "sp-anchoviella_juruasanga.png", "group": "other", "rarity": 1}, {"lat": -31.6333, "lng": 8.5667, "id": "127775", "name": "Conchoecia subarcuata", "sprite": "sp-anchoviella_juruasanga.png", "group": "other", "rarity": 1}, {"lat": -31.3167, "lng": 10.1333, "id": "217719", "name": "Bogue lanternfish", "thumb": "tn_Syboo_u1.gif", "sprite": "sp-anchoviella_juruasanga.png", "group": "other", "rarity": 1, "waterType": "Saltwater"}, {"lat": -31.3167, "lng": 10.1333, "id": "126187", "name": "Cyclothone", "sprite": "sp-anchoviella_juruasanga.png", "group": "other", "rarity": 1}, {"lat": -30.9005, "lng": 9.9855, "id": "137119", "name": "Physeter macrocephalus", "sprite": "sp-blue_whale.png", "group": "whale", "rarity": 1}, {"lat": -31.5444, "lng": 8.9222, "id": "127782", "name": "Discoconchoecia elegans", "sprite": "sp-anchoviella_juruasanga.png", "group": "other", "rarity": 1}, {"lat": -31.3167, "lng": 10.1333, "id": "126608", "name": "Mirror lanternfish", "thumb": "tn_Laspe_u0.jpg", "sprite": "sp-anchoviella_juruasanga.png", "group": "other", "rarity": 1, "waterType": "Saltwater"}, {"lat": -31.9, "lng": 9.833, "id": "107097", "name": "Gennadas tinayrei", "sprite": "sp-american_lobster.png", "group": "crab_lobster", "rarity": 1}, {"lat": -31.4689, "lng": 9.9839, "id": "237603", "name": "Peraeospinosus magnus", "sprite": "sp-american_lobster.png", "group": "crab_lobster", "rarity": 1}]}