{"zoom": 7, "x": 68, "y": 33, "points": [{"lat": 65.0833, "lng": 12.3667, "id": "127138", "name": "Atlantic halibut", "thumb": "tn_Hihip_u3.jpg", "sprite": "sp-atlantic_halibut.png", "group": "flatfish", "rarity": 1, "waterType": "Saltwater"}, {"lat": 64.9879, "lng": 11.6066, "id": "148791", "name": "Anas platyrhynchos", "sprite": "sp-anchoviella_juruasanga.png", "group": "other", "rarity": 1}, {"lat": 65.01, "lng": 11.68, "id": "137101", "name": "Lagenorhynchus albirostris", "sprite": "sp-bottlenose_dolphin.png", "group": "dolphin", "rarity": 1}, {"lat": 64.97, "lng": 12.17, "id": "137077", "name": "Odobenus rosmarus", "sprite": "sp-elephant_seal.png", "group": "seal", "rarity": 1}, {"lat": 65.2012, "lng": 11.5856, "id": "137178", "name": "Phalacrocorax aristotelis", "sprite": "sp-anchoviella_juruasanga.png", "group": "other", "rarity": 1}, {"lat": 65.058, "lng": 11.85, "id": "137102", "name": "Orcinus orca", "sprite": "sp-bottlenose_dolphin.png", "group": "dolphin", "rarity": 1}, {"lat": 65.2212, "lng": 11.5072, "id": "158943", "name": "Anas crecca", "sprite": "sp-anchoviella_juruasanga.png", "group": "other", "rarity": 1}, {"lat": 65.1122, "lng": 11.6089, "id": "159098", "name": "Mergus serrator", "sprite": "sp-anchoviella_juruasanga.png", "group": "other", "rarity": 1}, {"lat": 64.9488, "lng": 13.0013, "id": "127186", "name": "Atlantic salmon", "thumb": "tn_Sasal_ub.jpg", "sprite": "sp-atlantic_salmon.png", "group": "salmon_trout", "rarity": 1, "waterType": "Brackish"}, {"lat": 65.2484, "lng": 11.6814, "id": "137072", "name": "Melanitta fusca", "sprite": "sp-anchoviella_juruasanga.png", "group": "other", "rarity": 1}, {"lat": 65.1833, "lng": 11.65, "id": "127137", "name": "American plaice", "thumb": "tn_Hipla_u3.jpg", "sprite": "sp-atlantic_halibut.png", "group": "flatfish", "rarity": 1, "waterType": "Saltwater"}, {"lat": 64.7701, "lng": 11.6485, "id": "159089", "name": "Cygnus cygnus", "sprite": "sp-anchoviella_juruasanga.png", "group": "other", "rarity": 1}, {"lat": 65.1005, "lng": 11.502, "id": "137165", "name": "Sterna paradisaea", "sprite": "sp-anchoviella_juruasanga.png", "group": "other", "rarity": 1}, {"lat": 64.8103, "lng": 11.4101, "id": "232042", "name": "Tadorna tadorna", "sprite": "sp-anchoviella_juruasanga.png", "group": "other", "rarity": 1}, {"lat": 64.7, "lng": 14.05, "id": "127188", "name": "Arctic char", "thumb": "tn_Saalp_f0.jpg", "sprite": "sp-atlantic_salmon.png", "group": "salmon_trout", "rarity": 1, "waterType": "Brackish"}, {"lat": 65.0833, "lng": 11.7958, "id": "137117", "name": "Phocoena phocoena", "sprite": "sp-bottlenose_dolphin.png", "group": "dolphin", "rarity": 1}, {"lat": 65.1833, "lng": 11.5521, "id": "137188", "name": "Gavia stellata", "sprite": "sp-anchoviella_juruasanga.png", "group": "other", "rarity": 1}, {"lat": 65.002, "lng": 11.3071, "id": "1341", "name": "Octocorallia", "sprite": "sp-actiniidae.png", "group": "coral", "rarity": 1}, {"lat": 65.2113, "lng": 11.5927, "id": "137130", "name": "Cepphus grylle", "sprite": "sp-anchoviella_juruasanga.png", "group": "other", "rarity": 1}, {"lat": 65.0, "lng": 12.0, "id": "124043", "name": "Hippasteria phrygiana", "sprite": "sp-sea_cucumber.png", "group": "starfish", "rarity": 1}, {"lat": 64.8539, "lng": 11.6213, "id": "159197", "name": "Bucephala clangula", "sprite": "sp-anchoviella_juruasanga.png", "group": "other", "rarity": 1}, {"lat": 65.1333, "lng": 11.25, "id": "134033", "name": "Geodia macandrewii", "sprite": "sp-barrel_sponge.png", "group": "sponge", "rarity": 1}, {"lat": 65.2169, "lng": 11.92, "id": "137181", "name": "Podiceps auritus", "sprite": "sp-anchoviella_juruasanga.png", "group": "other", "rarity": 1}, {"lat": 65.0798, "lng": 11.6599, "id": "137162", "name": "Sterna hirundo", "sprite": "sp-anchoviella_juruasanga.png", "group": "other", "rarity": 1}, {"lat": 65.1808, "lng": 11.5568, "id": "137187", "name": "Gavia immer", "sprite": "sp-anchoviella_juruasanga.png", "group": "other", "rarity": 1}, {"lat": 65.0818, "lng": 11.6057, "id": "137156", "name": "Rissa tridactyla", "sprite": "sp-anchoviella_juruasanga.png", "group": "other", "rarity": 1}, {"lat": 65.2007, "lng": 11.5934, "id": "137141", "name": "Larus canus", "sprite": "sp-anchoviella_juruasanga.png", "group": "other", "rarity": 1}, {"lat": 65.1567, "lng": 11.5897, "id": "137138", "name": "Larus argentatus", "sprite": "sp-anchoviella_juruasanga.png", "group": "other", "rarity": 1}, {"lat": 65.1833, "lng": 11.65, "id": "126417", "name": "Atlantic herring", "thumb": "tn_Clhar_ub.jpg", "sprite": "sp-atlantic_herring.png", "group": "herring", "rarity": 1, "waterType": "Brackish"}, {"lat": 65.2421, "lng": 11.5449, "id": "137174", "name": "Stercorarius skua", "sprite": "sp-anchoviella_juruasanga.png", "group": "other", "rarity": 1}, {"lat": 65.0104, "lng": 11.3803, "id": "1245747", "name": "Desmophyllum pertusum", "sprite": "sp-actiniidae.png", "group": "coral", "rarity": 1}, {"lat": 65.0965, "lng": 11.8557, "id": "137149", "name": "Larus ridibundus", "sprite": "sp-anchoviella_juruasanga.png", "group": "other", "rarity": 1}, {"lat": 65.1911, "lng": 11.5688, "id": "137075", "name": "Somateria spectabilis", "sprite": "sp-anchoviella_juruasanga.png", "group": "other", "rarity": 1}, {"lat": 65.2188, "lng": 11.5214, "id": "416682", "name": "Anser anser", "sprite": "sp-anchoviella_juruasanga.png", "group": "other", "rarity": 1}, {"lat": 65.12, "lng": 11.5992, "id": "148790", "name": "Tachybaptus ruficollis", "sprite": "sp-anchoviella_juruasanga.png", "group": "other", "rarity": 1}, {"lat": 65.1806, "lng": 11.6479, "id": "137071", "name": "Clangula hyemalis", "sprite": "sp-anchoviella_juruasanga.png", "group": "other", "rarity": 1}, {"lat": 65.0833, "lng": 12.3667, "id": "126441", "name": "Saithe", "thumb": "tn_Povir_u0.jpg", "sprite": "sp-arctogadus.png", "group": "cod", "rarity": 1, "waterType": "Saltwater"}, {"lat": 64.79, "lng": 11.69, "id": "137092", "name": "Megaptera novaeangliae", "sprite": "sp-blue_whale.png", "group": "whale", "rarity": 1}, {"lat": 64.6833, "lng": 11.25, "id": "134023", "name": "Geodia barretti", "sprite": "sp-barrel_sponge.png", "group": "sponge", "rarity": 1}, {"lat": 64.8315, "lng": 11.6438, "id": "119042", "name": "Idotea chelipes", "sprite": "sp-american_lobster.png", "group": "crab_lobster", "rarity": 1}, {"lat": 65.2421, "lng": 11.6028, "id": "137172", "name": "Stercorarius parasiticus", "sprite": "sp-anchoviella_juruasanga.png", "group": "other", "rarity": 1}, {"lat": 64.417, "lng": 13.133, "id": "134688", "name": "Nymphon grossipes", "sprite": "sp-anchoviella_juruasanga.png", "group": "other", "rarity": 1}, {"lat": 65.1017, "lng": 11.7783, "id": "159172", "name": "Aythya marila", "sprite": "sp-anchoviella_juruasanga.png", "group": "other", "rarity": 1}, {"lat": 65.1833, "lng": 11.65, "id": "125815", "name": "Benthosema", "sprite": "sp-anchoviella_juruasanga.png", "group": "other", "rarity": 1}, {"lat": 65.1649, "lng": 11.4941, "id": "137073", "name": "Melanitta nigra", "sprite": "sp-anchoviella_juruasanga.png", "group": "other", "rarity": 1}, {"lat": 65.2636, "lng": 11.5988, "id": "137142", "name": "Larus fuscus", "sprite": "sp-anchoviella_juruasanga.png", "group": "other", "rarity": 1}, {"lat": 65.2024, "lng": 11.4098, "id": "159177", "name": "Branta leucopsis", "sprite": "sp-anchoviella_juruasanga.png", "group": "other", "rarity": 1}, {"lat": 65.1619, "lng": 11.5556, "id": "137185", "name": "Gavia adamsii", "sprite": "sp-anchoviella_juruasanga.png", "group": "other", "rarity": 1}, {"lat": 65.2003, "lng": 11.609, "id": "137131", "name": "Fratercula arctica", "sprite": "sp-anchoviella_juruasanga.png", "group": "other", "rarity": 1}, {"lat": 65.245, "lng": 11.585, "id": "137087", "name": "Balaenoptera acutorostrata", "sprite": "sp-blue_whale.png", "group": "whale", "rarity": 1}, {"lat": 65.2114, "lng": 11.7136, "id": "137129", "name": "Alle alle", "sprite": "sp-anchoviella_juruasanga.png", "group": "other", "rarity": 1}, {"lat": 65.1333, "lng": 12.0083, "id": "126436", "name": "Atlantic cod", "thumb": "tn_Gamor_u3.jpg", "sprite": "sp-arctogadus.png", "group": "cod", "rarity": 1, "waterType": "Brackish"}, {"lat": 64.9831, "lng": 11.5468, "id": "159097", "name": "Mergus merganser", "sprite": "sp-anchoviella_juruasanga.png", "group": "other", "rarity": 1}, {"lat": 65.1833, "lng": 11.65, "id": "126425", "name": "European sprat", "thumb": "tn_Spspr_u2.jpg", "sprite": "sp-atlantic_herring.png", "group": "herring", "rarity": 1, "waterType": "Brackish"}, {"lat": 65.2008, "lng": 11.5829, "id": "137179", "name": "Phalacrocorax carbo", "sprite": "sp-anchoviella_juruasanga.png", "group": "other", "rarity": 1}, {"lat": 65.2767, "lng": 11.6189, "id": "567449", "name": "Hydrocoloeus minutus", "sprite": "sp-anchoviella_juruasanga.png", "group": "other", "rarity": 1}, {"lat": 65.1385, "lng": 11.5511, "id": "137074", "name": "Somateria mollissima", "sprite": "sp-anchoviella_juruasanga.png", "group": "other", "rarity": 1}, {"lat": 65.0553, "lng": 11.5989, "id": "137183", "name": "Podiceps grisegena", "sprite": "sp-anchoviella_juruasanga.png", "group": "other", "rarity": 1}, {"lat": 65.2033, "lng": 11.3914, "id": "416683", "name": "Anser brachyrhynchus", "sprite": "sp-anchoviella_juruasanga.png", "group": "other", "rarity": 1}, {"lat": 65.173, "lng": 11.5947, "id": "137133", "name": "Uria aalge", "sprite": "sp-anchoviella_juruasanga.png", "group": "other", "rarity": 1}, {"lat": 65.2398, "lng": 11.5873, "id": "147431", "name": "Arenaria interpres", "sprite": "sp-anchoviella_juruasanga.png", "group": "other", "rarity": 1}, {"lat": 65.183, "lng": 11.5711, "id": "147436", "name": "Haematopus ostralegus", "sprite": "sp-anchoviella_juruasanga.png", "group": "other", "rarity": 1}, {"lat": 65.1833, "lng": 11.65, "id": "126175", "name": "Sebastes", "sprite": "sp-anchoviella_juruasanga.png", "group": "other", "rarity": 1}, {"lat": 65.1726, "lng": 11.5383, "id": "137186", "name": "Gavia arctica", "sprite": "sp-anchoviella_juruasanga.png", "group": "other", "rarity": 1}, {"lat": 65.2221, "lng": 11.7612, "id": "137128", "name": "Alca torda", "sprite": "sp-anchoviella_juruasanga.png", "group": "other", "rarity": 1}, {"lat": 65.24, "lng": 11.5334, "id": "159052", "name": "Calidris maritima", "sprite": "sp-anchoviella_juruasanga.png", "group": "other", "rarity": 1}, {"lat": 65.2925, "lng": 11.6131, "id": "159047", "name": "Calidris alpina", "sprite": "sp-anchoviella_juruasanga.png", "group": "other", "rarity": 1}, {"lat": 65.0833, "lng": 12.3667, "id": "126440", "name": "Pollack", "thumb": "tn_Popol_u4.jpg", "sprite": "sp-arctogadus.png", "group": "cod", "rarity": 1, "waterType": "Saltwater"}, {"lat": 64.8028, "lng": 11.5158, "id": "159176", "name": "Branta canadensis", "sprite": "sp-anchoviella_juruasanga.png", "group": "other", "rarity": 1}, {"lat": 65.179, "lng": 11.591, "id": "137146", "name": "Larus marinus", "sprite": "sp-anchoviella_juruasanga.png", "group": "other", "rarity": 1}, {"lat": 64.685, "lng": 11.26, "id": "137097", "name": "Globicephala melas", "sprite": "sp-bottlenose_dolphin.png", "group": "dolphin", "rarity": 1}]}