{"zoom": 7, "x": 69, "y": 67, "points": [{"lat": -9.7937, "lng": 15.2469, "id": "1013588", "name": "Redbreast tilapia", "thumb": "tn_Tiren_m0.jpg", "sprite": "sp-coptodon_rendalli.png", "group": "cichlid", "rarity": 1, "waterType": "Brackish"}, {"lat": -9.6889, "lng": 14.4192, "id": "126997", "name": "Lesser African threadfin", "thumb": "tn_Gadec_u3.jpg", "sprite": "sp-anchoviella_juruasanga.png", "group": "other", "rarity": 1, "waterType": "Brackish"}, {"lat": -8.5, "lng": 15.216, "id": "210378", "name": "Penaeus monodon", "sprite": "sp-american_lobster.png", "group": "crab_lobster", "rarity": 1}, {"lat": -9.7099, "lng": 15.2301, "id": "1486708", "name": "Hoplobatrachus occipitalis", "sprite": "sp-anchoviella_juruasanga.png", "group": "other", "rarity": 1}, {"lat": -9.7833, "lng": 16.4333, "id": "1488236", "name": "Ptychadena oxyrhynchus", "sprite": "sp-anchoviella_juruasanga.png", "group": "other", "rarity": 1}, {"lat": -9.7867, "lng": 15.2294, "id": "279194", "name": "Three spotted tilapia", "thumb": "tn_Orand_u0.jpg", "sprite": "sp-coptodon_louka.png", "group": "cichlid", "rarity": 1, "waterType": "Brackish"}, {"lat": -9.5667, "lng": 14.2667, "id": "105886", "name": "Brown ray", "thumb": "tn_Ramir_u1.jpg", "sprite": "sp-himantura_australis.png", "group": "ray", "rarity": 1, "waterType": "Brackish"}, {"lat": -8.5, "lng": 15.216, "id": "212303", "name": "Ophidiaster hemprichi", "sprite": "sp-sea_cucumber.png", "group": "starfish", "rarity": 1}, {"lat": -9.7992, "lng": 15.4686, "id": "280203", "name": "Blunt-toothed African catfish", "thumb": "tn_Clnga_u2.gif", "sprite": "sp-blue_catfish.png", "group": "catfish", "rarity": 1, "waterType": "Brackish"}, {"lat": -8.5, "lng": 15.216, "id": "459527", "name": "Aquilonastra coronata", "sprite": "sp-sea_cucumber.png", "group": "starfish", "rarity": 1}, {"lat": -8.5, "lng": 15.216, "id": "212302", "name": "Ophidiaster granifer", "sprite": "sp-sea_cucumber.png", "group": "starfish", "rarity": 1}, {"lat": -9.5367, "lng": 14.2689, "id": "408896", "name": "Gonodactylaceus randalli", "sprite": "sp-american_lobster.png", "group": "crab_lobster", "rarity": 1}, {"lat": -9.6892, "lng": 14.4192, "id": "1485165", "name": "Ptychadena mascareniensis", "sprite": "sp-anchoviella_juruasanga.png", "group": "other", "rarity": 1}, {"lat": -9.691, "lng": 14.4213, "id": "282187", "name": "Bigtoothed pellonula", "thumb": "tn_Pevor_u0.gif", "sprite": "sp-anchoviella_juruasanga.png", "group": "other", "rarity": 1, "waterType": "Brackish"}, {"lat": -9.7822, "lng": 15.4981, "id": "293642", "name": "Black tilapia", "thumb": "tn_Orpla_u1.gif", "sprite": "sp-coptodon_louka.png", "group": "cichlid", "rarity": 1, "waterType": "Brackish"}, {"lat": -9.7572, "lng": 14.4986, "id": "281816", "name": "Ansorge's fangtooth pellonuline", "thumb": "tn_Cyans_u0.gif", "sprite": "sp-anchoviella_juruasanga.png", "group": "other", "rarity": 1, "waterType": "Brackish"}, {"lat": -10.333, "lng": 15.383, "id": "443857", "name": "Tetralia cinctipes", "sprite": "sp-american_lobster.png", "group": "crab_lobster", "rarity": 1}, {"lat": -9.7117, "lng": 14.4456, "id": "279195", "name": "Oreochromis angolensis", "sprite": "sp-coptodon_louka.png", "group": "cichlid", "rarity": 1, "waterType": "Brackish"}, {"lat": -9.5225, "lng": 14.3861, "id": "280675", "name": "Enneacampus ansorgii", "thumb": "tn_Enans_u0.jpg", "sprite": "sp-cosmocampus_coccineus.png", "group": "seahorse", "rarity": 1, "waterType": "Brackish"}, {"lat": -9.6029, "lng": 14.4687, "id": "279648", "name": "Banded lampeye", "sprite": "sp-anchoviella_juruasanga.png", "group": "other", "rarity": 1, "waterType": "Brackish"}, {"lat": -9.507, "lng": 14.115, "id": "137165", "name": "Sterna paradisaea", "sprite": "sp-anchoviella_juruasanga.png", "group": "other", "rarity": 1}, {"lat": -9.578, "lng": 14.3971, "id": "219387", "name": "West African freshwater goby", "thumb": "tn_Awlat_u1.jpg", "sprite": "sp-eviota_bipunctata.png", "group": "goby", "rarity": 1, "waterType": "Brackish"}, {"lat": -9.7833, "lng": 16.4333, "id": "1488242", "name": "Sclerophrys regularis", "sprite": "sp-anchoviella_juruasanga.png", "group": "other", "rarity": 1}]}