{"zoom": 7, "x": 6, "y": 55, "points": [{"lat": 23.2272, "lng": -162.5352, "id": "125278", "name": "Primnoidae", "sprite": "sp-actiniidae.png", "group": "coral", "rarity": 1}, {"lat": 23.0888, "lng": -161.9409, "id": "218745", "name": "Millet butterflyfish", "thumb": "tn_Chmil_u0.jpg", "sprite": "sp-chaetodon.png", "group": "butterflyfish", "rarity": 1, "waterType": "Saltwater"}, {"lat": 23.73, "lng": -160.88, "id": "1648", "name": "Sipunculidae", "sprite": "sp-anchoviella_juruasanga.png", "group": "other", "rarity": 1}, {"lat": 23.1833, "lng": -162.4554, "id": "287649", "name": "Calyptrophora angularis", "sprite": "sp-actiniidae.png", "group": "coral", "rarity": 1}, {"lat": 23.2837, "lng": -161.0175, "id": "1371", "name": "Siphonophorae", "sprite": "sp-anchoviella_juruasanga.png", "group": "other", "rarity": 1}, {"lat": 22.5328, "lng": -161.9731, "id": "272370", "name": "Blackest whiptail", "thumb": "tn_Hyate_u0.gif", "sprite": "sp-anchoviella_juruasanga.png", "group": "other", "rarity": 1, "waterType": "Saltwater"}, {"lat": 22.7208, "lng": -161.0585, "id": "277483", "name": "Hawaiian anthias", "thumb": "tn_Pstho_u0.jpg", "sprite": "sp-chelidoperca_santosi.png", "group": "grouper", "rarity": 1, "waterType": "Saltwater"}, {"lat": 23.22, "lng": -163.07, "id": "208698", "name": "Dardanus gemmatus", "sprite": "sp-american_lobster.png", "group": "crab_lobster", "rarity": 1}, {"lat": 23.07, "lng": -162.082, "id": "203984", "name": "Cyrtomaia", "sprite": "sp-american_lobster.png", "group": "crab_lobster", "rarity": 1}, {"lat": 21.95, "lng": -161.5333, "id": "144087", "name": "Lobophora", "sprite": "sp-anchoviella_juruasanga.png", "group": "other", "rarity": 1}, {"lat": 23.0467, "lng": -162.1, "id": "409565", "name": "Narella vermifera", "sprite": "sp-actiniidae.png", "group": "coral", "rarity": 1}, {"lat": 23.05, "lng": -161.9167, "id": "243913", "name": "Ophiopholis bakeri", "sprite": "sp-sea_cucumber.png", "group": "starfish", "rarity": 1}, {"lat": 23.1317, "lng": -161.883, "id": "273409", "name": "Epigonus fragilis", "thumb": "tn_Epfra_u1.jpg", "sprite": "sp-anchoviella_juruasanga.png", "group": "other", "rarity": 1, "waterType": "Saltwater"}, {"lat": 23.055, "lng": -161.93, "id": "218708", "name": "Blue sea chub", "thumb": "tn_Kycin_u7.jpg", "sprite": "sp-anchoviella_juruasanga.png", "group": "other", "rarity": 1, "waterType": "Saltwater"}, {"lat": 22.8833, "lng": -162.267, "id": "218648", "name": "Yellowfin goatfish", "thumb": "tn_Muvan_u1.jpg", "sprite": "sp-anchoviella_juruasanga.png", "group": "other", "rarity": 1, "waterType": "Saltwater"}, {"lat": 23.0626, "lng": -161.3869, "id": "2", "name": "Animalia", "sprite": "sp-anchoviella_juruasanga.png", "group": "other", "rarity": 1}, {"lat": 22.7544, "lng": -160.931, "id": "125310", "name": "Muriceides", "sprite": "sp-actiniidae.png", "group": "coral", "rarity": 1}, {"lat": 23.083, "lng": -161.867, "id": "284644", "name": "Eudendrium arbuscula", "sprite": "sp-anchoviella_juruasanga.png", "group": "other", "rarity": 1}, {"lat": 23.1368, "lng": -162.2314, "id": "1311253", "name": "Hemicorallium laauense", "sprite": "sp-actiniidae.png", "group": "coral", "rarity": 1}, {"lat": 23.0713, "lng": -161.923, "id": "219625", "name": "Orangespot surgeonfish", "thumb": "tn_Acoli_u0.jpg", "sprite": "sp-acanthurus_albimento.png", "group": "surgeonfish", "rarity": 1, "waterType": "Saltwater"}, {"lat": 23.0581, "lng": -161.9259, "id": "320883", "name": "Pycnochromis vanderbilti", "sprite": "sp-chrysiptera_caesifrons.png", "group": "clownfish", "rarity": 1}, {"lat": 23.2603, "lng": -162.6518, "id": "287443", "name": "Gardineria hawaiiensis", "sprite": "sp-actiniidae.png", "group": "coral", "rarity": 1}, {"lat": 23.083, "lng": -161.867, "id": "213419", "name": "Ophionereis porrecta", "sprite": "sp-sea_cucumber.png", "group": "starfish", "rarity": 1}, {"lat": 22.8925, "lng": -161.49, "id": "218662", "name": "Parupeneus porphyreus", "thumb": "tn_Papor_u0.jpg", "sprite": "sp-anchoviella_juruasanga.png", "group": "other", "rarity": 1, "waterType": "Saltwater"}, {"lat": 23.0592, "lng": -161.924, "id": "1592293", "name": "Pycnochromis agilis", "sprite": "sp-chrysiptera_caesifrons.png", "group": "clownfish", "rarity": 1}, {"lat": 23.1, "lng": -161.97, "id": "411253", "name": "Pocillopora molokensis", "sprite": "sp-actiniidae.png", "group": "coral", "rarity": 1}, {"lat": 23.1, "lng": -161.97, "id": "291251", "name": "Tubastraea coccinea", "sprite": "sp-actiniidae.png", "group": "coral", "rarity": 1}, {"lat": 22.5328, "lng": -161.9731, "id": "345843", "name": "Great barracuda", "thumb": "tn_Spbar_ud.jpg", "sprite": "sp-sphyraena.png", "group": "barracuda", "rarity": 1, "waterType": "Brackish"}, {"lat": 23.2431, "lng": -162.631, "id": "517834", "name": "Telestula corrugata", "sprite": "sp-actiniidae.png", "group": "coral", "rarity": 1}, {"lat": 23.062, "lng": -161.927, "id": "343930", "name": "Sterna lunata", "sprite": "sp-anchoviella_juruasanga.png", "group": "other", "rarity": 1}, {"lat": 23.1, "lng": -161.97, "id": "207225", "name": "Porites lobata", "sprite": "sp-actiniidae.png", "group": "coral", "rarity": 1}, {"lat": 23.0859, "lng": -161.8836, "id": "370916", "name": "Mithrodia fisheri", "sprite": "sp-sea_cucumber.png", "group": "starfish", "rarity": 1}, {"lat": 23.0801, "lng": -162.1203, "id": "219886", "name": "Wedge-tail triggerfish", "thumb": "tn_Rhrec_u1.jpg", "sprite": "sp-balistidae.png", "group": "triggerfish", "rarity": 1, "waterType": "Saltwater"}, {"lat": 22.5299, "lng": -161.4844, "id": "136980", "name": "Delphinidae", "sprite": "sp-bottlenose_dolphin.png", "group": "dolphin", "rarity": 1}, {"lat": 23.0637, "lng": -161.9169, "id": "129238", "name": "Paleanotus", "sprite": "sp-anchoviella_juruasanga.png", "group": "other", "rarity": 1}, {"lat": 23.0628, "lng": -161.931, "id": "146346", "name": "Neosiphonia", "sprite": "sp-anchoviella_juruasanga.png", "group": "other", "rarity": 1}, {"lat": 21.95, "lng": -161.5333, "id": "375026", "name": "Asteronema breviarticulatum", "sprite": "sp-anchoviella_juruasanga.png", "group": "other", "rarity": 1}, {"lat": 22.5328, "lng": -161.9731, "id": "272439", "name": "Sphagemacrurus gibber", "sprite": "sp-anchoviella_juruasanga.png", "group": "other", "rarity": 1, "waterType": "Saltwater"}, {"lat": 23.083, "lng": -161.867, "id": "213193", "name": "Macrophiothrix demessa", "sprite": "sp-sea_cucumber.png", "group": "starfish", "rarity": 1}, {"lat": 23.0556, "lng": -161.9269, "id": "138413", "name": "Odostomia", "sprite": "sp-cowrie_shell.png", "group": "sea_snail", "rarity": 1}, {"lat": 23.263, "lng": -162.6128, "id": "103323", "name": "Bathypathes patula", "sprite": "sp-actiniidae.png", "group": "coral", "rarity": 1}, {"lat": 23.2, "lng": -162.9333, "id": "159485", "name": "Xanthichthys", "sprite": "sp-balistidae.png", "group": "triggerfish", "rarity": 1}, {"lat": 23.2783, "lng": -162.6283, "id": "429688", "name": "Laura bicornuta", "sprite": "sp-anchoviella_juruasanga.png", "group": "other", "rarity": 1}, {"lat": 23.083, "lng": -161.867, "id": "1306676", "name": "Breviturma pusilla", "sprite": "sp-sea_cucumber.png", "group": "starfish", "rarity": 1}, {"lat": 22.9778, "lng": -162.4752, "id": "277234", "name": "Rock damselfish", "thumb": "tn_Plsin_u0.jpg", "sprite": "sp-chrysiptera_caesifrons.png", "group": "clownfish", "rarity": 1, "waterType": "Saltwater"}, {"lat": 23.0556, "lng": -161.9259, "id": "218753", "name": "Teardrop butterflyfish", "thumb": "tn_Chuni_ul.jpg", "sprite": "sp-chaetodon.png", "group": "butterflyfish", "rarity": 1, "waterType": "Saltwater"}, {"lat": 22.6078, "lng": -162.0647, "id": "276652", "name": "Bryan's sand dart", "sprite": "sp-anchoviella_juruasanga.png", "group": "other", "rarity": 1, "waterType": "Brackish"}, {"lat": 22.4583, "lng": -160.6667, "id": "128800", "name": "Corycaeus speciosus", "sprite": "sp-anchoviella_juruasanga.png", "group": "other", "rarity": 1}, {"lat": 23.0556, "lng": -161.9269, "id": "880865", "name": "Chondrochelia dubia", "sprite": "sp-american_lobster.png", "group": "crab_lobster", "rarity": 1}, {"lat": 22.7523, "lng": -161.303, "id": "137111", "name": "Tursiops truncatus", "sprite": "sp-bottlenose_dolphin.png", "group": "dolphin", "rarity": 1}, {"lat": 24.067, "lng": -162.667, "id": "104745", "name": "Pontellopsis regalis", "sprite": "sp-anchoviella_juruasanga.png", "group": "other", "rarity": 1}, {"lat": 23.6167, "lng": -161.6667, "id": "126385", "name": "Tropical two-wing flyingfish", "thumb": "tn_Exvol_u2.gif", "sprite": "sp-flying_fish.png", "group": "flying_fish", "rarity": 1, "waterType": "Saltwater"}, {"lat": 22.7152, "lng": -162.3218, "id": "137107", "name": "Stenella coeruleoalba", "sprite": "sp-bottlenose_dolphin.png", "group": "dolphin", "rarity": 1}, {"lat": 22.9605, "lng": -161.5346, "id": "278007", "name": "Naso maculatus", "thumb": "tn_Namac_u0.jpg", "sprite": "sp-acanthurus_albimento.png", "group": "surgeonfish", "rarity": 1, "waterType": "Saltwater"}, {"lat": 22.9631, "lng": -161.6834, "id": "219094", "name": "Regal parrot", "thumb": "tn_Scdub_f0.jpg", "sprite": "sp-rainbow_parrotfish.png", "group": "parrotfish", "rarity": 1, "waterType": "Saltwater"}, {"lat": 23.1492, "lng": -162.3262, "id": "125294", "name": "Chrysogorgia", "sprite": "sp-actiniidae.png", "group": "coral", "rarity": 1}, {"lat": 23.1777, "lng": -162.4725, "id": "171579", "name": "Poliopogon", "sprite": "sp-barrel_sponge.png", "group": "sponge", "rarity": 1}, {"lat": 23.083, "lng": -161.867, "id": "243602", "name": "Ophiocreas caudatus obscurus", "sprite": "sp-sea_cucumber.png", "group": "starfish", "rarity": 1}, {"lat": 23.0584, "lng": -161.9241, "id": "218419", "name": "Bluefin trevally", "thumb": "tn_Camel_u0.jpg", "sprite": "sp-anchoviella_juruasanga.png", "group": "other", "rarity": 1, "waterType": "Brackish"}, {"lat": 23.2629, "lng": -162.9988, "id": "286368", "name": "Muriceides tenuis", "sprite": "sp-actiniidae.png", "group": "coral", "rarity": 1}, {"lat": 23.0833, "lng": -161.8667, "id": "1391782", "name": "Umbellula gilberti", "sprite": "sp-actiniidae.png", "group": "coral", "rarity": 1}, {"lat": 23.051, "lng": -161.8087, "id": "286956", "name": "Cladopsammia echinata", "sprite": "sp-actiniidae.png", "group": "coral", "rarity": 1}, {"lat": 23.0613, "lng": -161.9164, "id": "278848", "name": "Russet angelfish", "thumb": "tn_Cepot_u7.jpg", "sprite": "sp-holacanthus.png", "group": "angelfish", "rarity": 1, "waterType": "Saltwater"}, {"lat": 23.0783, "lng": -161.932, "id": "273349", "name": "Pebbled butterflyfish", "thumb": "tn_Chmul_u7.jpg", "sprite": "sp-chaetodon.png", "group": "butterflyfish", "rarity": 1, "waterType": "Saltwater"}, {"lat": 23.0885, "lng": -161.9559, "id": "219642", "name": "Bluelined surgeonfish", "thumb": "tn_Acnig_uk.jpg", "sprite": "sp-acanthurus_albimento.png", "group": "surgeonfish", "rarity": 1, "waterType": "Saltwater"}, {"lat": 23.0597, "lng": -161.9226, "id": "343970", "name": "Oceanodroma tristrami", "sprite": "sp-anchoviella_juruasanga.png", "group": "other", "rarity": 1}, {"lat": 23.5079, "lng": -161.2256, "id": "132", "name": "Epitoniidae", "sprite": "sp-cowrie_shell.png", "group": "sea_snail", "rarity": 1}, {"lat": 23.0588, "lng": -161.9225, "id": "210370", "name": "Stenopus hispidus", "sprite": "sp-american_lobster.png", "group": "crab_lobster", "rarity": 1}, {"lat": 22.5328, "lng": -161.9731, "id": "219634", "name": "Yellowfin surgeonfish", "thumb": "tn_Acxan_u6.jpg", "sprite": "sp-acanthurus_albimento.png", "group": "surgeonfish", "rarity": 1, "waterType": "Saltwater"}, {"lat": 23.22, "lng": -163.07, "id": "208696", "name": "Dardanus brachyops", "sprite": "sp-american_lobster.png", "group": "crab_lobster", "rarity": 1}, {"lat": 23.22, "lng": -163.07, "id": "1018702", "name": "Bluestriped chub", "thumb": "tn_Kyocy_u0.jpg", "sprite": "sp-anchoviella_juruasanga.png", "group": "other", "rarity": 1, "waterType": "Saltwater"}, {"lat": 23.055, "lng": -161.9299, "id": "279169", "name": "Pearl wrasse", "thumb": "tn_Ancuv_u0.jpg", "sprite": "sp-cleaner_wrasse.png", "group": "wrasse", "rarity": 1, "waterType": "Saltwater"}, {"lat": 23.2448, "lng": -162.1937, "id": "287037", "name": "Javania lamprotichum", "sprite": "sp-actiniidae.png", "group": "coral", "rarity": 1}, {"lat": 23.47, "lng": -161.38, "id": "110671", "name": "Euphausiidae", "sprite": "sp-antarctic_krill.png", "group": "shrimp", "rarity": 1}, {"lat": 23.0553, "lng": -161.9249, "id": "278235", "name": "Ewa blenny", "thumb": "tn_Plewa_u0.jpg", "sprite": "sp-helcogramma_ascensionis.png", "group": "blenny", "rarity": 1, "waterType": "Saltwater"}, {"lat": 23.0568, "lng": -161.9278, "id": "219060", "name": "Belted wrasse", "thumb": "tn_Stbal_u0.jpg", "sprite": "sp-cleaner_wrasse.png", "group": "wrasse", "rarity": 1, "waterType": "Saltwater"}, {"lat": 23.2533, "lng": -162.6192, "id": "125305", "name": "Isidella", "sprite": "sp-actiniidae.png", "group": "coral", "rarity": 1}, {"lat": 23.73, "lng": -160.88, "id": "13795", "name": "Epicaridea", "sprite": "sp-american_lobster.png", "group": "crab_lobster", "rarity": 1}, {"lat": 23.2234, "lng": -162.0632, "id": "724712", "name": "Pseudoanthomastus fisheri", "sprite": "sp-actiniidae.png", "group": "coral", "rarity": 1}, {"lat": 23.0637, "lng": -161.9168, "id": "2038", "name": "Enchytraeidae", "sprite": "sp-anchoviella_juruasanga.png", "group": "other", "rarity": 1}, {"lat": 23.05, "lng": -161.917, "id": "206485", "name": "Porites", "sprite": "sp-actiniidae.png", "group": "coral", "rarity": 1}, {"lat": 23.73, "lng": -160.88, "id": "137215", "name": "Doliolidae", "sprite": "sp-anchoviella_juruasanga.png", "group": "other", "rarity": 1}, {"lat": 23.0659, "lng": -161.9202, "id": "403834", "name": "Harpa goodwini", "sprite": "sp-cowrie_shell.png", "group": "sea_snail", "rarity": 1}, {"lat": 23.73, "lng": -160.88, "id": "137216", "name": "Pyrosomatidae", "sprite": "sp-anchoviella_juruasanga.png", "group": "other", "rarity": 1}, {"lat": 23.0596, "lng": -161.9219, "id": "101376", "name": "Corophiidae", "sprite": "sp-american_lobster.png", "group": "crab_lobster", "rarity": 1}, {"lat": 22.1667, "lng": -160.6167, "id": "125694", "name": "Parexocoetus", "sprite": "sp-flying_fish.png", "group": "flying_fish", "rarity": 1}, {"lat": 22.7333, "lng": -161.067, "id": "272209", "name": "Yellow-striped squirrelfish", "thumb": "tn_Saens_u1.jpg", "sprite": "sp-anchoviella_juruasanga.png", "group": "other", "rarity": 1, "waterType": "Saltwater"}, {"lat": 23.083, "lng": -161.867, "id": "513129", "name": "Aspidodiadema arcitum", "sprite": "sp-sea_cucumber.png", "group": "starfish", "rarity": 1}, {"lat": 23.2417, "lng": -162.9833, "id": "282607", "name": "Rhynchactis leptonema", "thumb": "tn_Rhlep_u1.gif", "sprite": "sp-deep_sea_anglerfish.png", "group": "anglerfish", "rarity": 1, "waterType": "Saltwater"}, {"lat": 23.3867, "lng": -161.4002, "id": "104902", "name": "Branchiostoma", "sprite": "sp-anchoviella_juruasanga.png", "group": "other", "rarity": 1}, {"lat": 22.5064, "lng": -161.7322, "id": "144012", "name": "Jania", "sprite": "sp-anchoviella_juruasanga.png", "group": "other", "rarity": 1}, {"lat": 23.1, "lng": -161.97, "id": "206952", "name": "Pocillopora grandis", "sprite": "sp-actiniidae.png", "group": "coral", "rarity": 1}, {"lat": 22.0087, "lng": -162.7412, "id": "136979", "name": "Balaenopteridae", "sprite": "sp-blue_whale.png", "group": "whale", "rarity": 1}, {"lat": 23.0602, "lng": -161.922, "id": "212595", "name": "Phaethon rubricauda", "sprite": "sp-anchoviella_juruasanga.png", "group": "other", "rarity": 1}, {"lat": 23.055, "lng": -161.93, "id": "217337", "name": "Blacktail reef shark", "thumb": "tn_Caamb_u6.jpg", "sprite": "sp-great_white_shark.png", "group": "shark", "rarity": 1, "waterType": "Saltwater"}, {"lat": 23.0815, "lng": -161.8685, "id": "520676", "name": "Bebryce brunnea", "sprite": "sp-actiniidae.png", "group": "coral", "rarity": 1}, {"lat": 22.8156, "lng": -161.147, "id": "1609357", "name": "Malacalcyonacea", "sprite": "sp-actiniidae.png", "group": "coral", "rarity": 1}, {"lat": 23.0583, "lng": -161.9279, "id": "218665", "name": "Gold-saddle goatfish", "thumb": "tn_Pacyc_u0.jpg", "sprite": "sp-anchoviella_juruasanga.png", "group": "other", "rarity": 1, "waterType": "Saltwater"}, {"lat": 22.6829, "lng": -161.9312, "id": "137105", "name": "Stenella attenuata", "sprite": "sp-bottlenose_dolphin.png", "group": "dolphin", "rarity": 1}, {"lat": 23.0637, "lng": -161.9169, "id": "137970", "name": "Eulima", "sprite": "sp-cowrie_shell.png", "group": "sea_snail", "rarity": 1}, {"lat": 22.7543, "lng": -160.9285, "id": "131694", "name": "Rossellidae", "sprite": "sp-barrel_sponge.png", "group": "sponge", "rarity": 1}, {"lat": 23.0154, "lng": -161.8097, "id": "219879", "name": "Pinktail triggerfish", "thumb": "tn_Mevid_u4.jpg", "sprite": "sp-balistidae.png", "group": "triggerfish", "rarity": 1, "waterType": "Saltwater"}, {"lat": 23.0624, "lng": -161.9291, "id": "219905", "name": "Whitespotted boxfish", "thumb": "tn_Osmel_m0.jpg", "sprite": "sp-anchoviella_juruasanga.png", "group": "other", "rarity": 1, "waterType": "Saltwater"}, {"lat": 23.0576, "lng": -161.9276, "id": "1605253", "name": "Plectroglyphidodon marginatus", "sprite": "sp-chrysiptera_caesifrons.png", "group": "clownfish", "rarity": 1}, {"lat": 22.9914, "lng": -161.7508, "id": "218656", "name": "Sidespot goatfish", "thumb": "tn_Paple_u2.jpg", "sprite": "sp-anchoviella_juruasanga.png", "group": "other", "rarity": 1, "waterType": "Saltwater"}, {"lat": 23.0628, "lng": -161.931, "id": "145606", "name": "Caulacanthus ustulatus", "sprite": "sp-anchoviella_juruasanga.png", "group": "other", "rarity": 1}, {"lat": 23.5915, "lng": -161.931, "id": "146538", "name": "Lyngbya", "sprite": "sp-anchoviella_juruasanga.png", "group": "other", "rarity": 1}, {"lat": 23.215, "lng": -162.3093, "id": "136986", "name": "Ziphiidae", "sprite": "sp-blue_whale.png", "group": "whale", "rarity": 1}, {"lat": 23.1, "lng": -161.9667, "id": "732440", "name": "Mesothuria murrayi", "sprite": "sp-sea_cucumber.png", "group": "starfish", "rarity": 1}, {"lat": 21.95, "lng": -161.5333, "id": "157084", "name": "Lyngbya aestuarii", "sprite": "sp-anchoviella_juruasanga.png", "group": "other", "rarity": 1}, {"lat": 23.083, "lng": -161.867, "id": "208734", "name": "Dardanus guttatus", "sprite": "sp-american_lobster.png", "group": "crab_lobster", "rarity": 1}, {"lat": 23.2346, "lng": -161.8347, "id": "272720", "name": "Short-jawed lanternfish", "sprite": "sp-anchoviella_juruasanga.png", "group": "other", "rarity": 1, "waterType": "Saltwater"}, {"lat": 23.0601, "lng": -161.9263, "id": "731712", "name": "Casmaria kalosmodix", "sprite": "sp-cowrie_shell.png", "group": "sea_snail", "rarity": 1}, {"lat": 23.4392, "lng": -161.0967, "id": "13703", "name": "Thecosomata", "sprite": "sp-cowrie_shell.png", "group": "sea_snail", "rarity": 1}, {"lat": 23.0602, "lng": -161.922, "id": "137060", "name": "Oceanodroma", "sprite": "sp-anchoviella_juruasanga.png", "group": "other", "rarity": 1}, {"lat": 23.2451, "lng": -162.6303, "id": "286487", "name": "Callogorgia formosa", "sprite": "sp-actiniidae.png", "group": "coral", "rarity": 1}, {"lat": 23.0574, "lng": -161.9285, "id": "277815", "name": "Twosaddle goatfish", "thumb": "tn_Pains_u0.jpg", "sprite": "sp-anchoviella_juruasanga.png", "group": "other", "rarity": 1, "waterType": "Saltwater"}, {"lat": 23.0602, "lng": -161.922, "id": "137193", "name": "Bulweria bulwerii", "sprite": "sp-anchoviella_juruasanga.png", "group": "other", "rarity": 1}, {"lat": 23.1837, "lng": -162.4559, "id": "1467969", "name": "Narella hawaiiensis", "sprite": "sp-actiniidae.png", "group": "coral", "rarity": 1}, {"lat": 23.2424, "lng": -161.7985, "id": "127314", "name": "Diaphanous hatchet fish", "thumb": "tn_Stdia_u7.jpg", "sprite": "sp-anchoviella_juruasanga.png", "group": "other", "rarity": 1, "waterType": "Saltwater"}]}