{"zoom": 7, "x": 70, "y": 28, "points": [{"lat": 70.3833, "lng": 17.7553, "id": "19542", "name": "Dinophyceae", "sprite": "sp-anchoviella_juruasanga.png", "group": "other", "rarity": 1}, {"lat": 70.1746, "lng": 17.8096, "id": "124535", "name": "Parastichopus tremulus", "sprite": "sp-sea_cucumber.png", "group": "starfish", "rarity": 1}, {"lat": 70.1302, "lng": 18.1553, "id": "1650764", "name": "Bopyrus crangorum", "sprite": "sp-american_lobster.png", "group": "crab_lobster", "rarity": 1}, {"lat": 70.39, "lng": 17.5075, "id": "149288", "name": "Chaetoceros atlanticus", "sprite": "sp-anchoviella_juruasanga.png", "group": "other", "rarity": 1}, {"lat": 70.2112, "lng": 17.4938, "id": "129903", "name": "Notoproctus oculatus", "sprite": "sp-anchoviella_juruasanga.png", "group": "other", "rarity": 1}, {"lat": 70.2842, "lng": 17.4403, "id": "102213", "name": "Haliragoides inermis", "sprite": "sp-american_lobster.png", "group": "crab_lobster", "rarity": 1}, {"lat": 70.4818, "lng": 19.5727, "id": "510499", "name": "Irregularia", "sprite": "sp-sea_cucumber.png", "group": "starfish", "rarity": 1}, {"lat": 70.3948, "lng": 16.981, "id": "101444", "name": "Amathillopsis", "sprite": "sp-american_lobster.png", "group": "crab_lobster", "rarity": 1}, {"lat": 70.1157, "lng": 18.0285, "id": "107648", "name": "Pandalina profunda", "sprite": "sp-american_lobster.png", "group": "crab_lobster", "rarity": 1}, {"lat": 70.1302, "lng": 18.1553, "id": "423725", "name": "Rostroculodes borealis", "sprite": "sp-american_lobster.png", "group": "crab_lobster", "rarity": 1}, {"lat": 70.4328, "lng": 18.754, "id": "982", "name": "Terebellidae", "sprite": "sp-anchoviella_juruasanga.png", "group": "other", "rarity": 1}, {"lat": 69.7975, "lng": 17.6177, "id": "202", "name": "Dentaliidae", "sprite": "sp-anchoviella_juruasanga.png", "group": "other", "rarity": 1}, {"lat": 70.5047, "lng": 19.4867, "id": "119842", "name": "Boreomysis", "sprite": "sp-american_lobster.png", "group": "crab_lobster", "rarity": 1}, {"lat": 69.7, "lng": 19.0, "id": "100875", "name": "Edwardsia andresi", "sprite": "sp-actiniidae.png", "group": "coral", "rarity": 1}, {"lat": 70.454, "lng": 19.1102, "id": "101864", "name": "Phtisica marina", "sprite": "sp-american_lobster.png", "group": "crab_lobster", "rarity": 1}, {"lat": 70.482, "lng": 17.7272, "id": "103024", "name": "Pleusymtes pulchella", "sprite": "sp-american_lobster.png", "group": "crab_lobster", "rarity": 1}, {"lat": 69.6667, "lng": 19.0, "id": "111558", "name": "Smittina landsborovii", "sprite": "sp-anchoviella_juruasanga.png", "group": "other", "rarity": 1}, {"lat": 70.2631, "lng": 17.7479, "id": "101958", "name": "Haploops tubicola", "sprite": "sp-american_lobster.png", "group": "crab_lobster", "rarity": 1}, {"lat": 69.9896, "lng": 17.6562, "id": "124085", "name": "Pseudarchaster parelii", "sprite": "sp-sea_cucumber.png", "group": "starfish", "rarity": 1}, {"lat": 70.1365, "lng": 17.864, "id": "125190", "name": "Ophiura (Dictenophiura) carnea", "sprite": "sp-sea_cucumber.png", "group": "starfish", "rarity": 1}, {"lat": 69.7098, "lng": 18.9182, "id": "137133", "name": "Uria aalge", "sprite": "sp-anchoviella_juruasanga.png", "group": "other", "rarity": 1}, {"lat": 70.4, "lng": 17.0167, "id": "175400", "name": "Nitzschia frigida", "sprite": "sp-anchoviella_juruasanga.png", "group": "other", "rarity": 1}, {"lat": 69.7167, "lng": 19.0844, "id": "137181", "name": "Podiceps auritus", "sprite": "sp-anchoviella_juruasanga.png", "group": "other", "rarity": 1}, {"lat": 70.3917, "lng": 17.4229, "id": "577619", "name": "Nitzschia promare", "sprite": "sp-anchoviella_juruasanga.png", "group": "other", "rarity": 1}, {"lat": 70.5085, "lng": 18.3775, "id": "163030", "name": "Phaeoceros", "sprite": "sp-anchoviella_juruasanga.png", "group": "other", "rarity": 1}, {"lat": 70.2693, "lng": 17.7518, "id": "101716", "name": "Harpinia", "sprite": "sp-american_lobster.png", "group": "crab_lobster", "rarity": 1}, {"lat": 70.2444, "lng": 18.4804, "id": "134033", "name": "Geodia macandrewii", "sprite": "sp-barrel_sponge.png", "group": "sponge", "rarity": 1}, {"lat": 69.7, "lng": 19.0, "id": "283798", "name": "Cerianthus lloydii", "sprite": "sp-actiniidae.png", "group": "coral", "rarity": 1}, {"lat": 70.3333, "lng": 18.95, "id": "157240", "name": "Dinobryon", "sprite": "sp-anchoviella_juruasanga.png", "group": "other", "rarity": 1}, {"lat": 70.2296, "lng": 18.1015, "id": "126735", "name": "Capelin", "thumb": "tn_Mavil_f0.jpg", "sprite": "sp-anchoviella_juruasanga.png", "group": "other", "rarity": 1, "waterType": "Brackish"}, {"lat": 70.1577, "lng": 17.9411, "id": "102679", "name": "Orchomene serratus", "sprite": "sp-american_lobster.png", "group": "crab_lobster", "rarity": 1}, {"lat": 70.1183, "lng": 17.1138, "id": "120191", "name": "Pseudomma roseum", "sprite": "sp-american_lobster.png", "group": "crab_lobster", "rarity": 1}, {"lat": 70.3793, "lng": 18.7587, "id": "148912", "name": "Thalassiosira", "sprite": "sp-anchoviella_juruasanga.png", "group": "other", "rarity": 1}, {"lat": 69.82, "lng": 17.63, "id": "128146", "name": "Normanicythere leioderma", "sprite": "sp-anchoviella_juruasanga.png", "group": "other", "rarity": 1}, {"lat": 70.1995, "lng": 17.3448, "id": "130136", "name": "Glycinde nordmanni", "sprite": "sp-anchoviella_juruasanga.png", "group": "other", "rarity": 1}, {"lat": 70.4434, "lng": 18.2065, "id": "129892", "name": "Mediomastus fragilis", "sprite": "sp-anchoviella_juruasanga.png", "group": "other", "rarity": 1}, {"lat": 70.4068, "lng": 18.7192, "id": "132005", "name": "Geodia", "sprite": "sp-barrel_sponge.png", "group": "sponge", "rarity": 1}, {"lat": 70.4, "lng": 17.2167, "id": "110009", "name": "Gonyaulax alaskensis", "sprite": "sp-anchoviella_juruasanga.png", "group": "other", "rarity": 1}, {"lat": 70.248, "lng": 18.4917, "id": "132095", "name": "Tetilla", "sprite": "sp-barrel_sponge.png", "group": "sponge", "rarity": 1}, {"lat": 70.1995, "lng": 17.3448, "id": "124392", "name": "Echinocardium cordatum", "sprite": "sp-sea_cucumber.png", "group": "starfish", "rarity": 1}, {"lat": 70.3948, "lng": 16.981, "id": "102181", "name": "Cleippides quadricuspis", "sprite": "sp-american_lobster.png", "group": "crab_lobster", "rarity": 1}, {"lat": 70.3777, "lng": 17.169, "id": "123143", "name": "Solasteridae", "sprite": "sp-sea_cucumber.png", "group": "starfish", "rarity": 1}, {"lat": 69.6728, "lng": 17.727, "id": "104566", "name": "Paraeuchaeta norvegica", "sprite": "sp-anchoviella_juruasanga.png", "group": "other", "rarity": 1}, {"lat": 70.2035, "lng": 17.33, "id": "107647", "name": "Pandalina brevirostris", "sprite": "sp-american_lobster.png", "group": "crab_lobster", "rarity": 1}, {"lat": 70.248, "lng": 18.4917, "id": "131594", "name": "Dendroceratida", "sprite": "sp-barrel_sponge.png", "group": "sponge", "rarity": 1}, {"lat": 69.7953, "lng": 17.6335, "id": "547398", "name": "Aglaophamus pulcher", "sprite": "sp-anchoviella_juruasanga.png", "group": "other", "rarity": 1}, {"lat": 70.3941, "lng": 17.0255, "id": "157298", "name": "Cirrophorus brevicirratus", "sprite": "sp-anchoviella_juruasanga.png", "group": "other", "rarity": 1}, {"lat": 70.4033, "lng": 18.7337, "id": "101578", "name": "Lepechinella", "sprite": "sp-american_lobster.png", "group": "crab_lobster", "rarity": 1}, {"lat": 70.2035, "lng": 17.33, "id": "130464", "name": "Hyalinoecia tubicola", "sprite": "sp-anchoviella_juruasanga.png", "group": "other", "rarity": 1}, {"lat": 70.3787, "lng": 17.6894, "id": "115106", "name": "Phaeocystis pouchetii", "sprite": "sp-anchoviella_juruasanga.png", "group": "other", "rarity": 1}, {"lat": 70.2858, "lng": 18.1447, "id": "1102", "name": "Harpacticoida", "sprite": "sp-anchoviella_juruasanga.png", "group": "other", "rarity": 1}, {"lat": 70.4817, "lng": 19.5727, "id": "130561", "name": "Aricidea hartmani", "sprite": "sp-anchoviella_juruasanga.png", "group": "other", "rarity": 1}, {"lat": 70.38, "lng": 17.565, "id": "593806", "name": "Pleurosigma clevei", "sprite": "sp-anchoviella_juruasanga.png", "group": "other", "rarity": 1}, {"lat": 70.245, "lng": 17.665, "id": "128145", "name": "Muellerina abyssicola", "sprite": "sp-anchoviella_juruasanga.png", "group": "other", "rarity": 1}, {"lat": 70.1108, "lng": 17.1132, "id": "1614", "name": "Sertulariidae", "sprite": "sp-anchoviella_juruasanga.png", "group": "other", "rarity": 1}, {"lat": 69.6667, "lng": 19.0, "id": "111173", "name": "Dendrobeania fruticosa", "sprite": "sp-anchoviella_juruasanga.png", "group": "other", "rarity": 1}, {"lat": 70.2905, "lng": 17.9532, "id": "139449", "name": "Cuspidaria lamellosa", "sprite": "sp-blue_mussel.png", "group": "clam_mussel", "rarity": 1}, {"lat": 69.6667, "lng": 19.0, "id": "111105", "name": "Schizomavella porifera", "sprite": "sp-anchoviella_juruasanga.png", "group": "other", "rarity": 1}, {"lat": 70.442, "lng": 19.167, "id": "106656", "name": "Oithona similis", "sprite": "sp-anchoviella_juruasanga.png", "group": "other", "rarity": 1}, {"lat": 70.2639, "lng": 18.513, "id": "131598", "name": "Haplosclerida", "sprite": "sp-barrel_sponge.png", "group": "sponge", "rarity": 1}, {"lat": 69.6667, "lng": 19.0, "id": "111486", "name": "Escharella klugei", "sprite": "sp-anchoviella_juruasanga.png", "group": "other", "rarity": 1}, {"lat": 70.1995, "lng": 17.3448, "id": "138508", "name": "Skenea", "sprite": "sp-cowrie_shell.png", "group": "sea_snail", "rarity": 1}, {"lat": 69.9678, "lng": 17.2728, "id": "107551", "name": "Crangon allmanni", "sprite": "sp-american_lobster.png", "group": "crab_lobster", "rarity": 1}, {"lat": 70.4468, "lng": 19.1385, "id": "141417", "name": "Anatoma crispata", "sprite": "sp-cowrie_shell.png", "group": "sea_snail", "rarity": 1}, {"lat": 70.3858, "lng": 17.7947, "id": "148899", "name": "Bacillariophyceae", "sprite": "sp-anchoviella_juruasanga.png", "group": "other", "rarity": 1}, {"lat": 70.4028, "lng": 17.9125, "id": "149152", "name": "Pseudo-nitzschia seriata", "sprite": "sp-anchoviella_juruasanga.png", "group": "other", "rarity": 1}, {"lat": 70.4724, "lng": 18.0736, "id": "130503", "name": "Ophelina cylindricaudata", "sprite": "sp-anchoviella_juruasanga.png", "group": "other", "rarity": 1}, {"lat": 70.1881, "lng": 18.2979, "id": "127143", "name": "European plaice", "thumb": "tn_Plpla_u8.jpg", "sprite": "sp-atlantic_halibut.png", "group": "flatfish", "rarity": 1, "waterType": "Brackish"}, {"lat": 70.5244, "lng": 19.1147, "id": "101447", "name": "Haploops", "sprite": "sp-american_lobster.png", "group": "crab_lobster", "rarity": 1}, {"lat": 70.3853, "lng": 17.5923, "id": "140253", "name": "Limopsis cristata", "sprite": "sp-blue_mussel.png", "group": "clam_mussel", "rarity": 1}, {"lat": 70.2807, "lng": 17.9209, "id": "101408", "name": "Stegocephalidae", "sprite": "sp-american_lobster.png", "group": "crab_lobster", "rarity": 1}, {"lat": 70.1511, "lng": 18.0329, "id": "131129", "name": "Laonice sarsi", "sprite": "sp-anchoviella_juruasanga.png", "group": "other", "rarity": 1}, {"lat": 70.1605, "lng": 17.9484, "id": "118610", "name": "Disconectes phalangium", "sprite": "sp-american_lobster.png", "group": "crab_lobster", "rarity": 1}, {"lat": 70.1147, "lng": 18.069, "id": "130360", "name": "Nephtys hystricis", "sprite": "sp-anchoviella_juruasanga.png", "group": "other", "rarity": 1}, {"lat": 70.3783, "lng": 17.9294, "id": "495363", "name": "Tripos muelleri", "sprite": "sp-anchoviella_juruasanga.png", "group": "other", "rarity": 1}, {"lat": 70.3558, "lng": 17.1662, "id": "488965", "name": "Nototropis smitti", "sprite": "sp-american_lobster.png", "group": "crab_lobster", "rarity": 1}, {"lat": 70.0005, "lng": 17.4738, "id": "127101", "name": "Sar's wolf eel", "thumb": "tn_Lysar_u0.jpg", "sprite": "sp-anchoviella_juruasanga.png", "group": "other", "rarity": 1, "waterType": "Saltwater"}, {"lat": 70.1993, "lng": 18.0973, "id": "131009", "name": "Hydroides norvegica", "sprite": "sp-anchoviella_juruasanga.png", "group": "other", "rarity": 1}, {"lat": 70.2085, "lng": 17.7605, "id": "110560", "name": "Campylaspis verrucosa", "sprite": "sp-american_lobster.png", "group": "crab_lobster", "rarity": 1}, {"lat": 69.8263, "lng": 17.3724, "id": "101918", "name": "Ampelisca pusilla", "sprite": "sp-american_lobster.png", "group": "crab_lobster", "rarity": 1}, {"lat": 70.15, "lng": 17.54, "id": "128024", "name": "Cytheropteron nodosoalatum", "sprite": "sp-anchoviella_juruasanga.png", "group": "other", "rarity": 1}, {"lat": 70.403, "lng": 17.8649, "id": "102485", "name": "Liljeborgia pallida", "sprite": "sp-american_lobster.png", "group": "crab_lobster", "rarity": 1}, {"lat": 70.3813, "lng": 17.0724, "id": "102970", "name": "Harpinia mucronata", "sprite": "sp-american_lobster.png", "group": "crab_lobster", "rarity": 1}, {"lat": 69.8497, "lng": 17.1195, "id": "110487", "name": "Diastylis rathkei", "sprite": "sp-american_lobster.png", "group": "crab_lobster", "rarity": 1}, {"lat": 70.4831, "lng": 17.7271, "id": "149", "name": "Buccinidae", "sprite": "sp-cowrie_shell.png", "group": "sea_snail", "rarity": 1}, {"lat": 70.251, "lng": 18.5305, "id": "131950", "name": "Hymedesmia", "sprite": "sp-barrel_sponge.png", "group": "sponge", "rarity": 1}, {"lat": 70.4312, "lng": 17.4273, "id": "118676", "name": "Ilyarachna hirticeps", "sprite": "sp-american_lobster.png", "group": "crab_lobster", "rarity": 1}, {"lat": 70.1357, "lng": 18.1495, "id": "129810", "name": "Melinnopsis arctica", "sprite": "sp-anchoviella_juruasanga.png", "group": "other", "rarity": 1}, {"lat": 70.3948, "lng": 16.981, "id": "123633", "name": "Ophioscolex", "sprite": "sp-sea_cucumber.png", "group": "starfish", "rarity": 1}, {"lat": 70.017, "lng": 17.6328, "id": "129884", "name": "Heteromastus filiformis", "sprite": "sp-anchoviella_juruasanga.png", "group": "other", "rarity": 1}, {"lat": 70.245, "lng": 17.665, "id": "128148", "name": "Thaerocythere crenulata", "sprite": "sp-anchoviella_juruasanga.png", "group": "other", "rarity": 1}, {"lat": 70.3667, "lng": 17.9657, "id": "172418", "name": "Fragilariopsis cylindrus", "sprite": "sp-anchoviella_juruasanga.png", "group": "other", "rarity": 1}, {"lat": 70.3948, "lng": 16.981, "id": "101603", "name": "Cyphocaris", "sprite": "sp-american_lobster.png", "group": "crab_lobster", "rarity": 1}, {"lat": 69.7, "lng": 19.0, "id": "100884", "name": "Edwardsia finmarchica", "sprite": "sp-actiniidae.png", "group": "coral", "rarity": 1}, {"lat": 70.3626, "lng": 18.0531, "id": "124419", "name": "Spatangus raschi", "sprite": "sp-sea_cucumber.png", "group": "starfish", "rarity": 1}, {"lat": 70.3404, "lng": 17.4236, "id": "1609360", "name": "Pennatuloidea", "sprite": "sp-actiniidae.png", "group": "coral", "rarity": 1}, {"lat": 69.9845, "lng": 17.7943, "id": "102201", "name": "Eusirus leptocarpus", "sprite": "sp-american_lobster.png", "group": "crab_lobster", "rarity": 1}, {"lat": 70.1252, "lng": 17.5967, "id": "140717", "name": "Pseudamussium peslutrae", "sprite": "sp-blue_mussel.png", "group": "clam_mussel", "rarity": 1}, {"lat": 70.001, "lng": 17.6087, "id": "102873", "name": "Bathymedon longimanus", "sprite": "sp-american_lobster.png", "group": "crab_lobster", "rarity": 1}, {"lat": 70.3848, "lng": 17.5159, "id": "573628", "name": "Thalassiosira antarctica var. borealis", "sprite": "sp-anchoviella_juruasanga.png", "group": "other", "rarity": 1}, {"lat": 70.4118, "lng": 18.7043, "id": "138439", "name": "Alvania", "sprite": "sp-cowrie_shell.png", "group": "sea_snail", "rarity": 1}, {"lat": 70.3797, "lng": 17.1721, "id": "120182", "name": "Pseudomma affine", "sprite": "sp-american_lobster.png", "group": "crab_lobster", "rarity": 1}, {"lat": 70.4817, "lng": 19.5727, "id": "140005", "name": "Cadulus jeffreysi", "sprite": "sp-anchoviella_juruasanga.png", "group": "other", "rarity": 1}, {"lat": 70.4118, "lng": 18.7043, "id": "238208", "name": "Apomatus globifer", "sprite": "sp-anchoviella_juruasanga.png", "group": "other", "rarity": 1}, {"lat": 70.3201, "lng": 18.8181, "id": "292941", "name": "Cymothoida", "sprite": "sp-american_lobster.png", "group": "crab_lobster", "rarity": 1}, {"lat": 70.1442, "lng": 18.5787, "id": "131495", "name": "Lanice conchilega", "sprite": "sp-anchoviella_juruasanga.png", "group": "other", "rarity": 1}, {"lat": 70.495, "lng": 19.257, "id": "109462", "name": "Dinophysis", "sprite": "sp-anchoviella_juruasanga.png", "group": "other", "rarity": 1}, {"lat": 70.1067, "lng": 17.1177, "id": "140199", "name": "Leptochiton asellus", "sprite": "sp-anchoviella_juruasanga.png", "group": "other", "rarity": 1}, {"lat": 70.4831, "lng": 17.7271, "id": "147007", "name": "Malmgrenia mcintoshi", "sprite": "sp-anchoviella_juruasanga.png", "group": "other", "rarity": 1}, {"lat": 70.1995, "lng": 17.3448, "id": "129654", "name": "Exogone", "sprite": "sp-anchoviella_juruasanga.png", "group": "other", "rarity": 1}, {"lat": 70.1566, "lng": 17.9583, "id": "153083", "name": "Rossia palpebrosa", "sprite": "sp-giant_pacific_octopus.png", "group": "octopus_squid", "rarity": 1}, {"lat": 70.2035, "lng": 17.33, "id": "137701", "name": "Buccinum", "sprite": "sp-cowrie_shell.png", "group": "sea_snail", "rarity": 1}, {"lat": 70.2705, "lng": 17.8682, "id": "131516", "name": "Pista cristata", "sprite": "sp-anchoviella_juruasanga.png", "group": "other", "rarity": 1}, {"lat": 70.03, "lng": 18.95, "id": "137077", "name": "Odobenus rosmarus", "sprite": "sp-elephant_seal.png", "group": "seal", "rarity": 1}, {"lat": 70.151, "lng": 17.4202, "id": "132480", "name": "Axinella infundibuliformis", "sprite": "sp-barrel_sponge.png", "group": "sponge", "rarity": 1}, {"lat": 69.7005, "lng": 18.6741, "id": "137185", "name": "Gavia adamsii", "sprite": "sp-anchoviella_juruasanga.png", "group": "other", "rarity": 1}, {"lat": 70.3145, "lng": 17.3574, "id": "130576", "name": "Cirrophorus branchiatus", "sprite": "sp-anchoviella_juruasanga.png", "group": "other", "rarity": 1}, {"lat": 70.1136, "lng": 17.8606, "id": "123574", "name": "Ophiura", "sprite": "sp-sea_cucumber.png", "group": "starfish", "rarity": 1}, {"lat": 70.2473, "lng": 18.1326, "id": "131494", "name": "Lanassa venusta", "sprite": "sp-anchoviella_juruasanga.png", "group": "other", "rarity": 1}, {"lat": 69.6667, "lng": 19.0, "id": "760378", "name": "Tricellaria elongata", "sprite": "sp-anchoviella_juruasanga.png", "group": "other", "rarity": 1}]}