{"zoom": 7, "x": 70, "y": 42, "points": [{"lat": 51.7108, "lng": 19.4886, "id": "154315", "name": "Gobio", "sprite": "sp-enteromius.png", "group": "carp_minnow", "rarity": 1}, {"lat": 51.7108, "lng": 19.4886, "id": "154344", "name": "Misgurnus", "sprite": "sp-anchoviella_juruasanga.png", "group": "other", "rarity": 1}, {"lat": 51.5111, "lng": 17.3611, "id": "137162", "name": "Sterna hirundo", "sprite": "sp-anchoviella_juruasanga.png", "group": "other", "rarity": 1}, {"lat": 51.9228, "lng": 19.1369, "id": "154281", "name": "Freshwater bream", "thumb": "tn_Abbra_ue.jpg", "sprite": "sp-enteromius.png", "group": "carp_minnow", "rarity": 1, "waterType": "Brackish"}, {"lat": 51.8542, "lng": 18.8125, "id": "126505", "name": "Three-spined stickleback", "thumb": "tn_Gaacu_u1.jpg", "sprite": "sp-anchoviella_juruasanga.png", "group": "other", "rarity": 1, "waterType": "Brackish"}, {"lat": 52.4303, "lng": 17.9982, "id": "151353", "name": "European perch", "thumb": "tn_Peflu_ue.jpg", "sprite": "sp-dicentrarchus.png", "group": "bass", "rarity": 1, "waterType": "Brackish"}, {"lat": 51.9228, "lng": 19.1369, "id": "154242", "name": "Thymallus", "sprite": "sp-atlantic_salmon.png", "group": "salmon_trout", "rarity": 1}, {"lat": 52.3417, "lng": 18.8433, "id": "119034", "name": "Saduria entomon", "sprite": "sp-american_lobster.png", "group": "crab_lobster", "rarity": 1}, {"lat": 51.3997, "lng": 17.7078, "id": "137165", "name": "Sterna paradisaea", "sprite": "sp-anchoviella_juruasanga.png", "group": "other", "rarity": 1}, {"lat": 52.4, "lng": 17.94, "id": "154210", "name": "Northern pike", "thumb": "tn_Esluc_u9.jpg", "sprite": "sp-anchoviella_juruasanga.png", "group": "other", "rarity": 1, "waterType": "Brackish"}]}