{"zoom": 7, "x": 72, "y": 27, "points": [{"lat": 71.3338, "lng": 25.2222, "id": "140461", "name": "Modiolula phaseolina", "sprite": "sp-blue_mussel.png", "group": "clam_mussel", "rarity": 1}, {"lat": 71.2998, "lng": 24.5163, "id": "196377", "name": "Antalis occidentalis", "sprite": "sp-anchoviella_juruasanga.png", "group": "other", "rarity": 1}, {"lat": 71.2551, "lng": 23.8069, "id": "118354", "name": "Ilyarachna", "sprite": "sp-american_lobster.png", "group": "crab_lobster", "rarity": 1}, {"lat": 71.3076, "lng": 24.7506, "id": "329889", "name": "Owenia polaris", "sprite": "sp-anchoviella_juruasanga.png", "group": "other", "rarity": 1}, {"lat": 71.2645, "lng": 24.9452, "id": "103188", "name": "Syrrhoe crenulata", "sprite": "sp-american_lobster.png", "group": "crab_lobster", "rarity": 1}, {"lat": 71.3068, "lng": 24.028, "id": "139449", "name": "Cuspidaria lamellosa", "sprite": "sp-blue_mussel.png", "group": "clam_mussel", "rarity": 1}, {"lat": 71.29, "lng": 23.4638, "id": "102570", "name": "Hippomedon denticulatus", "sprite": "sp-american_lobster.png", "group": "crab_lobster", "rarity": 1}, {"lat": 70.7955, "lng": 23.7126, "id": "159098", "name": "Mergus serrator", "sprite": "sp-anchoviella_juruasanga.png", "group": "other", "rarity": 1}, {"lat": 71.3338, "lng": 25.2222, "id": "129346", "name": "Clymenura", "sprite": "sp-anchoviella_juruasanga.png", "group": "other", "rarity": 1}, {"lat": 71.0875, "lng": 23.3432, "id": "176788", "name": "Lysianassoidea", "sprite": "sp-american_lobster.png", "group": "crab_lobster", "rarity": 1}, {"lat": 71.173, "lng": 23.5793, "id": "107531", "name": "Spirontocaris liljeborgii", "sprite": "sp-american_lobster.png", "group": "crab_lobster", "rarity": 1}, {"lat": 71.0875, "lng": 23.3432, "id": "127255", "name": "Norway redfish", "thumb": "tn_Seviv_u0.jpg", "sprite": "sp-anchoviella_juruasanga.png", "group": "other", "rarity": 1, "waterType": "Saltwater"}, {"lat": 71.3359, "lng": 25.2234, "id": "139975", "name": "Puncturella noachina", "sprite": "sp-cowrie_shell.png", "group": "sea_snail", "rarity": 1}, {"lat": 71.1912, "lng": 24.6722, "id": "124273", "name": "Echinocyamus pusillus", "sprite": "sp-sea_cucumber.png", "group": "starfish", "rarity": 1}, {"lat": 71.3978, "lng": 23.0076, "id": "140015", "name": "Siphonodentalium lobatum", "sprite": "sp-anchoviella_juruasanga.png", "group": "other", "rarity": 1}, {"lat": 71.1942, "lng": 25.0594, "id": "134240", "name": "Stylocordyla borealis", "sprite": "sp-barrel_sponge.png", "group": "sponge", "rarity": 1}, {"lat": 71.3338, "lng": 25.2222, "id": "130954", "name": "Potamilla neglecta", "sprite": "sp-anchoviella_juruasanga.png", "group": "other", "rarity": 1}, {"lat": 71.3566, "lng": 24.4341, "id": "102986", "name": "Paraphoxus oculatus", "sprite": "sp-american_lobster.png", "group": "crab_lobster", "rarity": 1}, {"lat": 71.2646, "lng": 24.95, "id": "1268", "name": "Sipuncula", "sprite": "sp-anchoviella_juruasanga.png", "group": "other", "rarity": 1}, {"lat": 71.17, "lng": 24.03, "id": "137111", "name": "Tursiops truncatus", "sprite": "sp-bottlenose_dolphin.png", "group": "dolphin", "rarity": 1}, {"lat": 71.3377, "lng": 25.2195, "id": "110490", "name": "Diastylis spinulosa", "sprite": "sp-american_lobster.png", "group": "crab_lobster", "rarity": 1}, {"lat": 71.3377, "lng": 25.2195, "id": "236541", "name": "Deflexilodes subnudus", "sprite": "sp-american_lobster.png", "group": "crab_lobster", "rarity": 1}, {"lat": 71.1912, "lng": 24.6753, "id": "123106", "name": "Spatangoida", "sprite": "sp-sea_cucumber.png", "group": "starfish", "rarity": 1}, {"lat": 71.2215, "lng": 24.1956, "id": "799", "name": "Nematoda", "sprite": "sp-anchoviella_juruasanga.png", "group": "other", "rarity": 1}, {"lat": 71.3892, "lng": 24.6442, "id": "332932", "name": "Ampharete octocirrata", "sprite": "sp-anchoviella_juruasanga.png", "group": "other", "rarity": 1}, {"lat": 71.3377, "lng": 25.2195, "id": "118515", "name": "Tole laciniata", "sprite": "sp-american_lobster.png", "group": "crab_lobster", "rarity": 1}, {"lat": 71.2388, "lng": 24.321, "id": "1337", "name": "Hydrozoa", "sprite": "sp-anchoviella_juruasanga.png", "group": "other", "rarity": 1}, {"lat": 71.2982, "lng": 24.5201, "id": "107323", "name": "Hyas coarctatus", "sprite": "sp-american_lobster.png", "group": "crab_lobster", "rarity": 1}, {"lat": 71.1999, "lng": 24.0401, "id": "138824", "name": "Astarte sulcata", "sprite": "sp-blue_mussel.png", "group": "clam_mussel", "rarity": 1}, {"lat": 71.0891, "lng": 23.3303, "id": "147007", "name": "Malmgrenia mcintoshi", "sprite": "sp-anchoviella_juruasanga.png", "group": "other", "rarity": 1}, {"lat": 71.5, "lng": 23.0, "id": "104165", "name": "Pseudocalanus", "sprite": "sp-anchoviella_juruasanga.png", "group": "other", "rarity": 1}, {"lat": 71.29, "lng": 23.4638, "id": "147008", "name": "Malmgrenia andreapolis", "sprite": "sp-anchoviella_juruasanga.png", "group": "other", "rarity": 1}, {"lat": 71.0907, "lng": 23.3175, "id": "129710", "name": "Polycirrus", "sprite": "sp-anchoviella_juruasanga.png", "group": "other", "rarity": 1}, {"lat": 71.255, "lng": 23.8073, "id": "988", "name": "Serpulidae", "sprite": "sp-anchoviella_juruasanga.png", "group": "other", "rarity": 1}, {"lat": 71.4999, "lng": 23.4884, "id": "131513", "name": "Phisidia aurea", "sprite": "sp-anchoviella_juruasanga.png", "group": "other", "rarity": 1}, {"lat": 71.0619, "lng": 24.7031, "id": "1836", "name": "Aves", "sprite": "sp-anchoviella_juruasanga.png", "group": "other", "rarity": 1}, {"lat": 71.2944, "lng": 24.5147, "id": "939", "name": "Polynoidae", "sprite": "sp-anchoviella_juruasanga.png", "group": "other", "rarity": 1}, {"lat": 70.65, "lng": 23.6667, "id": "134106", "name": "Thenea muricata", "sprite": "sp-barrel_sponge.png", "group": "sponge", "rarity": 1}, {"lat": 71.3715, "lng": 23.5551, "id": "125064", "name": "Amphipholis squamata", "sprite": "sp-sea_cucumber.png", "group": "starfish", "rarity": 1}, {"lat": 71.2625, "lng": 24.5687, "id": "101528", "name": "Rhachotropis", "sprite": "sp-american_lobster.png", "group": "crab_lobster", "rarity": 1}, {"lat": 71.2615, "lng": 24.2059, "id": "488962", "name": "Nototropis nordlandicus", "sprite": "sp-american_lobster.png", "group": "crab_lobster", "rarity": 1}, {"lat": 71.0875, "lng": 23.3432, "id": "104040", "name": "Terebratulina", "sprite": "sp-anchoviella_juruasanga.png", "group": "other", "rarity": 1}, {"lat": 71.4999, "lng": 23.4884, "id": "1473437", "name": "Actaedrilus polyonyx", "sprite": "sp-anchoviella_juruasanga.png", "group": "other", "rarity": 1}, {"lat": 71.4999, "lng": 23.4884, "id": "1548432", "name": "Phylo norvegica", "sprite": "sp-anchoviella_juruasanga.png", "group": "other", "rarity": 1}, {"lat": 71.2625, "lng": 24.9472, "id": "919", "name": "Cirratulidae", "sprite": "sp-anchoviella_juruasanga.png", "group": "other", "rarity": 1}, {"lat": 71.2585, "lng": 23.8155, "id": "103105", "name": "Stegocephalus inflatus", "sprite": "sp-american_lobster.png", "group": "crab_lobster", "rarity": 1}, {"lat": 71.0907, "lng": 23.3175, "id": "130480", "name": "Paradiopatra quadricuspis", "sprite": "sp-anchoviella_juruasanga.png", "group": "other", "rarity": 1}, {"lat": 70.6483, "lng": 23.2986, "id": "137129", "name": "Alle alle", "sprite": "sp-anchoviella_juruasanga.png", "group": "other", "rarity": 1}, {"lat": 70.9395, "lng": 23.7187, "id": "137131", "name": "Fratercula arctica", "sprite": "sp-anchoviella_juruasanga.png", "group": "other", "rarity": 1}, {"lat": 70.9274, "lng": 23.8599, "id": "137179", "name": "Phalacrocorax carbo", "sprite": "sp-anchoviella_juruasanga.png", "group": "other", "rarity": 1}, {"lat": 71.0875, "lng": 23.3432, "id": "123587", "name": "Ophiacantha", "sprite": "sp-sea_cucumber.png", "group": "starfish", "rarity": 1}, {"lat": 71.3338, "lng": 25.2222, "id": "157583", "name": "Syllis cornuta", "sprite": "sp-anchoviella_juruasanga.png", "group": "other", "rarity": 1}, {"lat": 71.2976, "lng": 23.7751, "id": "146950", "name": "Galathowenia oculata", "sprite": "sp-anchoviella_juruasanga.png", "group": "other", "rarity": 1}, {"lat": 71.2598, "lng": 24.3761, "id": "101395", "name": "Lysianassidae", "sprite": "sp-american_lobster.png", "group": "crab_lobster", "rarity": 1}, {"lat": 71.2552, "lng": 23.8065, "id": "101365", "name": "Amphilochidae", "sprite": "sp-american_lobster.png", "group": "crab_lobster", "rarity": 1}, {"lat": 71.1821, "lng": 24.0481, "id": "137102", "name": "Orcinus orca", "sprite": "sp-bottlenose_dolphin.png", "group": "dolphin", "rarity": 1}, {"lat": 71.374, "lng": 23.4736, "id": "136284", "name": "Apseudes spinosus", "sprite": "sp-american_lobster.png", "group": "crab_lobster", "rarity": 1}, {"lat": 71.1924, "lng": 25.0669, "id": "134200", "name": "Polymastia hemisphaerica", "sprite": "sp-barrel_sponge.png", "group": "sponge", "rarity": 1}, {"lat": 71.175, "lng": 24.4, "id": "137094", "name": "Delphinus delphis", "sprite": "sp-bottlenose_dolphin.png", "group": "dolphin", "rarity": 1}, {"lat": 71.255, "lng": 23.8073, "id": "130467", "name": "Nothria conchylega", "sprite": "sp-anchoviella_juruasanga.png", "group": "other", "rarity": 1}, {"lat": 71.4999, "lng": 23.4884, "id": "152424", "name": "Mendicula pygmaea", "sprite": "sp-blue_mussel.png", "group": "clam_mussel", "rarity": 1}, {"lat": 71.3338, "lng": 25.2222, "id": "130198", "name": "Syllidia armata", "sprite": "sp-anchoviella_juruasanga.png", "group": "other", "rarity": 1}, {"lat": 71.2614, "lng": 24.5657, "id": "118798", "name": "Pleurogonium inerme", "sprite": "sp-american_lobster.png", "group": "crab_lobster", "rarity": 1}, {"lat": 71.2491, "lng": 24.8941, "id": "118848", "name": "Eurydice grimaldii", "sprite": "sp-american_lobster.png", "group": "crab_lobster", "rarity": 1}, {"lat": 71.4999, "lng": 23.4884, "id": "734530", "name": "Aricidea (Strelzovia) roberti", "sprite": "sp-anchoviella_juruasanga.png", "group": "other", "rarity": 1}, {"lat": 71.4999, "lng": 23.4884, "id": "130733", "name": "Bylgides groenlandicus", "sprite": "sp-anchoviella_juruasanga.png", "group": "other", "rarity": 1}, {"lat": 71.4999, "lng": 23.4884, "id": "155202", "name": "Euchone incolor", "sprite": "sp-anchoviella_juruasanga.png", "group": "other", "rarity": 1}, {"lat": 71.4999, "lng": 23.4884, "id": "124798", "name": "Molpadia borealis", "sprite": "sp-sea_cucumber.png", "group": "starfish", "rarity": 1}, {"lat": 71.2552, "lng": 23.8065, "id": "118340", "name": "Eurycope", "sprite": "sp-american_lobster.png", "group": "crab_lobster", "rarity": 1}, {"lat": 71.255, "lng": 23.8073, "id": "130682", "name": "Protomystides exigua", "sprite": "sp-anchoviella_juruasanga.png", "group": "other", "rarity": 1}, {"lat": 71.338, "lng": 25.2247, "id": "11713", "name": "Sepiida", "sprite": "sp-giant_pacific_octopus.png", "group": "octopus_squid", "rarity": 1}, {"lat": 71.2838, "lng": 24.2805, "id": "102420", "name": "Ischyrocerus megacheir", "sprite": "sp-american_lobster.png", "group": "crab_lobster", "rarity": 1}, {"lat": 71.0907, "lng": 23.3175, "id": "411040", "name": "Athenaria", "sprite": "sp-actiniidae.png", "group": "coral", "rarity": 1}, {"lat": 71.3076, "lng": 24.7506, "id": "130923", "name": "Jasmineira schaudinni", "sprite": "sp-anchoviella_juruasanga.png", "group": "other", "rarity": 1}, {"lat": 71.2621, "lng": 24.3064, "id": "140843", "name": "Poromya granulata", "sprite": "sp-blue_mussel.png", "group": "clam_mussel", "rarity": 1}, {"lat": 71.2567, "lng": 23.8114, "id": "868065", "name": "Pista maculata", "sprite": "sp-anchoviella_juruasanga.png", "group": "other", "rarity": 1}, {"lat": 71.1393, "lng": 24.0092, "id": "101037", "name": "Epizoanthus papillosus", "sprite": "sp-actiniidae.png", "group": "coral", "rarity": 1}, {"lat": 71.202, "lng": 25.0384, "id": "171330", "name": "Craniella cranium", "sprite": "sp-barrel_sponge.png", "group": "sponge", "rarity": 1}, {"lat": 71.1889, "lng": 23.5833, "id": "153097", "name": "Gonatus fabricii", "sprite": "sp-giant_pacific_octopus.png", "group": "octopus_squid", "rarity": 1}, {"lat": 71.2645, "lng": 24.9452, "id": "852974", "name": "Erythrops serratus", "sprite": "sp-american_lobster.png", "group": "crab_lobster", "rarity": 1}, {"lat": 71.1941, "lng": 25.0439, "id": "133983", "name": "Stelletta rhaphidiophora", "sprite": "sp-barrel_sponge.png", "group": "sponge", "rarity": 1}, {"lat": 71.255, "lng": 23.8073, "id": "130179", "name": "Nereimyra aphroditoides", "sprite": "sp-anchoviella_juruasanga.png", "group": "other", "rarity": 1}, {"lat": 71.0583, "lng": 24.7288, "id": "137128", "name": "Alca torda", "sprite": "sp-anchoviella_juruasanga.png", "group": "other", "rarity": 1}, {"lat": 71.3859, "lng": 24.6065, "id": "140700", "name": "Cyclopecten hoskynsi", "sprite": "sp-blue_mussel.png", "group": "clam_mussel", "rarity": 1}, {"lat": 71.3338, "lng": 25.2222, "id": "131128", "name": "Laonice cirrata", "sprite": "sp-anchoviella_juruasanga.png", "group": "other", "rarity": 1}, {"lat": 71.4999, "lng": 23.4884, "id": "152269", "name": "Tharyx killariensis", "sprite": "sp-anchoviella_juruasanga.png", "group": "other", "rarity": 1}, {"lat": 71.338, "lng": 25.2247, "id": "125170", "name": "Poraniomorpha (Poraniomorpha) hispida", "sprite": "sp-sea_cucumber.png", "group": "starfish", "rarity": 1}, {"lat": 71.1577, "lng": 24.2252, "id": "130987", "name": "Ditrupa arietina", "sprite": "sp-anchoviella_juruasanga.png", "group": "other", "rarity": 1}, {"lat": 71.3377, "lng": 25.2195, "id": "256241", "name": "Munna spicata", "sprite": "sp-american_lobster.png", "group": "crab_lobster", "rarity": 1}, {"lat": 70.9103, "lng": 23.6396, "id": "137117", "name": "Phocoena phocoena", "sprite": "sp-bottlenose_dolphin.png", "group": "dolphin", "rarity": 1}, {"lat": 71.2249, "lng": 24.2432, "id": "119894", "name": "Parerythrops", "sprite": "sp-american_lobster.png", "group": "crab_lobster", "rarity": 1}, {"lat": 71.3905, "lng": 24.6434, "id": "110511", "name": "Hemilamprops cristatus", "sprite": "sp-american_lobster.png", "group": "crab_lobster", "rarity": 1}, {"lat": 70.8, "lng": 22.5, "id": "125589", "name": "Cottidae", "sprite": "sp-anchoviella_juruasanga.png", "group": "other", "rarity": 1}, {"lat": 71.3377, "lng": 25.2195, "id": "423324", "name": "Deflexilodes norvegicus", "sprite": "sp-american_lobster.png", "group": "crab_lobster", "rarity": 1}, {"lat": 70.68, "lng": 23.63, "id": "100951", "name": "Hormathia digitata", "sprite": "sp-actiniidae.png", "group": "coral", "rarity": 1}, {"lat": 71.4999, "lng": 23.4884, "id": "130041", "name": "Protodorvillea kefersteini", "sprite": "sp-anchoviella_juruasanga.png", "group": "other", "rarity": 1}, {"lat": 71.5, "lng": 23.0, "id": "104464", "name": "Calanus finmarchicus", "sprite": "sp-anchoviella_juruasanga.png", "group": "other", "rarity": 1}, {"lat": 71.29, "lng": 23.4638, "id": "130673", "name": "Phyllodoce longipes", "sprite": "sp-anchoviella_juruasanga.png", "group": "other", "rarity": 1}, {"lat": 71.4999, "lng": 23.4884, "id": "130578", "name": "Levinsenia gracilis", "sprite": "sp-anchoviella_juruasanga.png", "group": "other", "rarity": 1}, {"lat": 71.2626, "lng": 24.954, "id": "131174", "name": "Scolelepis korsuni", "sprite": "sp-anchoviella_juruasanga.png", "group": "other", "rarity": 1}, {"lat": 71.3377, "lng": 25.2195, "id": "101694", "name": "Monoculodes", "sprite": "sp-american_lobster.png", "group": "crab_lobster", "rarity": 1}, {"lat": 71.3377, "lng": 25.2195, "id": "101563", "name": "Photis", "sprite": "sp-american_lobster.png", "group": "crab_lobster", "rarity": 1}, {"lat": 71.1912, "lng": 24.6753, "id": "124085", "name": "Pseudarchaster parelii", "sprite": "sp-sea_cucumber.png", "group": "starfish", "rarity": 1}, {"lat": 71.3377, "lng": 25.2195, "id": "110542", "name": "Campylaspis costata", "sprite": "sp-american_lobster.png", "group": "crab_lobster", "rarity": 1}, {"lat": 71.255, "lng": 23.8073, "id": "923", "name": "Maldanidae", "sprite": "sp-anchoviella_juruasanga.png", "group": "other", "rarity": 1}, {"lat": 71.3358, "lng": 25.2208, "id": "102892", "name": "Monoculodes packardi", "sprite": "sp-american_lobster.png", "group": "crab_lobster", "rarity": 1}, {"lat": 71.4999, "lng": 23.4884, "id": "333843", "name": "Lipobranchius jeffreysii", "sprite": "sp-anchoviella_juruasanga.png", "group": "other", "rarity": 1}, {"lat": 71.4999, "lng": 23.4884, "id": "130507", "name": "Ophelina modesta", "sprite": "sp-anchoviella_juruasanga.png", "group": "other", "rarity": 1}, {"lat": 71.2231, "lng": 24.2397, "id": "102403", "name": "Ericthonius difformis", "sprite": "sp-american_lobster.png", "group": "crab_lobster", "rarity": 1}, {"lat": 71.0875, "lng": 23.3432, "id": "106673", "name": "Brachyura", "sprite": "sp-american_lobster.png", "group": "crab_lobster", "rarity": 1}, {"lat": 71.5, "lng": 23.0, "id": "1128", "name": "Euphausiacea", "sprite": "sp-antarctic_krill.png", "group": "shrimp", "rarity": 1}, {"lat": 71.3377, "lng": 25.2195, "id": "101582", "name": "Liljeborgia", "sprite": "sp-american_lobster.png", "group": "crab_lobster", "rarity": 1}, {"lat": 71.0875, "lng": 23.3432, "id": "127199", "name": "Twohorn sculpin", "thumb": "tn_Icbic_u1.jpg", "sprite": "sp-anchoviella_juruasanga.png", "group": "other", "rarity": 1, "waterType": "Saltwater"}, {"lat": 71.2088, "lng": 24.3002, "id": "119039", "name": "Idotea balthica", "sprite": "sp-american_lobster.png", "group": "crab_lobster", "rarity": 1}, {"lat": 71.4999, "lng": 23.4884, "id": "140105", "name": "Panomya norvegica", "sprite": "sp-blue_mussel.png", "group": "clam_mussel", "rarity": 1}, {"lat": 71.255, "lng": 24.125, "id": "1245747", "name": "Desmophyllum pertusum", "sprite": "sp-actiniidae.png", "group": "coral", "rarity": 1}, {"lat": 71.2552, "lng": 23.8065, "id": "102121", "name": "Cressa minuta", "sprite": "sp-american_lobster.png", "group": "crab_lobster", "rarity": 1}, {"lat": 71.2488, "lng": 23.9986, "id": "123084", "name": "Ophiuroidea", "sprite": "sp-sea_cucumber.png", "group": "starfish", "rarity": 1}, {"lat": 71.0875, "lng": 23.3432, "id": "127072", "name": "Daubed shanny", "thumb": "tn_Lemac_ud.jpg", "sprite": "sp-anchoviella_juruasanga.png", "group": "other", "rarity": 1, "waterType": "Saltwater"}, {"lat": 71.1409, "lng": 23.9948, "id": "131107", "name": "Aonides paucibranchiata", "sprite": "sp-anchoviella_juruasanga.png", "group": "other", "rarity": 1}]}