{"zoom": 7, "x": 74, "y": 27, "points": [{"lat": 71.0363, "lng": 29.702, "id": "101979", "name": "Gitanopsis bispinosa", "sprite": "sp-american_lobster.png", "group": "crab_lobster", "rarity": 1}, {"lat": 70.6218, "lng": 30.5175, "id": "130407", "name": "Nereis zonata", "sprite": "sp-anchoviella_juruasanga.png", "group": "other", "rarity": 1}, {"lat": 71.5, "lng": 30.6667, "id": "146469", "name": "Abyssoninoe hibernica", "sprite": "sp-anchoviella_juruasanga.png", "group": "other", "rarity": 1}, {"lat": 70.6183, "lng": 30.521, "id": "129249", "name": "Tharyx", "sprite": "sp-anchoviella_juruasanga.png", "group": "other", "rarity": 1}, {"lat": 71.3106, "lng": 30.5014, "id": "131153", "name": "Prionospio cirrifera", "sprite": "sp-anchoviella_juruasanga.png", "group": "other", "rarity": 1}, {"lat": 71.0464, "lng": 29.6515, "id": "101883", "name": "Ampelisca aequicornis", "sprite": "sp-american_lobster.png", "group": "crab_lobster", "rarity": 1}, {"lat": 70.9379, "lng": 29.8014, "id": "410749", "name": "Phascolion (Phascolion) strombus strombus", "sprite": "sp-anchoviella_juruasanga.png", "group": "other", "rarity": 1}, {"lat": 70.8608, "lng": 29.8695, "id": "101567", "name": "Ericthonius", "sprite": "sp-american_lobster.png", "group": "crab_lobster", "rarity": 1}, {"lat": 71.1867, "lng": 28.9708, "id": "118827", "name": "Aega psora", "sprite": "sp-american_lobster.png", "group": "crab_lobster", "rarity": 1}, {"lat": 71.1858, "lng": 29.4216, "id": "827212", "name": "Retifusus latericeus", "sprite": "sp-cowrie_shell.png", "group": "sea_snail", "rarity": 1}, {"lat": 70.6183, "lng": 30.5209, "id": "157583", "name": "Syllis cornuta", "sprite": "sp-anchoviella_juruasanga.png", "group": "other", "rarity": 1}, {"lat": 70.8563, "lng": 29.8828, "id": "573431", "name": "Spirotropis confusa", "sprite": "sp-cowrie_shell.png", "group": "sea_snail", "rarity": 1}, {"lat": 70.6183, "lng": 30.521, "id": "131496", "name": "Laphania boecki", "sprite": "sp-anchoviella_juruasanga.png", "group": "other", "rarity": 1}, {"lat": 71.5, "lng": 30.6667, "id": "129789", "name": "Anobothrus gracilis", "sprite": "sp-anchoviella_juruasanga.png", "group": "other", "rarity": 1}, {"lat": 70.8553, "lng": 29.9097, "id": "129233", "name": "Spiochaetopterus", "sprite": "sp-anchoviella_juruasanga.png", "group": "other", "rarity": 1}, {"lat": 70.6253, "lng": 30.514, "id": "123776", "name": "Asterias rubens", "sprite": "sp-sea_cucumber.png", "group": "starfish", "rarity": 1}, {"lat": 70.9973, "lng": 29.6452, "id": "107323", "name": "Hyas coarctatus", "sprite": "sp-american_lobster.png", "group": "crab_lobster", "rarity": 1}, {"lat": 71.2135, "lng": 28.7863, "id": "129820", "name": "Samythella neglecta", "sprite": "sp-anchoviella_juruasanga.png", "group": "other", "rarity": 1}, {"lat": 70.8622, "lng": 30.0302, "id": "118377", "name": "Munnopsis", "sprite": "sp-american_lobster.png", "group": "crab_lobster", "rarity": 1}, {"lat": 71.1585, "lng": 29.283, "id": "103902", "name": "Polycarpa fibrosa", "sprite": "sp-anchoviella_juruasanga.png", "group": "other", "rarity": 1}, {"lat": 71.1888, "lng": 28.956, "id": "106835", "name": "Munida", "sprite": "sp-american_lobster.png", "group": "crab_lobster", "rarity": 1}, {"lat": 71.0079, "lng": 29.8469, "id": "125125", "name": "Ophiopholis aculeata", "sprite": "sp-sea_cucumber.png", "group": "starfish", "rarity": 1}, {"lat": 71.4667, "lng": 28.35, "id": "106656", "name": "Oithona similis", "sprite": "sp-anchoviella_juruasanga.png", "group": "other", "rarity": 1}, {"lat": 71.5, "lng": 30.6667, "id": "102972", "name": "Harpinia pectinata", "sprite": "sp-american_lobster.png", "group": "crab_lobster", "rarity": 1}, {"lat": 70.7733, "lng": 30.7862, "id": "110622", "name": "Leucon (Leucon) serratus", "sprite": "sp-american_lobster.png", "group": "crab_lobster", "rarity": 1}, {"lat": 71.3223, "lng": 29.1962, "id": "101398", "name": "Melphidippidae", "sprite": "sp-american_lobster.png", "group": "crab_lobster", "rarity": 1}, {"lat": 71.322, "lng": 29.195, "id": "129196", "name": "Laetmonice", "sprite": "sp-anchoviella_juruasanga.png", "group": "other", "rarity": 1}, {"lat": 70.9468, "lng": 29.7607, "id": "156090", "name": "Eurycope inermis", "sprite": "sp-american_lobster.png", "group": "crab_lobster", "rarity": 1}, {"lat": 71.1068, "lng": 29.6854, "id": "129903", "name": "Notoproctus oculatus", "sprite": "sp-anchoviella_juruasanga.png", "group": "other", "rarity": 1}, {"lat": 71.1012, "lng": 29.4184, "id": "118623", "name": "Eurycope producta", "sprite": "sp-american_lobster.png", "group": "crab_lobster", "rarity": 1}, {"lat": 70.7738, "lng": 30.7812, "id": "130198", "name": "Syllidia armata", "sprite": "sp-anchoviella_juruasanga.png", "group": "other", "rarity": 1}, {"lat": 70.6183, "lng": 30.521, "id": "131530", "name": "Polycirrus latidens", "sprite": "sp-anchoviella_juruasanga.png", "group": "other", "rarity": 1}, {"lat": 70.6563, "lng": 30.5415, "id": "989153", "name": "Polymastia nivea", "sprite": "sp-barrel_sponge.png", "group": "sponge", "rarity": 1}, {"lat": 71.085, "lng": 30.082, "id": "138797", "name": "Bathyarca glacialis", "sprite": "sp-blue_mussel.png", "group": "clam_mussel", "rarity": 1}, {"lat": 71.0428, "lng": 29.5744, "id": "107163", "name": "Munida sarsi", "sprite": "sp-american_lobster.png", "group": "crab_lobster", "rarity": 1}, {"lat": 70.8953, "lng": 29.9685, "id": "488962", "name": "Nototropis nordlandicus", "sprite": "sp-american_lobster.png", "group": "crab_lobster", "rarity": 1}, {"lat": 71.1814, "lng": 29.975, "id": "129837", "name": "Paramphinome jeffreysii", "sprite": "sp-anchoviella_juruasanga.png", "group": "other", "rarity": 1}, {"lat": 71.0436, "lng": 28.9472, "id": "232042", "name": "Tadorna tadorna", "sprite": "sp-anchoviella_juruasanga.png", "group": "other", "rarity": 1}, {"lat": 71.3439, "lng": 28.5799, "id": "104464", "name": "Calanus finmarchicus", "sprite": "sp-anchoviella_juruasanga.png", "group": "other", "rarity": 1}, {"lat": 71.3092, "lng": 28.2598, "id": "141852", "name": "Metzgeria alba", "sprite": "sp-cowrie_shell.png", "group": "sea_snail", "rarity": 1}, {"lat": 71.2415, "lng": 28.7715, "id": "105399", "name": "Eukrohnia", "sprite": "sp-anchoviella_juruasanga.png", "group": "other", "rarity": 1}, {"lat": 71.0363, "lng": 29.702, "id": "101408", "name": "Stegocephalidae", "sprite": "sp-american_lobster.png", "group": "crab_lobster", "rarity": 1}, {"lat": 71.3022, "lng": 28.2588, "id": "129800", "name": "Lysippe labiata", "sprite": "sp-anchoviella_juruasanga.png", "group": "other", "rarity": 1}, {"lat": 70.7738, "lng": 29.611, "id": "137072", "name": "Melanitta fusca", "sprite": "sp-anchoviella_juruasanga.png", "group": "other", "rarity": 1}, {"lat": 70.6253, "lng": 30.514, "id": "141822", "name": "Margarites olivaceus", "sprite": "sp-cowrie_shell.png", "group": "sea_snail", "rarity": 1}, {"lat": 71.0803, "lng": 28.2019, "id": "137186", "name": "Gavia arctica", "sprite": "sp-anchoviella_juruasanga.png", "group": "other", "rarity": 1}, {"lat": 70.6218, "lng": 30.5175, "id": "131513", "name": "Phisidia aurea", "sprite": "sp-anchoviella_juruasanga.png", "group": "other", "rarity": 1}, {"lat": 71.5, "lng": 30.6667, "id": "130585", "name": "Paradoneis lyra", "sprite": "sp-anchoviella_juruasanga.png", "group": "other", "rarity": 1}, {"lat": 70.7937, "lng": 30.1717, "id": "334506", "name": "Phyllodoce groenlandica", "sprite": "sp-anchoviella_juruasanga.png", "group": "other", "rarity": 1}, {"lat": 70.9038, "lng": 29.9695, "id": "130060", "name": "Eunice pennata", "sprite": "sp-anchoviella_juruasanga.png", "group": "other", "rarity": 1}, {"lat": 70.8367, "lng": 29.0535, "id": "137131", "name": "Fratercula arctica", "sprite": "sp-anchoviella_juruasanga.png", "group": "other", "rarity": 1}, {"lat": 71.0948, "lng": 29.6461, "id": "101877", "name": "Acanthonotozoma serratum", "sprite": "sp-american_lobster.png", "group": "crab_lobster", "rarity": 1}, {"lat": 71.0793, "lng": 29.0708, "id": "130909", "name": "Euchone rubrocincta", "sprite": "sp-anchoviella_juruasanga.png", "group": "other", "rarity": 1}, {"lat": 70.6183, "lng": 30.521, "id": "2041", "name": "Hirudinea", "sprite": "sp-anchoviella_juruasanga.png", "group": "other", "rarity": 1}, {"lat": 71.4667, "lng": 28.35, "id": "105416", "name": "Eukrohnia hamata", "sprite": "sp-anchoviella_juruasanga.png", "group": "other", "rarity": 1}, {"lat": 71.0673, "lng": 29.3621, "id": "120080", "name": "Mysideis insignis", "sprite": "sp-american_lobster.png", "group": "crab_lobster", "rarity": 1}, {"lat": 71.2415, "lng": 28.7715, "id": "110709", "name": "Thysanoessa longicaudata", "sprite": "sp-antarctic_krill.png", "group": "shrimp", "rarity": 1}, {"lat": 71.0295, "lng": 29.5721, "id": "146142", "name": "Bryozoa", "sprite": "sp-anchoviella_juruasanga.png", "group": "other", "rarity": 1}, {"lat": 71.5, "lng": 30.6667, "id": "129984", "name": "Cossura longocirrata", "sprite": "sp-anchoviella_juruasanga.png", "group": "other", "rarity": 1}, {"lat": 70.7738, "lng": 30.7812, "id": "102820", "name": "Maera loveni", "sprite": "sp-american_lobster.png", "group": "crab_lobster", "rarity": 1}, {"lat": 71.3022, "lng": 28.2588, "id": "130576", "name": "Cirrophorus branchiatus", "sprite": "sp-anchoviella_juruasanga.png", "group": "other", "rarity": 1}, {"lat": 70.7733, "lng": 30.7862, "id": "110524", "name": "Eudorella emarginata", "sprite": "sp-american_lobster.png", "group": "crab_lobster", "rarity": 1}, {"lat": 70.8171, "lng": 30.3278, "id": "102939", "name": "Halice abyssi", "sprite": "sp-american_lobster.png", "group": "crab_lobster", "rarity": 1}, {"lat": 71.0843, "lng": 29.4948, "id": "129784", "name": "Amphicteis gunneri", "sprite": "sp-anchoviella_juruasanga.png", "group": "other", "rarity": 1}, {"lat": 70.9696, "lng": 29.8587, "id": "1762", "name": "Nudibranchia", "sprite": "sp-cowrie_shell.png", "group": "sea_snail", "rarity": 1}, {"lat": 70.6183, "lng": 30.521, "id": "333034", "name": "Aricidea (Acmira) catherinae", "sprite": "sp-anchoviella_juruasanga.png", "group": "other", "rarity": 1}, {"lat": 70.9654, "lng": 29.8947, "id": "954693", "name": "Parathyasira equalis", "sprite": "sp-blue_mussel.png", "group": "clam_mussel", "rarity": 1}, {"lat": 71.145, "lng": 30.2694, "id": "130140", "name": "Goniada maculata", "sprite": "sp-anchoviella_juruasanga.png", "group": "other", "rarity": 1}, {"lat": 71.1359, "lng": 29.8079, "id": "140449", "name": "Dacrydium vitreum", "sprite": "sp-blue_mussel.png", "group": "clam_mussel", "rarity": 1}, {"lat": 70.9729, "lng": 29.6902, "id": "333456", "name": "Exogone verugera", "sprite": "sp-anchoviella_juruasanga.png", "group": "other", "rarity": 1}, {"lat": 71.2019, "lng": 30.04, "id": "141668", "name": "Thyasira obsoleta", "sprite": "sp-blue_mussel.png", "group": "clam_mussel", "rarity": 1}, {"lat": 70.9811, "lng": 29.8925, "id": "130223", "name": "Abyssoninoe scopa", "sprite": "sp-anchoviella_juruasanga.png", "group": "other", "rarity": 1}, {"lat": 71.3469, "lng": 30.2748, "id": "130980", "name": "Scalibregma inflatum", "sprite": "sp-anchoviella_juruasanga.png", "group": "other", "rarity": 1}, {"lat": 70.731, "lng": 29.4423, "id": "137179", "name": "Phalacrocorax carbo", "sprite": "sp-anchoviella_juruasanga.png", "group": "other", "rarity": 1}, {"lat": 70.8599, "lng": 30.0312, "id": "129680", "name": "Syllis", "sprite": "sp-anchoviella_juruasanga.png", "group": "other", "rarity": 1}, {"lat": 70.8608, "lng": 29.8695, "id": "118539", "name": "Desmosoma lineare", "sprite": "sp-american_lobster.png", "group": "crab_lobster", "rarity": 1}, {"lat": 70.9148, "lng": 30.2185, "id": "130745", "name": "Eunoe nodosa", "sprite": "sp-anchoviella_juruasanga.png", "group": "other", "rarity": 1}, {"lat": 70.6283, "lng": 30.5097, "id": "852974", "name": "Erythrops serratus", "sprite": "sp-american_lobster.png", "group": "crab_lobster", "rarity": 1}, {"lat": 71.0394, "lng": 29.4566, "id": "102481", "name": "Liljeborgia fissicornis", "sprite": "sp-american_lobster.png", "group": "crab_lobster", "rarity": 1}, {"lat": 70.6253, "lng": 30.514, "id": "129819", "name": "Samytha sexcirrata", "sprite": "sp-anchoviella_juruasanga.png", "group": "other", "rarity": 1}, {"lat": 70.7993, "lng": 28.95, "id": "233889", "name": "Paralithodes camtschaticus", "sprite": "sp-american_lobster.png", "group": "crab_lobster", "rarity": 1}, {"lat": 71.3022, "lng": 28.2588, "id": "102060", "name": "Unciola petalocera", "sprite": "sp-american_lobster.png", "group": "crab_lobster", "rarity": 1}, {"lat": 71.0884, "lng": 30.1973, "id": "140015", "name": "Siphonodentalium lobatum", "sprite": "sp-anchoviella_juruasanga.png", "group": "other", "rarity": 1}, {"lat": 70.7738, "lng": 30.7812, "id": "124853", "name": "Ophiocten gracilis", "sprite": "sp-sea_cucumber.png", "group": "starfish", "rarity": 1}, {"lat": 71.0575, "lng": 29.6709, "id": "130327", "name": "Praxillura longissima", "sprite": "sp-anchoviella_juruasanga.png", "group": "other", "rarity": 1}, {"lat": 70.6183, "lng": 30.521, "id": "102581", "name": "Hippomedon robustus", "sprite": "sp-american_lobster.png", "group": "crab_lobster", "rarity": 1}, {"lat": 71.2479, "lng": 28.6153, "id": "239867", "name": "Pycnogonum litorale", "sprite": "sp-anchoviella_juruasanga.png", "group": "other", "rarity": 1}, {"lat": 70.6253, "lng": 30.514, "id": "100790", "name": "Epizoanthus", "sprite": "sp-actiniidae.png", "group": "coral", "rarity": 1}, {"lat": 70.7793, "lng": 30.7235, "id": "152905", "name": "Mendicula ferruginosa", "sprite": "sp-blue_mussel.png", "group": "clam_mussel", "rarity": 1}, {"lat": 71.321, "lng": 29.1965, "id": "124085", "name": "Pseudarchaster parelii", "sprite": "sp-sea_cucumber.png", "group": "starfish", "rarity": 1}, {"lat": 71.2511, "lng": 29.021, "id": "1066", "name": "Crustacea", "sprite": "sp-anchoviella_juruasanga.png", "group": "other", "rarity": 1}, {"lat": 70.7331, "lng": 29.4117, "id": "137185", "name": "Gavia adamsii", "sprite": "sp-anchoviella_juruasanga.png", "group": "other", "rarity": 1}, {"lat": 71.179, "lng": 28.9573, "id": "129788", "name": "Amythasides macroglossus", "sprite": "sp-anchoviella_juruasanga.png", "group": "other", "rarity": 1}, {"lat": 71.0284, "lng": 29.5227, "id": "123561", "name": "Ophiocten", "sprite": "sp-sea_cucumber.png", "group": "starfish", "rarity": 1}, {"lat": 70.6995, "lng": 30.4324, "id": "1268", "name": "Sipuncula", "sprite": "sp-anchoviella_juruasanga.png", "group": "other", "rarity": 1}, {"lat": 71.3, "lng": 28.383, "id": "102653", "name": "Opisa eschrichtii", "sprite": "sp-american_lobster.png", "group": "crab_lobster", "rarity": 1}, {"lat": 70.6253, "lng": 30.514, "id": "106039", "name": "Balanomorpha", "sprite": "sp-anchoviella_juruasanga.png", "group": "other", "rarity": 1}, {"lat": 71.0558, "lng": 29.6558, "id": "101950", "name": "Haploops laevis", "sprite": "sp-american_lobster.png", "group": "crab_lobster", "rarity": 1}, {"lat": 71.25, "lng": 28.77, "id": "134240", "name": "Stylocordyla borealis", "sprite": "sp-barrel_sponge.png", "group": "sponge", "rarity": 1}, {"lat": 70.9556, "lng": 29.7828, "id": "129350", "name": "Lumbriclymene", "sprite": "sp-anchoviella_juruasanga.png", "group": "other", "rarity": 1}, {"lat": 70.6183, "lng": 30.521, "id": "130179", "name": "Nereimyra aphroditoides", "sprite": "sp-anchoviella_juruasanga.png", "group": "other", "rarity": 1}, {"lat": 70.8344, "lng": 30.0839, "id": "138802", "name": "Arctica islandica", "sprite": "sp-blue_mussel.png", "group": "clam_mussel", "rarity": 1}, {"lat": 70.8563, "lng": 29.8828, "id": "134591", "name": "Nymphon", "sprite": "sp-anchoviella_juruasanga.png", "group": "other", "rarity": 1}, {"lat": 71.1569, "lng": 29.6733, "id": "157545", "name": "Proclea graffii", "sprite": "sp-anchoviella_juruasanga.png", "group": "other", "rarity": 1}, {"lat": 71.3341, "lng": 30.3639, "id": "163084", "name": "Axinellida", "sprite": "sp-barrel_sponge.png", "group": "sponge", "rarity": 1}, {"lat": 70.9621, "lng": 29.6986, "id": "118497", "name": "Calathura brachiata", "sprite": "sp-american_lobster.png", "group": "crab_lobster", "rarity": 1}, {"lat": 71.266, "lng": 28.4965, "id": "130954", "name": "Potamilla neglecta", "sprite": "sp-anchoviella_juruasanga.png", "group": "other", "rarity": 1}, {"lat": 71.322, "lng": 29.195, "id": "137683", "name": "Astarte", "sprite": "sp-blue_mussel.png", "group": "clam_mussel", "rarity": 1}, {"lat": 71.5, "lng": 30.6667, "id": "129955", "name": "Chaetozone setosa", "sprite": "sp-anchoviella_juruasanga.png", "group": "other", "rarity": 1}, {"lat": 71.3022, "lng": 28.2588, "id": "129155", "name": "Ampharete", "sprite": "sp-anchoviella_juruasanga.png", "group": "other", "rarity": 1}, {"lat": 71.3022, "lng": 28.2588, "id": "131174", "name": "Scolelepis korsuni", "sprite": "sp-anchoviella_juruasanga.png", "group": "other", "rarity": 1}, {"lat": 71.322, "lng": 29.1952, "id": "129430", "name": "Aricidea", "sprite": "sp-anchoviella_juruasanga.png", "group": "other", "rarity": 1}, {"lat": 71.5, "lng": 30.6667, "id": "129778", "name": "Ampharete finmarchica", "sprite": "sp-anchoviella_juruasanga.png", "group": "other", "rarity": 1}, {"lat": 70.78, "lng": 28.5, "id": "137086", "name": "Balaena mysticetus", "sprite": "sp-blue_whale.png", "group": "whale", "rarity": 1}, {"lat": 70.7733, "lng": 30.7862, "id": "118601", "name": "Baeonectes muticus", "sprite": "sp-american_lobster.png", "group": "crab_lobster", "rarity": 1}, {"lat": 70.9973, "lng": 29.876, "id": "120185", "name": "Pseudomma frigidum", "sprite": "sp-american_lobster.png", "group": "crab_lobster", "rarity": 1}, {"lat": 71.0032, "lng": 29.6139, "id": "137020", "name": "Lagenorhynchus", "sprite": "sp-bottlenose_dolphin.png", "group": "dolphin", "rarity": 1}, {"lat": 70.6183, "lng": 30.521, "id": "140708", "name": "Palliolum incomparabile", "sprite": "sp-blue_mussel.png", "group": "clam_mussel", "rarity": 1}, {"lat": 71.0506, "lng": 29.6468, "id": "130967", "name": "Sabella pavonina", "sprite": "sp-anchoviella_juruasanga.png", "group": "other", "rarity": 1}, {"lat": 71.1867, "lng": 28.9708, "id": "156746", "name": "Astarte subaequilatera", "sprite": "sp-blue_mussel.png", "group": "clam_mussel", "rarity": 1}]}