{"zoom": 7, "x": 74, "y": 37, "points": [{"lat": 60.1085, "lng": 28.9546, "id": "391617", "name": "Tintinnopsis tubulosa", "sprite": "sp-anchoviella_juruasanga.png", "group": "other", "rarity": 1}, {"lat": 59.9804, "lng": 29.7311, "id": "160553", "name": "Dinobryon faculiferum", "sprite": "sp-anchoviella_juruasanga.png", "group": "other", "rarity": 1}, {"lat": 60.1083, "lng": 28.8, "id": "104878", "name": "Temora longicornis", "sprite": "sp-anchoviella_juruasanga.png", "group": "other", "rarity": 1}, {"lat": 60.0335, "lng": 29.4304, "id": "370000", "name": "Pedinomonas", "sprite": "sp-anchoviella_juruasanga.png", "group": "other", "rarity": 1}, {"lat": 60.0741, "lng": 28.5872, "id": "412863", "name": "Bythotrephes longimanus", "sprite": "sp-anchoviella_juruasanga.png", "group": "other", "rarity": 1}, {"lat": 59.45, "lng": 30.0, "id": "110690", "name": "Meganyctiphanes norvegica", "sprite": "sp-antarctic_krill.png", "group": "shrimp", "rarity": 1}, {"lat": 60.1004, "lng": 28.797, "id": "110210", "name": "Protoperidinium brevipes", "sprite": "sp-anchoviella_juruasanga.png", "group": "other", "rarity": 1}, {"lat": 60.0693, "lng": 28.5848, "id": "109603", "name": "Dinophysis acuminata", "sprite": "sp-anchoviella_juruasanga.png", "group": "other", "rarity": 1}, {"lat": 60.062, "lng": 28.9383, "id": "157237", "name": "Ochromonadales", "sprite": "sp-anchoviella_juruasanga.png", "group": "other", "rarity": 1}, {"lat": 60.0665, "lng": 28.9686, "id": "5", "name": "Protozoa", "sprite": "sp-anchoviella_juruasanga.png", "group": "other", "rarity": 1}, {"lat": 60.2091, "lng": 28.7624, "id": "614618", "name": "Preperidinium meunieri", "sprite": "sp-anchoviella_juruasanga.png", "group": "other", "rarity": 1}, {"lat": 60.075, "lng": 29.35, "id": "146565", "name": "Chroococcus", "sprite": "sp-anchoviella_juruasanga.png", "group": "other", "rarity": 1}, {"lat": 60.1167, "lng": 28.9667, "id": "175326", "name": "Navicula vanhoeffenii", "sprite": "sp-anchoviella_juruasanga.png", "group": "other", "rarity": 1}, {"lat": 60.1128, "lng": 28.8898, "id": "177638", "name": "Anabaena spiroides f. baltica", "sprite": "sp-anchoviella_juruasanga.png", "group": "other", "rarity": 1}, {"lat": 59.8526, "lng": 30.4935, "id": "126505", "name": "Three-spined stickleback", "thumb": "tn_Gaacu_u1.jpg", "sprite": "sp-anchoviella_juruasanga.png", "group": "other", "rarity": 1, "waterType": "Brackish"}, {"lat": 60.0871, "lng": 28.8343, "id": "149046", "name": "Nitzschia acicularis", "sprite": "sp-anchoviella_juruasanga.png", "group": "other", "rarity": 1}, {"lat": 60.0417, "lng": 28.675, "id": "234081", "name": "Gmelinoides fasciatus", "sprite": "sp-american_lobster.png", "group": "crab_lobster", "rarity": 1}, {"lat": 60.0344, "lng": 29.2987, "id": "175373", "name": "Nitzschia acicularis var. acicularis", "sprite": "sp-anchoviella_juruasanga.png", "group": "other", "rarity": 1}, {"lat": 59.9207, "lng": 28.6789, "id": "126916", "name": "Round goby", "thumb": "tn_Nemel_uc.jpg", "sprite": "sp-eviota_bipunctata.png", "group": "goby", "rarity": 1, "waterType": "Brackish"}, {"lat": 59.45, "lng": 30.0, "id": "101", "name": "Gastropoda", "sprite": "sp-cowrie_shell.png", "group": "sea_snail", "rarity": 1}, {"lat": 60.0817, "lng": 29.24, "id": "148406", "name": "Chydorus sphaericus", "sprite": "sp-anchoviella_juruasanga.png", "group": "other", "rarity": 1}, {"lat": 60.0587, "lng": 28.7969, "id": "367250", "name": "Carteria", "sprite": "sp-anchoviella_juruasanga.png", "group": "other", "rarity": 1}, {"lat": 60.075, "lng": 29.35, "id": "109538", "name": "Glenodinium", "sprite": "sp-anchoviella_juruasanga.png", "group": "other", "rarity": 1}, {"lat": 60.0113, "lng": 29.7488, "id": "149079", "name": "Stephanodiscus", "sprite": "sp-anchoviella_juruasanga.png", "group": "other", "rarity": 1}, {"lat": 60.0727, "lng": 28.7795, "id": "148985", "name": "Chaetoceros", "sprite": "sp-anchoviella_juruasanga.png", "group": "other", "rarity": 1}, {"lat": 60.0686, "lng": 29.1175, "id": "178611", "name": "Oocystis", "sprite": "sp-anchoviella_juruasanga.png", "group": "other", "rarity": 1}, {"lat": 59.9503, "lng": 29.9637, "id": "149142", "name": "Navicula", "sprite": "sp-anchoviella_juruasanga.png", "group": "other", "rarity": 1}, {"lat": 60.0736, "lng": 29.1271, "id": "146558", "name": "Microcystis aeruginosa", "sprite": "sp-anchoviella_juruasanga.png", "group": "other", "rarity": 1}, {"lat": 60.0074, "lng": 29.1668, "id": "802", "name": "Chlorophyceae", "sprite": "sp-anchoviella_juruasanga.png", "group": "other", "rarity": 1}, {"lat": 59.45, "lng": 30.0, "id": "101417", "name": "Hyperiidae", "sprite": "sp-american_lobster.png", "group": "crab_lobster", "rarity": 1}, {"lat": 60.0744, "lng": 28.74, "id": "141579", "name": "Macoma balthica", "sprite": "sp-blue_mussel.png", "group": "clam_mussel", "rarity": 1}, {"lat": 60.0848, "lng": 28.9546, "id": "109553", "name": "Protoperidinium", "sprite": "sp-anchoviella_juruasanga.png", "group": "other", "rarity": 1}, {"lat": 60.0613, "lng": 29.0387, "id": "146603", "name": "Oscillatoriales", "sprite": "sp-anchoviella_juruasanga.png", "group": "other", "rarity": 1}, {"lat": 60.0654, "lng": 29.0701, "id": "149075", "name": "Skeletonema subsalsum", "sprite": "sp-anchoviella_juruasanga.png", "group": "other", "rarity": 1}, {"lat": 60.08, "lng": 29.75, "id": "127214", "name": "Lumpfish", "thumb": "tn_Cylum_u1.jpg", "sprite": "sp-anchoviella_juruasanga.png", "group": "other", "rarity": 1, "waterType": "Saltwater"}, {"lat": 60.1119, "lng": 28.9012, "id": "135059", "name": "Synchaeta monopus", "sprite": "sp-anchoviella_juruasanga.png", "group": "other", "rarity": 1}, {"lat": 60.0587, "lng": 29.1969, "id": "576240", "name": "Dictyosphaerium subsolitarium", "sprite": "sp-anchoviella_juruasanga.png", "group": "other", "rarity": 1}, {"lat": 60.096, "lng": 28.7564, "id": "148376", "name": "Ceriodaphnia", "sprite": "sp-anchoviella_juruasanga.png", "group": "other", "rarity": 1}, {"lat": 60.101, "lng": 28.8007, "id": "246832", "name": "Tetraspora", "sprite": "sp-anchoviella_juruasanga.png", "group": "other", "rarity": 1}, {"lat": 60.0798, "lng": 29.0964, "id": "134958", "name": "Synchaeta", "sprite": "sp-anchoviella_juruasanga.png", "group": "other", "rarity": 1}, {"lat": 60.1084, "lng": 28.8391, "id": "160524", "name": "Chaetoceros wighamii", "sprite": "sp-anchoviella_juruasanga.png", "group": "other", "rarity": 1}, {"lat": 60.101, "lng": 28.8007, "id": "134564", "name": "Micromonas pusilla", "sprite": "sp-anchoviella_juruasanga.png", "group": "other", "rarity": 1}, {"lat": 60.1003, "lng": 28.798, "id": "178623", "name": "Dictyosphaerium", "sprite": "sp-anchoviella_juruasanga.png", "group": "other", "rarity": 1}, {"lat": 60.0417, "lng": 28.675, "id": "181566", "name": "Dreissena polymorpha", "sprite": "sp-blue_mussel.png", "group": "clam_mussel", "rarity": 1}, {"lat": 60.0417, "lng": 28.675, "id": "234025", "name": "Cercopagis (Cercopagis) pengoi", "sprite": "sp-anchoviella_juruasanga.png", "group": "other", "rarity": 1}, {"lat": 60.0639, "lng": 28.9711, "id": "106282", "name": "Cryptomonas", "sprite": "sp-anchoviella_juruasanga.png", "group": "other", "rarity": 1}, {"lat": 60.0721, "lng": 29.1161, "id": "249690", "name": "Achroonema", "sprite": "sp-anchoviella_juruasanga.png", "group": "other", "rarity": 1}, {"lat": 59.8421, "lng": 30.5148, "id": "101172", "name": "River lamprey", "thumb": "tn_Laflu_u0.jpg", "sprite": "sp-pacific_lamprey.png", "group": "lamprey", "rarity": 1, "waterType": "Brackish"}, {"lat": 60.0873, "lng": 29.0848, "id": "149042", "name": "Melosira", "sprite": "sp-anchoviella_juruasanga.png", "group": "other", "rarity": 1}, {"lat": 60.0417, "lng": 28.675, "id": "232697", "name": "Chaetogammarus warpachowskyi", "sprite": "sp-american_lobster.png", "group": "crab_lobster", "rarity": 1}, {"lat": 60.0779, "lng": 28.7356, "id": "134529", "name": "Pyramimonas", "sprite": "sp-anchoviella_juruasanga.png", "group": "other", "rarity": 1}, {"lat": 60.101, "lng": 28.8007, "id": "272813", "name": "Monomitopus torvus", "sprite": "sp-anchoviella_juruasanga.png", "group": "other", "rarity": 1, "waterType": "Saltwater"}, {"lat": 60.101, "lng": 28.8007, "id": "578376", "name": "Zygnema", "sprite": "sp-anchoviella_juruasanga.png", "group": "other", "rarity": 1}, {"lat": 60.1063, "lng": 28.9567, "id": "1080", "name": "Copepoda", "sprite": "sp-anchoviella_juruasanga.png", "group": "other", "rarity": 1}, {"lat": 60.0666, "lng": 28.7184, "id": "118051", "name": "Ebria tripartita", "sprite": "sp-anchoviella_juruasanga.png", "group": "other", "rarity": 1}, {"lat": 60.115, "lng": 28.9334, "id": "103987", "name": "Bicosoeca", "sprite": "sp-anchoviella_juruasanga.png", "group": "other", "rarity": 1}, {"lat": 60.042, "lng": 29.022, "id": "985162", "name": "Rhizosolenia eriensis f. eriensis", "sprite": "sp-anchoviella_juruasanga.png", "group": "other", "rarity": 1}, {"lat": 60.0698, "lng": 29.0289, "id": "160602", "name": "Scenedesmus", "sprite": "sp-anchoviella_juruasanga.png", "group": "other", "rarity": 1}, {"lat": 60.1167, "lng": 28.9667, "id": "105", "name": "Bivalvia", "sprite": "sp-blue_mussel.png", "group": "clam_mussel", "rarity": 1}, {"lat": 60.0639, "lng": 29.0857, "id": "146543", "name": "Chroococcales", "sprite": "sp-anchoviella_juruasanga.png", "group": "other", "rarity": 1}, {"lat": 60.0675, "lng": 28.9498, "id": "160567", "name": "Aphanizomenon", "sprite": "sp-anchoviella_juruasanga.png", "group": "other", "rarity": 1}, {"lat": 60.0757, "lng": 29.0587, "id": "248172", "name": "Uroglena", "sprite": "sp-anchoviella_juruasanga.png", "group": "other", "rarity": 1}, {"lat": 60.0002, "lng": 29.7054, "id": "254440", "name": "Koliella spiralis", "sprite": "sp-anchoviella_juruasanga.png", "group": "other", "rarity": 1}, {"lat": 59.8526, "lng": 30.4935, "id": "151308", "name": "Pike-perch", "thumb": "tn_Saluc_u3.jpg", "sprite": "sp-dicentrarchus.png", "group": "bass", "rarity": 1, "waterType": "Brackish"}, {"lat": 60.042, "lng": 29.022, "id": "109754", "name": "Amphidinium sphenoides", "sprite": "sp-anchoviella_juruasanga.png", "group": "other", "rarity": 1}, {"lat": 60.0716, "lng": 29.0322, "id": "106285", "name": "Teleaulax", "sprite": "sp-anchoviella_juruasanga.png", "group": "other", "rarity": 1}, {"lat": 60.1119, "lng": 28.8858, "id": "120120", "name": "Mysis relicta", "sprite": "sp-american_lobster.png", "group": "crab_lobster", "rarity": 1}, {"lat": 60.0836, "lng": 28.9575, "id": "160590", "name": "Monoraphidium", "sprite": "sp-anchoviella_juruasanga.png", "group": "other", "rarity": 1}, {"lat": 60.0617, "lng": 28.9482, "id": "177588", "name": "Pseudanabaena", "sprite": "sp-anchoviella_juruasanga.png", "group": "other", "rarity": 1}, {"lat": 60.0741, "lng": 28.5872, "id": "378585", "name": "Keratella quadrata platei", "sprite": "sp-anchoviella_juruasanga.png", "group": "other", "rarity": 1}, {"lat": 59.6749, "lng": 28.326, "id": "117428", "name": "Cordylophora caspia", "sprite": "sp-anchoviella_juruasanga.png", "group": "other", "rarity": 1}, {"lat": 60.0417, "lng": 28.675, "id": "505319", "name": "Dreissena bugensis", "sprite": "sp-blue_mussel.png", "group": "clam_mussel", "rarity": 1}, {"lat": 60.1167, "lng": 28.9667, "id": "106276", "name": "Podon intermedius", "sprite": "sp-anchoviella_juruasanga.png", "group": "other", "rarity": 1}, {"lat": 60.1074, "lng": 28.9218, "id": "110156", "name": "Peridiniella catenata", "sprite": "sp-anchoviella_juruasanga.png", "group": "other", "rarity": 1}, {"lat": 60.1089, "lng": 28.8837, "id": "110321", "name": "Protoceratium reticulatum", "sprite": "sp-anchoviella_juruasanga.png", "group": "other", "rarity": 1}, {"lat": 60.1545, "lng": 28.5969, "id": "409591", "name": "Coelastrum cambricum", "sprite": "sp-anchoviella_juruasanga.png", "group": "other", "rarity": 1}, {"lat": 60.2091, "lng": 28.7624, "id": "163063", "name": "Chaetoceros holsaticus", "sprite": "sp-anchoviella_juruasanga.png", "group": "other", "rarity": 1}, {"lat": 60.104, "lng": 28.7878, "id": "119034", "name": "Saduria entomon", "sprite": "sp-american_lobster.png", "group": "crab_lobster", "rarity": 1}, {"lat": 60.0449, "lng": 28.3901, "id": "134559", "name": "Pyramimonas virginica", "sprite": "sp-anchoviella_juruasanga.png", "group": "other", "rarity": 1}, {"lat": 60.1325, "lng": 28.6479, "id": "603675", "name": "Pyramidomonas", "sprite": "sp-anchoviella_juruasanga.png", "group": "other", "rarity": 1}, {"lat": 60.101, "lng": 28.8007, "id": "156623", "name": "Chaetoceros tenuissimus", "sprite": "sp-anchoviella_juruasanga.png", "group": "other", "rarity": 1}, {"lat": 60.1167, "lng": 28.9667, "id": "109712", "name": "Alexandrium ostenfeldii", "sprite": "sp-anchoviella_juruasanga.png", "group": "other", "rarity": 1}, {"lat": 60.0665, "lng": 28.9557, "id": "115090", "name": "Chrysochromulina", "sprite": "sp-anchoviella_juruasanga.png", "group": "other", "rarity": 1}, {"lat": 60.1168, "lng": 28.526, "id": "178207", "name": "Chaetoceros neogracilis", "sprite": "sp-anchoviella_juruasanga.png", "group": "other", "rarity": 1}, {"lat": 60.042, "lng": 29.022, "id": "976453", "name": "Melosira arctica var. arctica", "sprite": "sp-anchoviella_juruasanga.png", "group": "other", "rarity": 1}, {"lat": 60.0871, "lng": 28.7978, "id": "149287", "name": "Rhizosolenia minima", "sprite": "sp-anchoviella_juruasanga.png", "group": "other", "rarity": 1}, {"lat": 60.0917, "lng": 29.075, "id": "120136", "name": "Neomysis integer", "sprite": "sp-american_lobster.png", "group": "crab_lobster", "rarity": 1}, {"lat": 60.0222, "lng": 29.5009, "id": "149186", "name": "Synedra", "sprite": "sp-anchoviella_juruasanga.png", "group": "other", "rarity": 1}, {"lat": 60.101, "lng": 28.8007, "id": "110152", "name": "Heterocapsa rotundata", "sprite": "sp-anchoviella_juruasanga.png", "group": "other", "rarity": 1}, {"lat": 59.9336, "lng": 29.9471, "id": "109475", "name": "Gymnodinium", "sprite": "sp-anchoviella_juruasanga.png", "group": "other", "rarity": 1}, {"lat": 60.0753, "lng": 29.0, "id": "146546", "name": "Merismopedia warmingiana", "sprite": "sp-anchoviella_juruasanga.png", "group": "other", "rarity": 1}, {"lat": 60.0741, "lng": 28.5872, "id": "104108", "name": "Acartia", "sprite": "sp-anchoviella_juruasanga.png", "group": "other", "rarity": 1}, {"lat": 60.0972, "lng": 28.9833, "id": "409915", "name": "Polyphemus pediculus", "sprite": "sp-anchoviella_juruasanga.png", "group": "other", "rarity": 1}, {"lat": 60.101, "lng": 28.8007, "id": "708291", "name": "Pseudoperanema trichophorum", "sprite": "sp-anchoviella_juruasanga.png", "group": "other", "rarity": 1}, {"lat": 60.0417, "lng": 28.675, "id": "234085", "name": "Gammarus lacustris", "sprite": "sp-american_lobster.png", "group": "crab_lobster", "rarity": 1}, {"lat": 60.0607, "lng": 29.0365, "id": "578226", "name": "Mychonastes elegans", "sprite": "sp-anchoviella_juruasanga.png", "group": "other", "rarity": 1}, {"lat": 60.0953, "lng": 28.6878, "id": "149074", "name": "Skeletonema costatum", "sprite": "sp-anchoviella_juruasanga.png", "group": "other", "rarity": 1}, {"lat": 60.101, "lng": 28.8007, "id": "232069", "name": "Mesodinium rubrum", "sprite": "sp-anchoviella_juruasanga.png", "group": "other", "rarity": 1}, {"lat": 60.1167, "lng": 28.9667, "id": "110007", "name": "Amylax triacantha", "sprite": "sp-anchoviella_juruasanga.png", "group": "other", "rarity": 1}, {"lat": 59.9336, "lng": 29.9471, "id": "148905", "name": "Cyclotella", "sprite": "sp-anchoviella_juruasanga.png", "group": "other", "rarity": 1}, {"lat": 60.036, "lng": 28.44, "id": "732333", "name": "Chlamydomonadales", "sprite": "sp-anchoviella_juruasanga.png", "group": "other", "rarity": 1}, {"lat": 60.0741, "lng": 28.5872, "id": "378583", "name": "Daphnia cristata cristata", "sprite": "sp-anchoviella_juruasanga.png", "group": "other", "rarity": 1}, {"lat": 60.042, "lng": 29.022, "id": "601168", "name": "Vitreochlamys", "sprite": "sp-anchoviella_juruasanga.png", "group": "other", "rarity": 1}, {"lat": 59.9447, "lng": 30.0192, "id": "157252", "name": "Dinobryon sertularia", "sprite": "sp-anchoviella_juruasanga.png", "group": "other", "rarity": 1}, {"lat": 60.0308, "lng": 29.3859, "id": "146647", "name": "Aphanocapsa holsatica", "sprite": "sp-anchoviella_juruasanga.png", "group": "other", "rarity": 1}, {"lat": 60.0417, "lng": 28.675, "id": "118100", "name": "Chironomidae", "sprite": "sp-anchoviella_juruasanga.png", "group": "other", "rarity": 1}, {"lat": 60.0295, "lng": 29.3636, "id": "17657", "name": "Eutreptiella", "sprite": "sp-anchoviella_juruasanga.png", "group": "other", "rarity": 1}, {"lat": 60.1, "lng": 29.73, "id": "985525", "name": "Synedra acus f. acus", "sprite": "sp-anchoviella_juruasanga.png", "group": "other", "rarity": 1}, {"lat": 60.0744, "lng": 28.98, "id": "106303", "name": "Plagioselmis prolonga", "sprite": "sp-anchoviella_juruasanga.png", "group": "other", "rarity": 1}, {"lat": 60.0469, "lng": 28.4212, "id": "249725", "name": "Ochromonas", "sprite": "sp-anchoviella_juruasanga.png", "group": "other", "rarity": 1}, {"lat": 60.0417, "lng": 28.675, "id": "104241", "name": "Temora", "sprite": "sp-anchoviella_juruasanga.png", "group": "other", "rarity": 1}, {"lat": 60.0617, "lng": 29.197, "id": "146562", "name": "Aphanocapsa", "sprite": "sp-anchoviella_juruasanga.png", "group": "other", "rarity": 1}, {"lat": 60.09, "lng": 28.8306, "id": "118075", "name": "Telonema subtile", "sprite": "sp-anchoviella_juruasanga.png", "group": "other", "rarity": 1}, {"lat": 60.15, "lng": 28.4933, "id": "156621", "name": "Chaetoceros subtilis", "sprite": "sp-anchoviella_juruasanga.png", "group": "other", "rarity": 1}, {"lat": 59.9336, "lng": 29.9471, "id": "149402", "name": "Eunotia", "sprite": "sp-anchoviella_juruasanga.png", "group": "other", "rarity": 1}, {"lat": 60.0484, "lng": 29.235, "id": "249713", "name": "Desmodesmus maximus", "sprite": "sp-anchoviella_juruasanga.png", "group": "other", "rarity": 1}, {"lat": 60.0695, "lng": 29.203, "id": "148954", "name": "Asterionella formosa", "sprite": "sp-anchoviella_juruasanga.png", "group": "other", "rarity": 1}, {"lat": 60.0954, "lng": 29.0364, "id": "148371", "name": "Daphnia cucullata", "sprite": "sp-anchoviella_juruasanga.png", "group": "other", "rarity": 1}, {"lat": 60.1083, "lng": 28.8, "id": "175400", "name": "Nitzschia frigida", "sprite": "sp-anchoviella_juruasanga.png", "group": "other", "rarity": 1}, {"lat": 60.0775, "lng": 28.9283, "id": "146549", "name": "Oscillatoria", "sprite": "sp-anchoviella_juruasanga.png", "group": "other", "rarity": 1}]}