{"zoom": 7, "x": 74, "y": 86, "points": [{"lat": -53.2882, "lng": 29.5295, "id": "212583", "name": "Diomedea exulans", "sprite": "sp-anchoviella_juruasanga.png", "group": "other", "rarity": 1}, {"lat": -53.3168, "lng": 29.892, "id": "1080", "name": "Copepoda", "sprite": "sp-anchoviella_juruasanga.png", "group": "other", "rarity": 1}, {"lat": -54.0167, "lng": 30.0667, "id": "105", "name": "Bivalvia", "sprite": "sp-blue_mussel.png", "group": "clam_mussel", "rarity": 1}, {"lat": -53.1524, "lng": 29.5322, "id": "212651", "name": "Procellaria aequinoctialis", "sprite": "sp-anchoviella_juruasanga.png", "group": "other", "rarity": 1}, {"lat": -52.9667, "lng": 28.1667, "id": "137217", "name": "Salpidae", "sprite": "sp-anchoviella_juruasanga.png", "group": "other", "rarity": 1}, {"lat": -53.5167, "lng": 29.925, "id": "13703", "name": "Thecosomata", "sprite": "sp-cowrie_shell.png", "group": "sea_snail", "rarity": 1}, {"lat": -53.0167, "lng": 29.7833, "id": "104229", "name": "Scolecithricella", "sprite": "sp-anchoviella_juruasanga.png", "group": "other", "rarity": 1}, {"lat": -53.6417, "lng": 29.9604, "id": "104174", "name": "Euchaeta", "sprite": "sp-anchoviella_juruasanga.png", "group": "other", "rarity": 1}, {"lat": -53.3171, "lng": 29.9414, "id": "106656", "name": "Oithona similis", "sprite": "sp-anchoviella_juruasanga.png", "group": "other", "rarity": 1}, {"lat": -53.0167, "lng": 29.7833, "id": "116116", "name": "Microsetella rosea", "sprite": "sp-anchoviella_juruasanga.png", "group": "other", "rarity": 1}, {"lat": -53.5505, "lng": 29.946, "id": "342436", "name": "Calanus simillimus", "sprite": "sp-anchoviella_juruasanga.png", "group": "other", "rarity": 1}, {"lat": -53.1745, "lng": 29.3071, "id": "231413", "name": "Mirounga leonina", "sprite": "sp-elephant_seal.png", "group": "seal", "rarity": 1}, {"lat": -53.4935, "lng": 29.916, "id": "1078", "name": "Ostracoda", "sprite": "sp-anchoviella_juruasanga.png", "group": "other", "rarity": 1}, {"lat": -53.1499, "lng": 30.079, "id": "212631", "name": "Phoebetria palpebrata", "sprite": "sp-anchoviella_juruasanga.png", "group": "other", "rarity": 1}, {"lat": -52.9405, "lng": 29.594, "id": "101417", "name": "Hyperiidae", "sprite": "sp-american_lobster.png", "group": "crab_lobster", "rarity": 1}, {"lat": -53.0167, "lng": 29.7833, "id": "850801", "name": "Metridia lucens lucens", "sprite": "sp-anchoviella_juruasanga.png", "group": "other", "rarity": 1}, {"lat": -53.238, "lng": 29.8642, "id": "236219", "name": "Thysanoessa macrura", "sprite": "sp-antarctic_krill.png", "group": "shrimp", "rarity": 1}, {"lat": -53.3998, "lng": 30.0264, "id": "105416", "name": "Eukrohnia hamata", "sprite": "sp-anchoviella_juruasanga.png", "group": "other", "rarity": 1}, {"lat": -53.0061, "lng": 30.2461, "id": "343995", "name": "Thalassarche melanophris", "sprite": "sp-anchoviella_juruasanga.png", "group": "other", "rarity": 1}, {"lat": -53.5229, "lng": 29.9783, "id": "342444", "name": "Clausocalanus laticeps", "sprite": "sp-anchoviella_juruasanga.png", "group": "other", "rarity": 1}, {"lat": -53.4611, "lng": 29.9093, "id": "104510", "name": "Ctenocalanus vanus", "sprite": "sp-anchoviella_juruasanga.png", "group": "other", "rarity": 1}, {"lat": -53.4167, "lng": 29.8967, "id": "1509944", "name": "Scolecithricella minor minor", "sprite": "sp-anchoviella_juruasanga.png", "group": "other", "rarity": 1}, {"lat": -53.0167, "lng": 29.7833, "id": "137233", "name": "Salpa", "sprite": "sp-anchoviella_juruasanga.png", "group": "other", "rarity": 1}, {"lat": -53.718, "lng": 30.3071, "id": "1102", "name": "Harpacticoida", "sprite": "sp-anchoviella_juruasanga.png", "group": "other", "rarity": 1}, {"lat": -52.7008, "lng": 29.3617, "id": "325384", "name": "Themisto gaudichaudii", "sprite": "sp-american_lobster.png", "group": "crab_lobster", "rarity": 1}, {"lat": -52.7329, "lng": 29.3479, "id": "225760", "name": "Thalassarche chrysostoma", "sprite": "sp-anchoviella_juruasanga.png", "group": "other", "rarity": 1}, {"lat": -53.5167, "lng": 29.925, "id": "103367", "name": "Oikopleura", "sprite": "sp-anchoviella_juruasanga.png", "group": "other", "rarity": 1}, {"lat": -53.0167, "lng": 29.7833, "id": "104275", "name": "Aetideus armatus", "sprite": "sp-anchoviella_juruasanga.png", "group": "other", "rarity": 1}, {"lat": -53.046, "lng": 29.6896, "id": "103358", "name": "Fritillaria", "sprite": "sp-anchoviella_juruasanga.png", "group": "other", "rarity": 1}, {"lat": -53.3908, "lng": 30.0057, "id": "2081", "name": "Chaetognatha", "sprite": "sp-anchoviella_juruasanga.png", "group": "other", "rarity": 1}, {"lat": -53.39, "lng": 30.0086, "id": "138122", "name": "Limacina", "sprite": "sp-cowrie_shell.png", "group": "sea_snail", "rarity": 1}, {"lat": -53.7842, "lng": 30.4009, "id": "129715", "name": "Tomopteris", "sprite": "sp-anchoviella_juruasanga.png", "group": "other", "rarity": 1}, {"lat": -53.5167, "lng": 29.925, "id": "1135", "name": "Amphipoda", "sprite": "sp-american_lobster.png", "group": "crab_lobster", "rarity": 1}, {"lat": -53.0167, "lng": 29.7833, "id": "104228", "name": "Scaphocalanus", "sprite": "sp-anchoviella_juruasanga.png", "group": "other", "rarity": 1}, {"lat": -53.1834, "lng": 29.8305, "id": "746007", "name": "Pleuromamma robusta robusta", "sprite": "sp-anchoviella_juruasanga.png", "group": "other", "rarity": 1}, {"lat": -53.2614, "lng": 29.7691, "id": "212656", "name": "Aptenodytes patagonicus", "sprite": "sp-anchoviella_juruasanga.png", "group": "other", "rarity": 1}, {"lat": -53.4453, "lng": 29.9048, "id": "104513", "name": "Microcalanus pygmaeus", "sprite": "sp-anchoviella_juruasanga.png", "group": "other", "rarity": 1}, {"lat": -53.5018, "lng": 30.1173, "id": "342434", "name": "Calanoides acutus", "sprite": "sp-anchoviella_juruasanga.png", "group": "other", "rarity": 1}, {"lat": -53.4749, "lng": 29.4955, "id": "231404", "name": "Arctocephalus gazella", "sprite": "sp-elephant_seal.png", "group": "seal", "rarity": 1}, {"lat": -54.0167, "lng": 30.0667, "id": "342435", "name": "Calanus propinquus", "sprite": "sp-anchoviella_juruasanga.png", "group": "other", "rarity": 1}, {"lat": -53.408, "lng": 29.8942, "id": "105410", "name": "Sagitta", "sprite": "sp-anchoviella_juruasanga.png", "group": "other", "rarity": 1}, {"lat": -53.0167, "lng": 29.7833, "id": "128690", "name": "Oncaea", "sprite": "sp-anchoviella_juruasanga.png", "group": "other", "rarity": 1}, {"lat": -53.2046, "lng": 29.7441, "id": "342443", "name": "Clausocalanus brevipes", "sprite": "sp-anchoviella_juruasanga.png", "group": "other", "rarity": 1}, {"lat": -53.3171, "lng": 29.9414, "id": "1100", "name": "Calanoida", "sprite": "sp-anchoviella_juruasanga.png", "group": "other", "rarity": 1}, {"lat": -53.367, "lng": 29.9373, "id": "1410", "name": "Foraminifera", "sprite": "sp-anchoviella_juruasanga.png", "group": "other", "rarity": 1}, {"lat": -53.0167, "lng": 29.7833, "id": "104784", "name": "Racovitzanus antarcticus", "sprite": "sp-anchoviella_juruasanga.png", "group": "other", "rarity": 1}, {"lat": -53.0167, "lng": 29.7833, "id": "603038", "name": "Heterorhabdus", "sprite": "sp-anchoviella_juruasanga.png", "group": "other", "rarity": 1}, {"lat": -53.1917, "lng": 29.8608, "id": "220837", "name": "Rhincalanus gigas", "sprite": "sp-anchoviella_juruasanga.png", "group": "other", "rarity": 1}, {"lat": -53.6834, "lng": 29.9722, "id": "104190", "name": "Metridia", "sprite": "sp-anchoviella_juruasanga.png", "group": "other", "rarity": 1}, {"lat": -52.8414, "lng": 29.5162, "id": "110671", "name": "Euphausiidae", "sprite": "sp-antarctic_krill.png", "group": "shrimp", "rarity": 1}, {"lat": -53.0167, "lng": 29.7833, "id": "883", "name": "Polychaeta", "sprite": "sp-anchoviella_juruasanga.png", "group": "other", "rarity": 1}, {"lat": -53.4542, "lng": 29.9073, "id": "138007", "name": "Fiona", "sprite": "sp-cowrie_shell.png", "group": "sea_snail", "rarity": 1}, {"lat": -53.6212, "lng": 29.1293, "id": "212632", "name": "Phoebetria fusca", "sprite": "sp-anchoviella_juruasanga.png", "group": "other", "rarity": 1}, {"lat": -53.3171, "lng": 29.9414, "id": "342449", "name": "Ctenocalanus citer", "sprite": "sp-anchoviella_juruasanga.png", "group": "other", "rarity": 1}, {"lat": -53.137, "lng": 30.181, "id": "344007", "name": "Pelecanoides urinatrix", "sprite": "sp-anchoviella_juruasanga.png", "group": "other", "rarity": 1}]}