{"zoom": 7, "x": 74, "y": 83, "points": [{"lat": -47.7833, "lng": 30.025, "id": "104513", "name": "Microcalanus pygmaeus", "sprite": "sp-anchoviella_juruasanga.png", "group": "other", "rarity": 1}, {"lat": -47.3167, "lng": 30.0333, "id": "110673", "name": "Euphausia", "sprite": "sp-antarctic_krill.png", "group": "shrimp", "rarity": 1}, {"lat": -48.0122, "lng": 29.7515, "id": "231404", "name": "Arctocephalus gazella", "sprite": "sp-elephant_seal.png", "group": "seal", "rarity": 1}, {"lat": -47.8552, "lng": 30.025, "id": "105410", "name": "Sagitta", "sprite": "sp-anchoviella_juruasanga.png", "group": "other", "rarity": 1}, {"lat": -47.69, "lng": 30.0267, "id": "128690", "name": "Oncaea", "sprite": "sp-anchoviella_juruasanga.png", "group": "other", "rarity": 1}, {"lat": -48.0167, "lng": 30.0209, "id": "220837", "name": "Rhincalanus gigas", "sprite": "sp-anchoviella_juruasanga.png", "group": "other", "rarity": 1}, {"lat": -48.25, "lng": 30.0167, "id": "104784", "name": "Racovitzanus antarcticus", "sprite": "sp-anchoviella_juruasanga.png", "group": "other", "rarity": 1}, {"lat": -47.701, "lng": 30.0265, "id": "342443", "name": "Clausocalanus brevipes", "sprite": "sp-anchoviella_juruasanga.png", "group": "other", "rarity": 1}, {"lat": -47.3167, "lng": 30.0333, "id": "1135", "name": "Amphipoda", "sprite": "sp-american_lobster.png", "group": "crab_lobster", "rarity": 1}, {"lat": -47.5132, "lng": 30.0298, "id": "746007", "name": "Pleuromamma robusta robusta", "sprite": "sp-anchoviella_juruasanga.png", "group": "other", "rarity": 1}, {"lat": -47.3167, "lng": 30.0333, "id": "1410", "name": "Foraminifera", "sprite": "sp-anchoviella_juruasanga.png", "group": "other", "rarity": 1}, {"lat": -47.3167, "lng": 30.0333, "id": "883", "name": "Polychaeta", "sprite": "sp-anchoviella_juruasanga.png", "group": "other", "rarity": 1}, {"lat": -47.95, "lng": 30.0238, "id": "138007", "name": "Fiona", "sprite": "sp-cowrie_shell.png", "group": "sea_snail", "rarity": 1}, {"lat": -47.867, "lng": 29.352, "id": "212632", "name": "Phoebetria fusca", "sprite": "sp-anchoviella_juruasanga.png", "group": "other", "rarity": 1}, {"lat": -48.25, "lng": 30.0167, "id": "104191", "name": "Pleuromamma", "sprite": "sp-anchoviella_juruasanga.png", "group": "other", "rarity": 1}, {"lat": -48.1917, "lng": 30.0209, "id": "236219", "name": "Thysanoessa macrura", "sprite": "sp-antarctic_krill.png", "group": "shrimp", "rarity": 1}, {"lat": -47.7833, "lng": 30.025, "id": "13703", "name": "Thecosomata", "sprite": "sp-cowrie_shell.png", "group": "sea_snail", "rarity": 1}, {"lat": -48.3667, "lng": 30.0167, "id": "104229", "name": "Scolecithricella", "sprite": "sp-anchoviella_juruasanga.png", "group": "other", "rarity": 1}, {"lat": -47.6278, "lng": 30.0278, "id": "104174", "name": "Euchaeta", "sprite": "sp-anchoviella_juruasanga.png", "group": "other", "rarity": 1}, {"lat": -47.8239, "lng": 30.0254, "id": "342436", "name": "Calanus simillimus", "sprite": "sp-anchoviella_juruasanga.png", "group": "other", "rarity": 1}, {"lat": -47.9167, "lng": 30.0238, "id": "342444", "name": "Clausocalanus laticeps", "sprite": "sp-anchoviella_juruasanga.png", "group": "other", "rarity": 1}, {"lat": -47.9234, "lng": 30.0239, "id": "104510", "name": "Ctenocalanus vanus", "sprite": "sp-anchoviella_juruasanga.png", "group": "other", "rarity": 1}, {"lat": -47.4722, "lng": 30.0305, "id": "1509944", "name": "Scolecithricella minor minor", "sprite": "sp-anchoviella_juruasanga.png", "group": "other", "rarity": 1}, {"lat": -48.2433, "lng": 29.395, "id": "325384", "name": "Themisto gaudichaudii", "sprite": "sp-american_lobster.png", "group": "crab_lobster", "rarity": 1}, {"lat": -48.6234, "lng": 30.0167, "id": "103367", "name": "Oikopleura", "sprite": "sp-anchoviella_juruasanga.png", "group": "other", "rarity": 1}, {"lat": -48.0705, "lng": 30.0218, "id": "1080", "name": "Copepoda", "sprite": "sp-anchoviella_juruasanga.png", "group": "other", "rarity": 1}, {"lat": -47.9667, "lng": 29.4905, "id": "212631", "name": "Phoebetria palpebrata", "sprite": "sp-anchoviella_juruasanga.png", "group": "other", "rarity": 1}, {"lat": -47.849, "lng": 29.6987, "id": "212583", "name": "Diomedea exulans", "sprite": "sp-anchoviella_juruasanga.png", "group": "other", "rarity": 1}, {"lat": -48.25, "lng": 30.0167, "id": "104121", "name": "Gaetanus", "sprite": "sp-anchoviella_juruasanga.png", "group": "other", "rarity": 1}, {"lat": -47.8534, "lng": 29.6331, "id": "343995", "name": "Thalassarche melanophris", "sprite": "sp-anchoviella_juruasanga.png", "group": "other", "rarity": 1}, {"lat": -47.6278, "lng": 30.0278, "id": "104275", "name": "Aetideus armatus", "sprite": "sp-anchoviella_juruasanga.png", "group": "other", "rarity": 1}, {"lat": -47.85, "lng": 30.025, "id": "850801", "name": "Metridia lucens lucens", "sprite": "sp-anchoviella_juruasanga.png", "group": "other", "rarity": 1}, {"lat": -48.25, "lng": 30.0167, "id": "104193", "name": "Calocalanus", "sprite": "sp-anchoviella_juruasanga.png", "group": "other", "rarity": 1}, {"lat": -48.409, "lng": 30.0009, "id": "225760", "name": "Thalassarche chrysostoma", "sprite": "sp-anchoviella_juruasanga.png", "group": "other", "rarity": 1}, {"lat": -48.0555, "lng": 29.6131, "id": "212651", "name": "Procellaria aequinoctialis", "sprite": "sp-anchoviella_juruasanga.png", "group": "other", "rarity": 1}, {"lat": -47.7833, "lng": 30.025, "id": "236217", "name": "Euphausia superba", "sprite": "sp-antarctic_krill.png", "group": "shrimp", "rarity": 1}, {"lat": -48.0115, "lng": 29.2619, "id": "231413", "name": "Mirounga leonina", "sprite": "sp-elephant_seal.png", "group": "seal", "rarity": 1}, {"lat": -48.05, "lng": 30.0214, "id": "1078", "name": "Ostracoda", "sprite": "sp-anchoviella_juruasanga.png", "group": "other", "rarity": 1}, {"lat": -47.05, "lng": 30.0833, "id": "126187", "name": "Cyclothone", "sprite": "sp-anchoviella_juruasanga.png", "group": "other", "rarity": 1}]}