{"zoom": 7, "x": 75, "y": 94, "points": [{"lat": -64.9552, "lng": 33.6333, "id": "413047", "name": "Actinomma boreale", "sprite": "sp-anchoviella_juruasanga.png", "group": "other", "rarity": 1}, {"lat": -64.8226, "lng": 32.9179, "id": "236217", "name": "Euphausia superba", "sprite": "sp-antarctic_krill.png", "group": "shrimp", "rarity": 1}, {"lat": -64.9552, "lng": 33.6333, "id": "412947", "name": "Spongopyle osculosa", "sprite": "sp-anchoviella_juruasanga.png", "group": "other", "rarity": 1}, {"lat": -64.6423, "lng": 32.6531, "id": "231413", "name": "Mirounga leonina", "sprite": "sp-elephant_seal.png", "group": "seal", "rarity": 1}, {"lat": -64.1886, "lng": 31.0587, "id": "225773", "name": "Aptenodytes forsteri", "sprite": "sp-anchoviella_juruasanga.png", "group": "other", "rarity": 1}, {"lat": -64.9552, "lng": 33.6333, "id": "391896", "name": "Dictyophimus", "sprite": "sp-anchoviella_juruasanga.png", "group": "other", "rarity": 1}, {"lat": -64.9552, "lng": 33.6333, "id": "493595", "name": "Phorticium clevei", "sprite": "sp-anchoviella_juruasanga.png", "group": "other", "rarity": 1}, {"lat": -64.9552, "lng": 33.6333, "id": "493327", "name": "Druppatractus variabilis", "sprite": "sp-anchoviella_juruasanga.png", "group": "other", "rarity": 1}, {"lat": -64.9552, "lng": 33.6333, "id": "345861", "name": "Stylodictya aculeata", "sprite": "sp-anchoviella_juruasanga.png", "group": "other", "rarity": 1}, {"lat": -64.95, "lng": 33.2724, "id": "225757", "name": "Pygoscelis adeliae", "sprite": "sp-anchoviella_juruasanga.png", "group": "other", "rarity": 1}, {"lat": -64.9552, "lng": 33.6333, "id": "367325", "name": "Spongurus pylomaticus", "sprite": "sp-anchoviella_juruasanga.png", "group": "other", "rarity": 1}, {"lat": -64.9555, "lng": 33.4846, "id": "212583", "name": "Diomedea exulans", "sprite": "sp-anchoviella_juruasanga.png", "group": "other", "rarity": 1}, {"lat": -64.5667, "lng": 33.15, "id": "137217", "name": "Salpidae", "sprite": "sp-anchoviella_juruasanga.png", "group": "other", "rarity": 1}, {"lat": -64.6055, "lng": 32.1901, "id": "212639", "name": "Thalassoica antarctica", "sprite": "sp-anchoviella_juruasanga.png", "group": "other", "rarity": 1}, {"lat": -64.9552, "lng": 33.6333, "id": "493453", "name": "Saccospyris antarctica", "sprite": "sp-anchoviella_juruasanga.png", "group": "other", "rarity": 1}, {"lat": -64.9552, "lng": 33.6333, "id": "493701", "name": "Triceraspyris antarctica", "sprite": "sp-anchoviella_juruasanga.png", "group": "other", "rarity": 1}, {"lat": -64.9552, "lng": 33.6333, "id": "412915", "name": "Cenosphaera cristata", "sprite": "sp-anchoviella_juruasanga.png", "group": "other", "rarity": 1}, {"lat": -64.6074, "lng": 32.5386, "id": "212651", "name": "Procellaria aequinoctialis", "sprite": "sp-anchoviella_juruasanga.png", "group": "other", "rarity": 1}, {"lat": -64.9552, "lng": 33.6333, "id": "412968", "name": "Antarctissa denticulata", "sprite": "sp-anchoviella_juruasanga.png", "group": "other", "rarity": 1}, {"lat": -64.9552, "lng": 33.6333, "id": "385312", "name": "Lithelius minor", "sprite": "sp-anchoviella_juruasanga.png", "group": "other", "rarity": 1}, {"lat": -64.9552, "lng": 33.6333, "id": "412949", "name": "Spongotrochus glacialis", "sprite": "sp-anchoviella_juruasanga.png", "group": "other", "rarity": 1}, {"lat": -64.5179, "lng": 32.41, "id": "212631", "name": "Phoebetria palpebrata", "sprite": "sp-anchoviella_juruasanga.png", "group": "other", "rarity": 1}, {"lat": -64.9455, "lng": 32.7075, "id": "137165", "name": "Sterna paradisaea", "sprite": "sp-anchoviella_juruasanga.png", "group": "other", "rarity": 1}]}