{"zoom": 7, "x": 76, "y": 32, "points": [{"lat": 66.3363, "lng": 34.4187, "id": "567118", "name": "Thalassiosira bulbosa", "sprite": "sp-anchoviella_juruasanga.png", "group": "other", "rarity": 1}, {"lat": 66.2793, "lng": 34.7712, "id": "232716", "name": "Gymnodinium aureolum", "sprite": "sp-anchoviella_juruasanga.png", "group": "other", "rarity": 1}, {"lat": 66.3664, "lng": 34.3673, "id": "163856", "name": "Cocconeis costata", "sprite": "sp-anchoviella_juruasanga.png", "group": "other", "rarity": 1}, {"lat": 66.2148, "lng": 34.7617, "id": "156609", "name": "Chaetoceros constrictus", "sprite": "sp-anchoviella_juruasanga.png", "group": "other", "rarity": 1}, {"lat": 66.35, "lng": 35.6722, "id": "410724", "name": "Golfingia (Golfingia) vulgaris vulgaris", "sprite": "sp-anchoviella_juruasanga.png", "group": "other", "rarity": 1}, {"lat": 66.0833, "lng": 34.9567, "id": "163780", "name": "Tintinnopsis", "sprite": "sp-anchoviella_juruasanga.png", "group": "other", "rarity": 1}, {"lat": 66.412, "lng": 34.0322, "id": "149106", "name": "Leptocylindrus danicus", "sprite": "sp-anchoviella_juruasanga.png", "group": "other", "rarity": 1}, {"lat": 66.425, "lng": 34.3667, "id": "102931", "name": "Westwoodilla brevicalcar", "sprite": "sp-american_lobster.png", "group": "crab_lobster", "rarity": 1}, {"lat": 66.2983, "lng": 34.5583, "id": "11676", "name": "Pisces", "sprite": "sp-anchoviella_juruasanga.png", "group": "other", "rarity": 1}, {"lat": 66.0712, "lng": 35.1659, "id": "346037", "name": "Acartia (Acartiura) longiremis", "sprite": "sp-anchoviella_juruasanga.png", "group": "other", "rarity": 1}, {"lat": 66.4644, "lng": 34.1164, "id": "130616", "name": "Eteone longa", "sprite": "sp-anchoviella_juruasanga.png", "group": "other", "rarity": 1}, {"lat": 66.27, "lng": 36.5067, "id": "117554", "name": "Eudendrium rameum", "sprite": "sp-anchoviella_juruasanga.png", "group": "other", "rarity": 1}, {"lat": 66.2853, "lng": 34.7346, "id": "148931", "name": "Thalassiosira nordenskioeldii", "sprite": "sp-anchoviella_juruasanga.png", "group": "other", "rarity": 1}, {"lat": 66.1681, "lng": 35.0045, "id": "125125", "name": "Ophiopholis aculeata", "sprite": "sp-sea_cucumber.png", "group": "starfish", "rarity": 1}, {"lat": 66.306, "lng": 34.4742, "id": "149055", "name": "Paralia sulcata", "sprite": "sp-anchoviella_juruasanga.png", "group": "other", "rarity": 1}, {"lat": 65.7, "lng": 35.5333, "id": "111479", "name": "Arctonula arctica", "sprite": "sp-anchoviella_juruasanga.png", "group": "other", "rarity": 1}, {"lat": 66.1572, "lng": 34.9234, "id": "109773", "name": "Cochlodinium pupa", "sprite": "sp-anchoviella_juruasanga.png", "group": "other", "rarity": 1}, {"lat": 66.3528, "lng": 34.2455, "id": "117389", "name": "Obelia longissima", "sprite": "sp-anchoviella_juruasanga.png", "group": "other", "rarity": 1}, {"lat": 66.2728, "lng": 34.8598, "id": "149074", "name": "Skeletonema costatum", "sprite": "sp-anchoviella_juruasanga.png", "group": "other", "rarity": 1}, {"lat": 66.3478, "lng": 34.4283, "id": "110210", "name": "Protoperidinium brevipes", "sprite": "sp-anchoviella_juruasanga.png", "group": "other", "rarity": 1}, {"lat": 66.3129, "lng": 34.7707, "id": "573871", "name": "Eutreptiella eupharyngea", "sprite": "sp-anchoviella_juruasanga.png", "group": "other", "rarity": 1}, {"lat": 66.3691, "lng": 34.5016, "id": "663583", "name": "Protodinium simplex", "sprite": "sp-anchoviella_juruasanga.png", "group": "other", "rarity": 1}, {"lat": 66.235, "lng": 34.9902, "id": "1248", "name": "Ctenophora", "sprite": "sp-anchoviella_juruasanga.png", "group": "other", "rarity": 1}, {"lat": 66.2389, "lng": 35.0007, "id": "149124", "name": "Chaetoceros borealis", "sprite": "sp-anchoviella_juruasanga.png", "group": "other", "rarity": 1}, {"lat": 66.3667, "lng": 33.8, "id": "605001", "name": "Diatoma", "sprite": "sp-anchoviella_juruasanga.png", "group": "other", "rarity": 1}, {"lat": 66.2262, "lng": 34.8365, "id": "129938", "name": "Aphelochaeta marioni", "sprite": "sp-anchoviella_juruasanga.png", "group": "other", "rarity": 1}, {"lat": 66.387, "lng": 34.5001, "id": "140450", "name": "Dacrydium viviparum", "sprite": "sp-blue_mussel.png", "group": "clam_mussel", "rarity": 1}, {"lat": 66.3927, "lng": 35.529, "id": "130118", "name": "Glycera capitata", "sprite": "sp-anchoviella_juruasanga.png", "group": "other", "rarity": 1}, {"lat": 66.0625, "lng": 34.2396, "id": "110398", "name": "Diastylis", "sprite": "sp-american_lobster.png", "group": "crab_lobster", "rarity": 1}, {"lat": 66.4, "lng": 34.35, "id": "897", "name": "Oweniida", "sprite": "sp-anchoviella_juruasanga.png", "group": "other", "rarity": 1}, {"lat": 66.3289, "lng": 35.2908, "id": "138969", "name": "Admete viridula", "sprite": "sp-cowrie_shell.png", "group": "sea_snail", "rarity": 1}, {"lat": 66.2017, "lng": 34.9967, "id": "109761", "name": "Cochlodinium archimedes", "sprite": "sp-anchoviella_juruasanga.png", "group": "other", "rarity": 1}, {"lat": 66.105, "lng": 35.6883, "id": "577600", "name": "Navicula pellucidula", "sprite": "sp-anchoviella_juruasanga.png", "group": "other", "rarity": 1}, {"lat": 66.3815, "lng": 34.4669, "id": "418172", "name": "Oxytoxum belgicae", "sprite": "sp-anchoviella_juruasanga.png", "group": "other", "rarity": 1}, {"lat": 66.3667, "lng": 33.8, "id": "577603", "name": "Nitzschia scabra", "sprite": "sp-anchoviella_juruasanga.png", "group": "other", "rarity": 1}, {"lat": 66.2254, "lng": 35.0537, "id": "109859", "name": "Gyrodinium lachryma", "sprite": "sp-anchoviella_juruasanga.png", "group": "other", "rarity": 1}, {"lat": 66.48, "lng": 35.1633, "id": "140440", "name": "Crenella decussata", "sprite": "sp-blue_mussel.png", "group": "clam_mussel", "rarity": 1}, {"lat": 66.2017, "lng": 34.9967, "id": "110209", "name": "Protoperidinium breve", "sprite": "sp-anchoviella_juruasanga.png", "group": "other", "rarity": 1}, {"lat": 66.24, "lng": 34.21, "id": "152391", "name": "Nemertea", "sprite": "sp-anchoviella_juruasanga.png", "group": "other", "rarity": 1}, {"lat": 66.4283, "lng": 33.9803, "id": "102989", "name": "Phoxocephalus holbolli", "sprite": "sp-american_lobster.png", "group": "crab_lobster", "rarity": 1}, {"lat": 66.2732, "lng": 34.9179, "id": "178207", "name": "Chaetoceros neogracilis", "sprite": "sp-anchoviella_juruasanga.png", "group": "other", "rarity": 1}, {"lat": 66.2017, "lng": 34.9967, "id": "233015", "name": "Karenia brevis", "sprite": "sp-anchoviella_juruasanga.png", "group": "other", "rarity": 1}, {"lat": 66.4783, "lng": 34.5067, "id": "149122", "name": "Chaetoceros didymus", "sprite": "sp-anchoviella_juruasanga.png", "group": "other", "rarity": 1}, {"lat": 66.2607, "lng": 34.8693, "id": "116995", "name": "Aeginopsis", "sprite": "sp-anchoviella_juruasanga.png", "group": "other", "rarity": 1}, {"lat": 66.2597, "lng": 35.0016, "id": "148932", "name": "Thalassiosira pacifica", "sprite": "sp-anchoviella_juruasanga.png", "group": "other", "rarity": 1}, {"lat": 66.3057, "lng": 34.9161, "id": "102516", "name": "Anonyx sarsi", "sprite": "sp-american_lobster.png", "group": "crab_lobster", "rarity": 1}, {"lat": 66.3577, "lng": 33.9375, "id": "130327", "name": "Praxillura longissima", "sprite": "sp-anchoviella_juruasanga.png", "group": "other", "rarity": 1}, {"lat": 66.105, "lng": 35.6883, "id": "846699", "name": "Gyrosigma fasciola var. tenuirostris", "sprite": "sp-anchoviella_juruasanga.png", "group": "other", "rarity": 1}, {"lat": 66.3118, "lng": 34.6238, "id": "129876", "name": "Capitella capitata", "sprite": "sp-anchoviella_juruasanga.png", "group": "other", "rarity": 1}, {"lat": 66.2547, "lng": 35.0083, "id": "956074", "name": "Gomphonema", "sprite": "sp-anchoviella_juruasanga.png", "group": "other", "rarity": 1}, {"lat": 66.1208, "lng": 35.3775, "id": "131482", "name": "Artacama proboscidea", "sprite": "sp-anchoviella_juruasanga.png", "group": "other", "rarity": 1}, {"lat": 66.233, "lng": 36.35, "id": "124966", "name": "Gorgonocephalus arcticus", "sprite": "sp-sea_cucumber.png", "group": "starfish", "rarity": 1}, {"lat": 65.9667, "lng": 35.9042, "id": "131474", "name": "Amphitrite cirrata", "sprite": "sp-anchoviella_juruasanga.png", "group": "other", "rarity": 1}, {"lat": 66.3022, "lng": 33.9017, "id": "254745", "name": "Laonome kroyeri", "sprite": "sp-anchoviella_juruasanga.png", "group": "other", "rarity": 1}, {"lat": 66.2881, "lng": 34.9012, "id": "1102", "name": "Harpacticoida", "sprite": "sp-anchoviella_juruasanga.png", "group": "other", "rarity": 1}, {"lat": 66.2518, "lng": 34.7826, "id": "104465", "name": "Calanus glacialis", "sprite": "sp-anchoviella_juruasanga.png", "group": "other", "rarity": 1}, {"lat": 66.2567, "lng": 34.5356, "id": "175794", "name": "Rhoicosphenia abbreviata", "sprite": "sp-anchoviella_juruasanga.png", "group": "other", "rarity": 1}, {"lat": 66.2583, "lng": 34.9969, "id": "130739", "name": "Enipo torelli", "sprite": "sp-anchoviella_juruasanga.png", "group": "other", "rarity": 1}, {"lat": 66.3133, "lng": 34.4619, "id": "156548", "name": "Pseudo-nitzschia pseudodelicatissima", "sprite": "sp-anchoviella_juruasanga.png", "group": "other", "rarity": 1}, {"lat": 66.43, "lng": 34.48, "id": "148985", "name": "Chaetoceros", "sprite": "sp-anchoviella_juruasanga.png", "group": "other", "rarity": 1}, {"lat": 66.4817, "lng": 35.1767, "id": "130624", "name": "Eulalia bilineata", "sprite": "sp-anchoviella_juruasanga.png", "group": "other", "rarity": 1}, {"lat": 65.9739, "lng": 35.235, "id": "110215", "name": "Protoperidinium curtipes", "sprite": "sp-anchoviella_juruasanga.png", "group": "other", "rarity": 1}, {"lat": 66.3897, "lng": 34.9525, "id": "141580", "name": "Macoma calcarea", "sprite": "sp-blue_mussel.png", "group": "clam_mussel", "rarity": 1}, {"lat": 66.3244, "lng": 34.7209, "id": "134550", "name": "Pyramimonas subg. Trichocystis grossii", "sprite": "sp-anchoviella_juruasanga.png", "group": "other", "rarity": 1}, {"lat": 66.4133, "lng": 33.9733, "id": "130365", "name": "Nephtys paradoxa", "sprite": "sp-anchoviella_juruasanga.png", "group": "other", "rarity": 1}, {"lat": 66.2173, "lng": 34.961, "id": "103417", "name": "Oikopleura (Vexillaria) vanhoeffeni", "sprite": "sp-anchoviella_juruasanga.png", "group": "other", "rarity": 1}, {"lat": 66.3037, "lng": 34.6729, "id": "156452", "name": "Themisto libellula", "sprite": "sp-american_lobster.png", "group": "crab_lobster", "rarity": 1}, {"lat": 66.1455, "lng": 35.4608, "id": "642323", "name": "Navicula lineola", "sprite": "sp-anchoviella_juruasanga.png", "group": "other", "rarity": 1}, {"lat": 65.9094, "lng": 34.1208, "id": "123574", "name": "Ophiura", "sprite": "sp-sea_cucumber.png", "group": "starfish", "rarity": 1}, {"lat": 66.1719, "lng": 35.1704, "id": "137601", "name": "Saccoglossus mereschkowskii", "sprite": "sp-anchoviella_juruasanga.png", "group": "other", "rarity": 1}, {"lat": 66.4421, "lng": 34.4977, "id": "322599", "name": "Themisto", "sprite": "sp-american_lobster.png", "group": "crab_lobster", "rarity": 1}, {"lat": 66.2508, "lng": 34.8137, "id": "104632", "name": "Metridia longa", "sprite": "sp-anchoviella_juruasanga.png", "group": "other", "rarity": 1}, {"lat": 66.3911, "lng": 34.5325, "id": "138818", "name": "Astarte borealis", "sprite": "sp-blue_mussel.png", "group": "clam_mussel", "rarity": 1}, {"lat": 66.4278, "lng": 34.3656, "id": "141859", "name": "Moelleria costulata", "sprite": "sp-cowrie_shell.png", "group": "sea_snail", "rarity": 1}, {"lat": 66.4817, "lng": 35.1767, "id": "130185", "name": "Nereimyra punctata", "sprite": "sp-anchoviella_juruasanga.png", "group": "other", "rarity": 1}, {"lat": 66.2689, "lng": 34.7893, "id": "160572", "name": "Synechococcus", "sprite": "sp-anchoviella_juruasanga.png", "group": "other", "rarity": 1}, {"lat": 66.0777, "lng": 35.2131, "id": "103375", "name": "Fritillaria borealis", "sprite": "sp-anchoviella_juruasanga.png", "group": "other", "rarity": 1}, {"lat": 66.2873, "lng": 34.6995, "id": "103259", "name": "Themisto abyssorum", "sprite": "sp-american_lobster.png", "group": "crab_lobster", "rarity": 1}, {"lat": 66.2239, "lng": 34.908, "id": "117265", "name": "Aeginopsis laurentii", "sprite": "sp-anchoviella_juruasanga.png", "group": "other", "rarity": 1}, {"lat": 65.7, "lng": 35.5333, "id": "102175", "name": "Apherusa tridentata", "sprite": "sp-american_lobster.png", "group": "crab_lobster", "rarity": 1}, {"lat": 66.3132, "lng": 34.7226, "id": "232376", "name": "Prorocentrum cordatum", "sprite": "sp-anchoviella_juruasanga.png", "group": "other", "rarity": 1}, {"lat": 66.3119, "lng": 34.7, "id": "103251", "name": "Hyperia galba", "sprite": "sp-american_lobster.png", "group": "crab_lobster", "rarity": 1}, {"lat": 66.3325, "lng": 34.6045, "id": "232161", "name": "Dinophysis arctica", "sprite": "sp-anchoviella_juruasanga.png", "group": "other", "rarity": 1}, {"lat": 66.3377, "lng": 34.5323, "id": "105588", "name": "Parvicorbicula socialis", "sprite": "sp-anchoviella_juruasanga.png", "group": "other", "rarity": 1}, {"lat": 66.3641, "lng": 34.5938, "id": "110652", "name": "Eutreptiella gymnastica", "sprite": "sp-anchoviella_juruasanga.png", "group": "other", "rarity": 1}, {"lat": 65.9227, "lng": 34.6335, "id": "102125", "name": "Atylus carinatus", "sprite": "sp-american_lobster.png", "group": "crab_lobster", "rarity": 1}, {"lat": 66.4692, "lng": 33.9979, "id": "1355594", "name": "Bradabyssa villosa", "sprite": "sp-anchoviella_juruasanga.png", "group": "other", "rarity": 1}, {"lat": 66.3872, "lng": 34.6619, "id": "140187", "name": "Lepeta caeca", "sprite": "sp-cowrie_shell.png", "group": "sea_snail", "rarity": 1}, {"lat": 66.4217, "lng": 33.9733, "id": "130735", "name": "Bylgides sarsi", "sprite": "sp-anchoviella_juruasanga.png", "group": "other", "rarity": 1}, {"lat": 66.4038, "lng": 34.2283, "id": "172602", "name": "Licmophora communis", "sprite": "sp-anchoviella_juruasanga.png", "group": "other", "rarity": 1}, {"lat": 66.4467, "lng": 34.5683, "id": "140467", "name": "Modiolus modiolus", "sprite": "sp-blue_mussel.png", "group": "clam_mussel", "rarity": 1}, {"lat": 66.2841, "lng": 34.7261, "id": "172418", "name": "Fragilariopsis cylindrus", "sprite": "sp-anchoviella_juruasanga.png", "group": "other", "rarity": 1}, {"lat": 66.2273, "lng": 34.8269, "id": "247787", "name": "Jaschnovia tolli", "sprite": "sp-anchoviella_juruasanga.png", "group": "other", "rarity": 1}, {"lat": 66.3179, "lng": 34.6122, "id": "110711", "name": "Thysanoessa raschii", "sprite": "sp-antarctic_krill.png", "group": "shrimp", "rarity": 1}, {"lat": 66.3708, "lng": 35.5883, "id": "140290", "name": "Lyonsia arenosa", "sprite": "sp-blue_mussel.png", "group": "clam_mussel", "rarity": 1}, {"lat": 66.2051, "lng": 34.8754, "id": "110249", "name": "Protoperidinium pyriforme", "sprite": "sp-anchoviella_juruasanga.png", "group": "other", "rarity": 1}, {"lat": 66.1292, "lng": 35.0993, "id": "148922", "name": "Thalassiosira eccentrica", "sprite": "sp-anchoviella_juruasanga.png", "group": "other", "rarity": 1}, {"lat": 66.43, "lng": 34.48, "id": "162933", "name": "Lauderia fragilis", "sprite": "sp-anchoviella_juruasanga.png", "group": "other", "rarity": 1}, {"lat": 66.3912, "lng": 34.6374, "id": "149102", "name": "Thalassiosira gravida", "sprite": "sp-anchoviella_juruasanga.png", "group": "other", "rarity": 1}, {"lat": 66.3122, "lng": 34.7029, "id": "140579", "name": "Nuculana pernula", "sprite": "sp-blue_mussel.png", "group": "clam_mussel", "rarity": 1}, {"lat": 66.2517, "lng": 36.3908, "id": "129779", "name": "Ampharete goesi", "sprite": "sp-anchoviella_juruasanga.png", "group": "other", "rarity": 1}, {"lat": 66.191, "lng": 34.8975, "id": "110219", "name": "Protoperidinium divergens", "sprite": "sp-anchoviella_juruasanga.png", "group": "other", "rarity": 1}, {"lat": 66.2767, "lng": 35.2952, "id": "130769", "name": "Harmothoe imbricata", "sprite": "sp-anchoviella_juruasanga.png", "group": "other", "rarity": 1}, {"lat": 66.1843, "lng": 34.6302, "id": "109714", "name": "Alexandrium tamarense", "sprite": "sp-anchoviella_juruasanga.png", "group": "other", "rarity": 1}, {"lat": 66.2333, "lng": 34.8333, "id": "103034", "name": "Dulichia spinosissima", "sprite": "sp-american_lobster.png", "group": "crab_lobster", "rarity": 1}, {"lat": 66.43, "lng": 34.48, "id": "148912", "name": "Thalassiosira", "sprite": "sp-anchoviella_juruasanga.png", "group": "other", "rarity": 1}, {"lat": 66.3781, "lng": 34.4754, "id": "115104", "name": "Emiliania huxleyi", "sprite": "sp-anchoviella_juruasanga.png", "group": "other", "rarity": 1}, {"lat": 66.4783, "lng": 35.1333, "id": "140536", "name": "Euspira pallida", "sprite": "sp-cowrie_shell.png", "group": "sea_snail", "rarity": 1}, {"lat": 66.3539, "lng": 34.1362, "id": "102870", "name": "Arrhis phyllonyx", "sprite": "sp-american_lobster.png", "group": "crab_lobster", "rarity": 1}, {"lat": 65.7, "lng": 35.5333, "id": "111355", "name": "Electra pilosa", "sprite": "sp-anchoviella_juruasanga.png", "group": "other", "rarity": 1}, {"lat": 66.4783, "lng": 35.195, "id": "131170", "name": "Pygospio elegans", "sprite": "sp-anchoviella_juruasanga.png", "group": "other", "rarity": 1}, {"lat": 66.1117, "lng": 35.6683, "id": "593806", "name": "Pleurosigma clevei", "sprite": "sp-anchoviella_juruasanga.png", "group": "other", "rarity": 1}, {"lat": 66.4404, "lng": 33.9817, "id": "130281", "name": "Clymenura borealis", "sprite": "sp-anchoviella_juruasanga.png", "group": "other", "rarity": 1}, {"lat": 66.456, "lng": 35.2723, "id": "131183", "name": "Spio filicornis", "sprite": "sp-anchoviella_juruasanga.png", "group": "other", "rarity": 1}, {"lat": 66.3374, "lng": 34.5165, "id": "149004", "name": "Cylindrotheca closterium", "sprite": "sp-anchoviella_juruasanga.png", "group": "other", "rarity": 1}, {"lat": 66.1526, "lng": 34.3491, "id": "110489", "name": "Diastylis scorpioides", "sprite": "sp-american_lobster.png", "group": "crab_lobster", "rarity": 1}, {"lat": 66.2881, "lng": 34.7928, "id": "116863", "name": "Harpacticus uniremis uniremis", "sprite": "sp-anchoviella_juruasanga.png", "group": "other", "rarity": 1}, {"lat": 66.3989, "lng": 34.4289, "id": "156101", "name": "Gersemia fruticosa", "sprite": "sp-actiniidae.png", "group": "coral", "rarity": 1}, {"lat": 66.385, "lng": 34.3033, "id": "109927", "name": "Preperidinium meunierii", "sprite": "sp-anchoviella_juruasanga.png", "group": "other", "rarity": 1}, {"lat": 66.3781, "lng": 33.9117, "id": "110470", "name": "Brachydiastylis resima", "sprite": "sp-american_lobster.png", "group": "crab_lobster", "rarity": 1}]}