{"zoom": 7, "x": 76, "y": 70, "points": [{"lat": -19.15, "lng": 34.917, "id": "460350", "name": "Macrosarisa capacis", "sprite": "sp-anchoviella_juruasanga.png", "group": "other", "rarity": 1}, {"lat": -18.9167, "lng": 36.4533, "id": "138007", "name": "Fiona", "sprite": "sp-cowrie_shell.png", "group": "sea_snail", "rarity": 1}, {"lat": -19.05, "lng": 36.15, "id": "218570", "name": "Silver grunt", "thumb": "tn_Poarg_u0.jpg", "sprite": "sp-anchoviella_juruasanga.png", "group": "other", "rarity": 1, "waterType": "Brackish"}, {"lat": -19.17, "lng": 36.32, "id": "14355", "name": "Stomatopoda", "sprite": "sp-american_lobster.png", "group": "crab_lobster", "rarity": 1}, {"lat": -19.0508, "lng": 36.2683, "id": "218431", "name": "Black pomfret", "thumb": "tn_Panig_uf.jpg", "sprite": "sp-anchoviella_juruasanga.png", "group": "other", "rarity": 1, "waterType": "Brackish"}, {"lat": -19.0, "lng": 36.0, "id": "213913", "name": "Neogoniolithon oblimans", "sprite": "sp-anchoviella_juruasanga.png", "group": "other", "rarity": 1}, {"lat": -19.0, "lng": 36.0, "id": "280325", "name": "Spiny grenadier", "thumb": "tn_Copar_u0.jpg", "sprite": "sp-anchoviella_juruasanga.png", "group": "other", "rarity": 1, "waterType": "Saltwater"}, {"lat": -19.2, "lng": 35.9333, "id": "126800", "name": "Shrimp scad", "thumb": "tn_Aldje_u2.jpg", "sprite": "sp-anchoviella_juruasanga.png", "group": "other", "rarity": 1, "waterType": "Saltwater"}, {"lat": -19.2, "lng": 35.7833, "id": "158790", "name": "Striated frogfish", "thumb": "tn_Anstr_u2.jpg", "sprite": "sp-deep_sea_anglerfish.png", "group": "anglerfish", "rarity": 1, "waterType": "Brackish"}, {"lat": -19.0, "lng": 36.0, "id": "219705", "name": "Crested hairtail", "thumb": "tn_Tecri_u0.jpg", "sprite": "sp-anchoviella_juruasanga.png", "group": "other", "rarity": 1, "waterType": "Saltwater"}, {"lat": -19.17, "lng": 36.32, "id": "1410", "name": "Foraminifera", "sprite": "sp-anchoviella_juruasanga.png", "group": "other", "rarity": 1}, {"lat": -19.0, "lng": 36.0, "id": "256739", "name": "Ceratothoa retusa", "sprite": "sp-american_lobster.png", "group": "crab_lobster", "rarity": 1}, {"lat": -19.2667, "lng": 36.3667, "id": "219968", "name": "Birdbeak burrfish", "thumb": "tn_Cyorb_u0.jpg", "sprite": "sp-fahaka_pufferfish.png", "group": "pufferfish", "rarity": 1, "waterType": "Saltwater"}, {"lat": -19.17, "lng": 36.32, "id": "152391", "name": "Nemertea", "sprite": "sp-anchoviella_juruasanga.png", "group": "other", "rarity": 1}, {"lat": -19.0, "lng": 36.0, "id": "376242", "name": "Pterocladiella caespitosa", "sprite": "sp-anchoviella_juruasanga.png", "group": "other", "rarity": 1}, {"lat": -19.0, "lng": 36.0, "id": "157328", "name": "Lithophyllum corallinae", "sprite": "sp-anchoviella_juruasanga.png", "group": "other", "rarity": 1}, {"lat": -18.855, "lng": 36.5067, "id": "398626", "name": "Comb goby", "thumb": "tn_Ctmic_u0.jpg", "sprite": "sp-eviota_bipunctata.png", "group": "goby", "rarity": 1, "waterType": "Brackish"}, {"lat": -18.8, "lng": 36.5, "id": "288925", "name": "Boloceroides mcmurrichi", "sprite": "sp-actiniidae.png", "group": "coral", "rarity": 1}, {"lat": -19.0, "lng": 36.0, "id": "207610", "name": "Linckia laevigata", "sprite": "sp-sea_cucumber.png", "group": "starfish", "rarity": 1}, {"lat": -19.0889, "lng": 36.1222, "id": "218360", "name": "Moontail bullseye", "thumb": "tn_Prham_u2.jpg", "sprite": "sp-anchoviella_juruasanga.png", "group": "other", "rarity": 1, "waterType": "Saltwater"}, {"lat": -18.4643, "lng": 36.0382, "id": "212253", "name": "Indo-Pacific tarpon", "thumb": "tn_Mecyp_u2.jpg", "sprite": "sp-anchoviella_juruasanga.png", "group": "other", "rarity": 1, "waterType": "Brackish"}, {"lat": -19.0, "lng": 36.0, "id": "272465", "name": "Longtail cod", "sprite": "sp-anchoviella_juruasanga.png", "group": "other", "rarity": 1, "waterType": "Saltwater"}, {"lat": -19.0, "lng": 36.0, "id": "212655", "name": "Fregata ariel", "sprite": "sp-anchoviella_juruasanga.png", "group": "other", "rarity": 1}, {"lat": -19.1014, "lng": 36.2122, "id": "218568", "name": "Saddle grunt", "thumb": "tn_Pomac_um.jpg", "sprite": "sp-anchoviella_juruasanga.png", "group": "other", "rarity": 1, "waterType": "Brackish"}, {"lat": -19.0, "lng": 36.0, "id": "955326", "name": "Tubuca urvillei", "sprite": "sp-american_lobster.png", "group": "crab_lobster", "rarity": 1}, {"lat": -19.0, "lng": 36.0, "id": "395630", "name": "Microbothriorhynchus reimeri", "sprite": "sp-anchoviella_juruasanga.png", "group": "other", "rarity": 1}, {"lat": -18.2833, "lng": 35.7833, "id": "212252", "name": "Tenpounder", "thumb": "tn_Elmac_u0.jpg", "sprite": "sp-anchoviella_juruasanga.png", "group": "other", "rarity": 1, "waterType": "Brackish"}, {"lat": -19.0, "lng": 36.0, "id": "146614", "name": "Chroococcus minor", "sprite": "sp-anchoviella_juruasanga.png", "group": "other", "rarity": 1}, {"lat": -18.8933, "lng": 36.15, "id": "312542", "name": "Shadow goby", "thumb": "tn_Acneb_u0.jpg", "sprite": "sp-eviota_bipunctata.png", "group": "goby", "rarity": 1, "waterType": "Brackish"}, {"lat": -19.05, "lng": 36.15, "id": "1605260", "name": "Abantennarius nummifer", "sprite": "sp-deep_sea_anglerfish.png", "group": "anglerfish", "rarity": 1}, {"lat": -19.17, "lng": 36.32, "id": "149668", "name": "Mysida", "sprite": "sp-american_lobster.png", "group": "crab_lobster", "rarity": 1}, {"lat": -19.1778, "lng": 36.2445, "id": "218517", "name": "Delagoa threadfin bream", "thumb": "tn_Nebip_u2.jpg", "sprite": "sp-anchoviella_juruasanga.png", "group": "other", "rarity": 1, "waterType": "Saltwater"}, {"lat": -19.175, "lng": 36.04, "id": "218639", "name": "Small kob", "sprite": "sp-anchoviella_juruasanga.png", "group": "other", "rarity": 1, "waterType": "Brackish"}, {"lat": -18.855, "lng": 36.5067, "id": "219534", "name": "Taileyed goby", "thumb": "tn_Papol_u3.jpg", "sprite": "sp-eviota_bipunctata.png", "group": "goby", "rarity": 1, "waterType": "Saltwater"}, {"lat": -19.0, "lng": 36.0, "id": "441930", "name": "Paratymolus barnardi", "sprite": "sp-american_lobster.png", "group": "crab_lobster", "rarity": 1}, {"lat": -19.0, "lng": 36.0, "id": "241257", "name": "Alpheus nonalter", "sprite": "sp-american_lobster.png", "group": "crab_lobster", "rarity": 1}, {"lat": -18.9167, "lng": 36.46, "id": "105410", "name": "Sagitta", "sprite": "sp-anchoviella_juruasanga.png", "group": "other", "rarity": 1}, {"lat": -18.861, "lng": 36.155, "id": "127046", "name": "Silver sillago", "thumb": "tn_Sisih_ua.jpg", "sprite": "sp-anchoviella_juruasanga.png", "group": "other", "rarity": 1, "waterType": "Brackish"}, {"lat": -19.0667, "lng": 35.7333, "id": "219752", "name": "Indian driftfish", "thumb": "tn_Arind_u2.jpg", "sprite": "sp-anchoviella_juruasanga.png", "group": "other", "rarity": 1, "waterType": "Saltwater"}, {"lat": -18.9436, "lng": 35.9744, "id": "303762", "name": "Common ponyfish", "thumb": "tn_Leequ_u6.jpg", "sprite": "sp-anchoviella_juruasanga.png", "group": "other", "rarity": 1, "waterType": "Brackish"}, {"lat": -19.0, "lng": 36.0, "id": "213331", "name": "Tropiometra carinata", "sprite": "sp-sea_cucumber.png", "group": "starfish", "rarity": 1}, {"lat": -19.2222, "lng": 36.0778, "id": "218495", "name": "Bigeye snapper", "thumb": "tn_Lulut_u7.jpg", "sprite": "sp-mutton_snapper.png", "group": "snapper", "rarity": 1, "waterType": "Saltwater"}, {"lat": -19.175, "lng": 36.04, "id": "217336", "name": "Blackspot shark", "thumb": "tn_Casea_u0.gif", "sprite": "sp-great_white_shark.png", "group": "shark", "rarity": 1, "waterType": "Saltwater"}, {"lat": -18.8933, "lng": 36.15, "id": "220039", "name": "Slender glassy", "thumb": "tn_Amnat_u0.jpg", "sprite": "sp-anchoviella_juruasanga.png", "group": "other", "rarity": 1, "waterType": "Brackish"}, {"lat": -18.8, "lng": 36.2333, "id": "476439", "name": "Bufonaria crumena", "sprite": "sp-cowrie_shell.png", "group": "sea_snail", "rarity": 1}, {"lat": -19.15, "lng": 36.1333, "id": "126848", "name": "Live sharksucker", "thumb": "tn_Rerem_u5.jpg", "sprite": "sp-anchoviella_juruasanga.png", "group": "other", "rarity": 1, "waterType": "Brackish"}, {"lat": -19.0, "lng": 36.0, "id": "212654", "name": "Fregata minor", "sprite": "sp-anchoviella_juruasanga.png", "group": "other", "rarity": 1}, {"lat": -19.07, "lng": 35.81, "id": "476475", "name": "Cymatium ranzanii", "sprite": "sp-cowrie_shell.png", "group": "sea_snail", "rarity": 1}, {"lat": -19.0, "lng": 36.0, "id": "213317", "name": "Echinaster purpureus", "sprite": "sp-sea_cucumber.png", "group": "starfish", "rarity": 1}, {"lat": -19.1, "lng": 36.3, "id": "125542", "name": "Leiognathidae", "sprite": "sp-anchoviella_juruasanga.png", "group": "other", "rarity": 1}, {"lat": -19.0, "lng": 36.0, "id": "394389", "name": "Bractechlamys nodulifera", "sprite": "sp-blue_mussel.png", "group": "clam_mussel", "rarity": 1}, {"lat": -19.17, "lng": 36.32, "id": "146203", "name": "Dinoflagellata", "sprite": "sp-anchoviella_juruasanga.png", "group": "other", "rarity": 1}, {"lat": -19.1833, "lng": 36.4833, "id": "219928", "name": "Stellate puffer", "thumb": "tn_Arste_u4.jpg", "sprite": "sp-fahaka_pufferfish.png", "group": "pufferfish", "rarity": 1, "waterType": "Brackish"}, {"lat": -19.0, "lng": 36.0, "id": "213857", "name": "Arthrocardia carinata", "sprite": "sp-anchoviella_juruasanga.png", "group": "other", "rarity": 1}, {"lat": -18.9167, "lng": 36.46, "id": "104196", "name": "Paracalanus", "sprite": "sp-anchoviella_juruasanga.png", "group": "other", "rarity": 1}, {"lat": -19.0, "lng": 36.0, "id": "214642", "name": "Prionocidaris baculosa", "sprite": "sp-sea_cucumber.png", "group": "starfish", "rarity": 1}, {"lat": -19.0, "lng": 36.0, "id": "250894", "name": "Molgula longitubis", "sprite": "sp-anchoviella_juruasanga.png", "group": "other", "rarity": 1}, {"lat": -18.9397, "lng": 36.4382, "id": "105", "name": "Bivalvia", "sprite": "sp-blue_mussel.png", "group": "clam_mussel", "rarity": 1}, {"lat": -19.0, "lng": 36.0, "id": "215391", "name": "Decatopecten plica", "sprite": "sp-blue_mussel.png", "group": "clam_mussel", "rarity": 1}, {"lat": -19.2, "lng": 35.9333, "id": "127407", "name": "Unicorn leatherjacket filefish", "thumb": "tn_Almon_u1.jpg", "sprite": "sp-anchoviella_juruasanga.png", "group": "other", "rarity": 1, "waterType": "Saltwater"}, {"lat": -19.1761, "lng": 36.3266, "id": "474985", "name": "Swahili goatfish", "thumb": "tn_Upsua_m0.jpg", "sprite": "sp-anchoviella_juruasanga.png", "group": "other", "rarity": 1, "waterType": "Saltwater"}, {"lat": -19.0, "lng": 36.0, "id": "388008", "name": "Dolicholatirus fernandesi", "sprite": "sp-cowrie_shell.png", "group": "sea_snail", "rarity": 1}, {"lat": -18.615, "lng": 36.5273, "id": "828516", "name": "Volvarina fulgida", "sprite": "sp-cowrie_shell.png", "group": "sea_snail", "rarity": 1}, {"lat": -19.0667, "lng": 35.7333, "id": "127402", "name": "Longspined porcupinefish", "thumb": "tn_Dihol_u3.jpg", "sprite": "sp-fahaka_pufferfish.png", "group": "pufferfish", "rarity": 1, "waterType": "Saltwater"}, {"lat": -18.9661, "lng": 36.2228, "id": "212290", "name": "Orangemouth anchovy", "thumb": "tn_Thvit_u1.jpg", "sprite": "sp-anchoviella_juruasanga.png", "group": "anchovy", "rarity": 1, "waterType": "Brackish"}, {"lat": -19.0, "lng": 36.0, "id": "403722", "name": "Morum fatimae", "sprite": "sp-cowrie_shell.png", "group": "sea_snail", "rarity": 1}, {"lat": -19.15, "lng": 36.333, "id": "391671", "name": "Parvamussium texturatum", "sprite": "sp-blue_mussel.png", "group": "clam_mussel", "rarity": 1}, {"lat": -19.0, "lng": 36.0, "id": "218657", "name": "Cinnabar goatfish", "thumb": "tn_Pahep_uc.jpg", "sprite": "sp-anchoviella_juruasanga.png", "group": "other", "rarity": 1, "waterType": "Brackish"}, {"lat": -19.0, "lng": 36.0, "id": "670481", "sprite": "sp-anchoviella_juruasanga.png", "group": "other", "rarity": 1}, {"lat": -19.0, "lng": 36.0, "id": "146578", "name": "Merismopedia glauca", "sprite": "sp-anchoviella_juruasanga.png", "group": "other", "rarity": 1}, {"lat": -19.15, "lng": 36.3333, "id": "218688", "name": "Deep-water goatfish", "thumb": "tn_Upsub_u1.jpg", "sprite": "sp-anchoviella_juruasanga.png", "group": "other", "rarity": 1, "waterType": "Saltwater"}, {"lat": -19.175, "lng": 36.04, "id": "212287", "name": "Natal anchovy", "thumb": "tn_Sthol_u0.gif", "sprite": "sp-anchoviella_juruasanga.png", "group": "anchovy", "rarity": 1, "waterType": "Brackish"}, {"lat": -19.0, "lng": 36.0, "id": "213680", "name": "Murrayella periclados", "sprite": "sp-anchoviella_juruasanga.png", "group": "other", "rarity": 1}, {"lat": -18.9167, "lng": 36.4333, "id": "104726", "name": "Labidocera acuta", "sprite": "sp-anchoviella_juruasanga.png", "group": "other", "rarity": 1}, {"lat": -18.8503, "lng": 35.8781, "id": "1605302", "name": "Chelonodontops laticeps", "sprite": "sp-fahaka_pufferfish.png", "group": "pufferfish", "rarity": 1}, {"lat": -19.0, "lng": 36.0, "id": "553617", "name": "Gracilaria crassa f. conglomerata", "sprite": "sp-anchoviella_juruasanga.png", "group": "other", "rarity": 1}, {"lat": -19.175, "lng": 36.04, "id": "212044", "name": "Sharpfin barracuda", "thumb": "tn_Spacu_u1.jpg", "sprite": "sp-sphyraena.png", "group": "barracuda", "rarity": 1, "waterType": "Brackish"}, {"lat": -19.15, "lng": 36.3333, "id": "474984", "name": "Margaretha's goatfish", "thumb": "tn_Upmar_u0.jpg", "sprite": "sp-anchoviella_juruasanga.png", "group": "other", "rarity": 1, "waterType": "Saltwater"}, {"lat": -19.0917, "lng": 36.1133, "id": "218134", "name": "Cociella heemstrai", "thumb": "tn_Cohee_u0.jpg", "sprite": "sp-anchoviella_juruasanga.png", "group": "other", "rarity": 1, "waterType": "Saltwater"}, {"lat": -19.0, "lng": 36.0, "id": "342143", "name": "Sepia ivanovi", "sprite": "sp-giant_pacific_octopus.png", "group": "octopus_squid", "rarity": 1}, {"lat": -19.0, "lng": 36.0, "id": "220804", "name": "Hypnea tenuis", "sprite": "sp-anchoviella_juruasanga.png", "group": "other", "rarity": 1}, {"lat": -18.8933, "lng": 36.15, "id": "279125", "name": "Stargazer snake eel", "thumb": "tn_Brcir_u1.jpg", "sprite": "sp-electric_eel.png", "group": "eel", "rarity": 1, "waterType": "Brackish"}, {"lat": -19.0, "lng": 36.0, "id": "410858", "name": "Babelomurex microspinosus", "sprite": "sp-cowrie_shell.png", "group": "sea_snail", "rarity": 1}, {"lat": -19.2667, "lng": 36.3667, "id": "219873", "name": "Abalistes stellatus", "thumb": "tn_Abste_u9.jpg", "sprite": "sp-balistidae.png", "group": "triggerfish", "rarity": 1, "waterType": "Saltwater"}, {"lat": -18.9891, "lng": 36.4009, "id": "1135", "name": "Amphipoda", "sprite": "sp-american_lobster.png", "group": "crab_lobster", "rarity": 1}, {"lat": -18.7152, "lng": 35.9324, "id": "277730", "name": "Commerson's glassy", "thumb": "tn_Ampro_u0.jpg", "sprite": "sp-anchoviella_juruasanga.png", "group": "other", "rarity": 1, "waterType": "Brackish"}, {"lat": -19.2667, "lng": 36.3667, "id": "212822", "name": "Blue-spotted chromis", "thumb": "tn_Chdas_u0.jpg", "sprite": "sp-chrysiptera_caesifrons.png", "group": "clownfish", "rarity": 1, "waterType": "Saltwater"}, {"lat": -18.9167, "lng": 36.45, "id": "116116", "name": "Microsetella rosea", "sprite": "sp-anchoviella_juruasanga.png", "group": "other", "rarity": 1}, {"lat": -19.167, "lng": 36.333, "id": "220702", "name": "Cymodoce zanzibarensis", "sprite": "sp-american_lobster.png", "group": "crab_lobster", "rarity": 1}, {"lat": -19.0, "lng": 36.0, "id": "214187", "name": "Martensia elegans", "sprite": "sp-anchoviella_juruasanga.png", "group": "other", "rarity": 1}, {"lat": -18.9108, "lng": 36.5033, "id": "282297", "name": "Blacktip sea catfish", "thumb": "tn_Pldus_u0.jpg", "sprite": "sp-blue_catfish.png", "group": "catfish", "rarity": 1, "waterType": "Brackish"}, {"lat": -19.0, "lng": 36.0, "id": "577380", "name": "Benimakia rosadoi", "sprite": "sp-cowrie_shell.png", "group": "sea_snail", "rarity": 1}, {"lat": -19.2667, "lng": 36.3667, "id": "218123", "name": "Scalybreast gurnard", "thumb": "tn_Lefau_u0.jpg", "sprite": "sp-anchoviella_juruasanga.png", "group": "other", "rarity": 1, "waterType": "Saltwater"}, {"lat": -18.4803, "lng": 36.026, "id": "280203", "name": "Blunt-toothed African catfish", "thumb": "tn_Clnga_u2.gif", "sprite": "sp-blue_catfish.png", "group": "catfish", "rarity": 1, "waterType": "Brackish"}, {"lat": -19.0, "lng": 36.0, "id": "376874", "name": "Dichotomaria obtusata", "sprite": "sp-anchoviella_juruasanga.png", "group": "other", "rarity": 1}, {"lat": -19.05, "lng": 36.15, "id": "212056", "name": "Obtuse barracuda", "thumb": "tn_Spobt_u5.jpg", "sprite": "sp-sphyraena.png", "group": "barracuda", "rarity": 1, "waterType": "Brackish"}, {"lat": -19.17, "lng": 36.32, "id": "11676", "name": "Pisces", "sprite": "sp-anchoviella_juruasanga.png", "group": "other", "rarity": 1}, {"lat": -19.0, "lng": 36.0, "id": "408085", "name": "Lataxiena habropenos", "sprite": "sp-cowrie_shell.png", "group": "sea_snail", "rarity": 1}, {"lat": -19.17, "lng": 36.32, "id": "137217", "name": "Salpidae", "sprite": "sp-anchoviella_juruasanga.png", "group": "other", "rarity": 1}, {"lat": -19.06, "lng": 36.2267, "id": "219844", "name": "Fourline tonguesole", "sprite": "sp-atlantic_halibut.png", "group": "flatfish", "rarity": 1, "waterType": "Saltwater"}, {"lat": -18.9167, "lng": 36.45, "id": "128690", "name": "Oncaea", "sprite": "sp-anchoviella_juruasanga.png", "group": "other", "rarity": 1}, {"lat": -19.0, "lng": 36.0, "id": "394209", "name": "Aequipecten commutatus peripheralis", "sprite": "sp-blue_mussel.png", "group": "clam_mussel", "rarity": 1}, {"lat": -19.0, "lng": 36.0, "id": "146566", "name": "Chroococcus turgidus", "sprite": "sp-anchoviella_juruasanga.png", "group": "other", "rarity": 1}, {"lat": -18.5811, "lng": 36.4586, "id": "349562", "name": "Caligus arii", "sprite": "sp-anchoviella_juruasanga.png", "group": "other", "rarity": 1}, {"lat": -19.0, "lng": 36.0, "id": "213689", "sprite": "sp-anchoviella_juruasanga.png", "group": "other", "rarity": 1}, {"lat": -18.3192, "lng": 35.3756, "id": "219471", "name": "Tank goby", "thumb": "tn_Glgiu_u4.jpg", "sprite": "sp-eviota_bipunctata.png", "group": "goby", "rarity": 1, "waterType": "Brackish"}, {"lat": -19.15, "lng": 36.333, "id": "558", "name": "Porifera", "sprite": "sp-barrel_sponge.png", "group": "sponge", "rarity": 1}, {"lat": -19.0, "lng": 36.0, "id": "218694", "name": "Japanese goatfish", "thumb": "tn_Upjap_u1.jpg", "sprite": "sp-anchoviella_juruasanga.png", "group": "other", "rarity": 1, "waterType": "Saltwater"}, {"lat": -19.0, "lng": 36.0, "id": "576883", "name": "Xenotholos kerneri", "sprite": "sp-anchoviella_juruasanga.png", "group": "other", "rarity": 1}, {"lat": -19.0, "lng": 36.0, "id": "213713", "name": "Johannesbaptistia pellucida", "sprite": "sp-anchoviella_juruasanga.png", "group": "other", "rarity": 1}, {"lat": -19.0, "lng": 36.0, "id": "459525", "name": "Aquilonastra cepheus", "sprite": "sp-sea_cucumber.png", "group": "starfish", "rarity": 1}, {"lat": -19.0, "lng": 36.0, "id": "514518", "name": "Cuapetes grandis", "sprite": "sp-american_lobster.png", "group": "crab_lobster", "rarity": 1}, {"lat": -18.9167, "lng": 36.4667, "id": "104469", "name": "Nannocalanus minor", "sprite": "sp-anchoviella_juruasanga.png", "group": "other", "rarity": 1}, {"lat": -19.0, "lng": 36.0, "id": "145688", "name": "Stylonema alsidii", "sprite": "sp-anchoviella_juruasanga.png", "group": "other", "rarity": 1}, {"lat": -19.0, "lng": 36.0, "id": "213128", "name": "Pentaceraster tuberculatus", "sprite": "sp-sea_cucumber.png", "group": "starfish", "rarity": 1}, {"lat": -19.0, "lng": 36.0, "id": "494252", "name": "Scaeochlamys lemniscata", "sprite": "sp-blue_mussel.png", "group": "clam_mussel", "rarity": 1}, {"lat": -19.0, "lng": 36.0, "id": "395383", "name": "Fortuynia inhambananensis", "sprite": "sp-anchoviella_juruasanga.png", "group": "other", "rarity": 1}, {"lat": -19.0, "lng": 36.0, "id": "374121", "name": "Jania cubensis", "sprite": "sp-anchoviella_juruasanga.png", "group": "other", "rarity": 1}, {"lat": -19.2, "lng": 35.6833, "id": "274039", "name": "Dollfus' stargrazer", "thumb": "tn_Urgut_u0.jpg", "sprite": "sp-anchoviella_juruasanga.png", "group": "other", "rarity": 1, "waterType": "Saltwater"}, {"lat": -19.0, "lng": 36.0, "id": "624714", "name": "Sonderophycus capensis", "sprite": "sp-anchoviella_juruasanga.png", "group": "other", "rarity": 1}]}