{"zoom": 7, "x": 78, "y": 58, "points": [{"lat": 15.55, "lng": 41.8333, "id": "312022", "name": "Yellow-tailed pygmygoby", "thumb": "tn_Trfla_u1.jpg", "sprite": "sp-eviota_bipunctata.png", "group": "goby", "rarity": 1, "waterType": "Saltwater"}, {"lat": 15.3551, "lng": 39.9584, "id": "218350", "name": "Jarbua terapon", "thumb": "tn_Tejar_u0.jpg", "sprite": "sp-anchoviella_juruasanga.png", "group": "other", "rarity": 1, "waterType": "Brackish"}, {"lat": 15.8333, "lng": 40.2, "id": "210734", "name": "Distichopora violacea", "sprite": "sp-anchoviella_juruasanga.png", "group": "other", "rarity": 1}, {"lat": 15.2, "lng": 42.05, "id": "368478", "name": "Acropora subulata", "sprite": "sp-actiniidae.png", "group": "coral", "rarity": 1}, {"lat": 16.5641, "lng": 42.0585, "id": "536574", "name": "Phyllidiella pustulosa", "sprite": "sp-cowrie_shell.png", "group": "sea_snail", "rarity": 1}, {"lat": 15.6083, "lng": 39.4529, "id": "213509", "name": "Asaphis deflorata", "sprite": "sp-blue_mussel.png", "group": "clam_mussel", "rarity": 1}, {"lat": 15.617, "lng": 39.467, "id": "220003", "name": "Semicircle angelfish", "thumb": "tn_Posem_ud.jpg", "sprite": "sp-holacanthus.png", "group": "angelfish", "rarity": 1, "waterType": "Saltwater"}, {"lat": 15.624, "lng": 40.2812, "id": "219587", "name": "Avidor's pygmygoby", "thumb": "tn_Travi_u0.jpg", "sprite": "sp-eviota_bipunctata.png", "group": "goby", "rarity": 1, "waterType": "Saltwater"}, {"lat": 16.62, "lng": 41.175, "id": "1762", "name": "Nudibranchia", "sprite": "sp-cowrie_shell.png", "group": "sea_snail", "rarity": 1}, {"lat": 16.5641, "lng": 42.0585, "id": "213314", "name": "Euretaster cribrosus", "sprite": "sp-sea_cucumber.png", "group": "starfish", "rarity": 1}, {"lat": 16.5641, "lng": 42.0585, "id": "210473", "name": "Synalpheus streptodactylus", "sprite": "sp-american_lobster.png", "group": "crab_lobster", "rarity": 1}, {"lat": 16.4892, "lng": 41.9443, "id": "210788", "name": "Octopus cyanea", "sprite": "sp-giant_pacific_octopus.png", "group": "octopus_squid", "rarity": 1}, {"lat": 15.2, "lng": 39.8, "id": "281406", "name": "Whitecap goby", "thumb": "tn_Logra_u3.jpg", "sprite": "sp-eviota_bipunctata.png", "group": "goby", "rarity": 1, "waterType": "Saltwater"}, {"lat": 16.5641, "lng": 42.0585, "id": "125553", "name": "Pomacentridae", "sprite": "sp-chrysiptera_caesifrons.png", "group": "clownfish", "rarity": 1}, {"lat": 16.5491, "lng": 42.0357, "id": "22496", "name": "Nereididae", "sprite": "sp-anchoviella_juruasanga.png", "group": "other", "rarity": 1}, {"lat": 16.62, "lng": 41.15, "id": "22990", "name": "Atlantidae", "sprite": "sp-cowrie_shell.png", "group": "sea_snail", "rarity": 1}, {"lat": 16.0611, "lng": 40.8332, "id": "532157", "name": "Canarium erythrinum", "sprite": "sp-cowrie_shell.png", "group": "sea_snail", "rarity": 1}, {"lat": 16.0778, "lng": 39.4417, "id": "475087", "name": "Apogonichthyoides heptastygma", "thumb": "tn_Aphep_u0.jpg", "sprite": "sp-anchoviella_juruasanga.png", "group": "other", "rarity": 1, "waterType": "Saltwater"}, {"lat": 16.1068, "lng": 40.7622, "id": "212164", "name": "Engina mendicaria", "sprite": "sp-cowrie_shell.png", "group": "sea_snail", "rarity": 1}, {"lat": 16.5641, "lng": 42.0585, "id": "1776", "name": "Pinnidae", "sprite": "sp-blue_mussel.png", "group": "clam_mussel", "rarity": 1}, {"lat": 16.53, "lng": 42.07, "id": "217489", "name": "Liver-colored moray eel", "thumb": "tn_Gyhep_u2.jpg", "sprite": "sp-anarchias.png", "group": "moray", "rarity": 1, "waterType": "Saltwater"}, {"lat": 15.5224, "lng": 39.7167, "id": "277497", "name": "Starry goby", "thumb": "tn_Assem_u7.jpg", "sprite": "sp-eviota_bipunctata.png", "group": "goby", "rarity": 1, "waterType": "Saltwater"}, {"lat": 15.906, "lng": 40.238, "id": "219020", "name": "Fourline wrasse", "thumb": "tn_Laqua_m2.jpg", "sprite": "sp-cleaner_wrasse.png", "group": "wrasse", "rarity": 1, "waterType": "Saltwater"}, {"lat": 15.5419, "lng": 40.0, "id": "282821", "name": "Black-tip sole", "thumb": "tn_Sohet_u5.jpg", "sprite": "sp-atlantic_halibut.png", "group": "flatfish", "rarity": 1, "waterType": "Saltwater"}, {"lat": 15.8946, "lng": 39.8, "id": "212975", "name": "Smoky damsel", "thumb": "tn_Polit_u2.jpg", "sprite": "sp-chrysiptera_caesifrons.png", "group": "clownfish", "rarity": 1, "waterType": "Brackish"}, {"lat": 15.7268, "lng": 39.6868, "id": "219293", "name": "Istiblennius flaviumbrinus", "thumb": "tn_Isfla_u0.jpg", "sprite": "sp-helcogramma_ascensionis.png", "group": "blenny", "rarity": 1, "waterType": "Saltwater"}, {"lat": 15.6169, "lng": 39.4669, "id": "218206", "name": "Malabar grouper", "thumb": "tn_Epmal_u9.jpg", "sprite": "sp-chelidoperca_santosi.png", "group": "grouper", "rarity": 1, "waterType": "Brackish"}, {"lat": 16.4892, "lng": 41.9443, "id": "1747", "name": "Ovulidae", "sprite": "sp-cowrie_shell.png", "group": "sea_snail", "rarity": 1}, {"lat": 15.617, "lng": 39.5, "id": "126072", "name": "Sillago", "sprite": "sp-anchoviella_juruasanga.png", "group": "other", "rarity": 1}, {"lat": 15.1333, "lng": 42.0167, "id": "135407", "name": "Enneagonum hyalinum", "sprite": "sp-anchoviella_juruasanga.png", "group": "other", "rarity": 1}, {"lat": 15.8, "lng": 40.083, "id": "210814", "name": "Holothuria (Thymiosycia) arenicola", "sprite": "sp-sea_cucumber.png", "group": "starfish", "rarity": 1}, {"lat": 15.685, "lng": 40.39, "id": "218214", "name": "Striped grouper", "thumb": "tn_Eplat_u1.jpg", "sprite": "sp-chelidoperca_santosi.png", "group": "grouper", "rarity": 1, "waterType": "Saltwater"}, {"lat": 15.5083, "lng": 39.9, "id": "126379", "name": "Red Sea houndfish", "thumb": "tn_Tycho_u0.jpg", "sprite": "sp-anchoviella_juruasanga.png", "group": "other", "rarity": 1, "waterType": "Saltwater"}, {"lat": 15.617, "lng": 39.467, "id": "218602", "name": "Red Sea seabream", "thumb": "tn_Dinoc_u2.jpg", "sprite": "sp-anchoviella_juruasanga.png", "group": "other", "rarity": 1, "waterType": "Saltwater"}, {"lat": 15.8333, "lng": 40.2, "id": "355490", "name": "Schizoperoides expeditionis", "sprite": "sp-anchoviella_juruasanga.png", "group": "other", "rarity": 1}, {"lat": 15.3, "lng": 40.0, "id": "217659", "name": "Striped eel catfish", "thumb": "tn_Pllin_u1.jpg", "sprite": "sp-blue_catfish.png", "group": "catfish", "rarity": 1, "waterType": "Brackish"}, {"lat": 16.5641, "lng": 42.0585, "id": "393737", "name": "Mimachlamys sanguinea", "sprite": "sp-blue_mussel.png", "group": "clam_mussel", "rarity": 1}, {"lat": 16.62, "lng": 41.15, "id": "266708", "name": "Aidanosagitta neglecta", "sprite": "sp-anchoviella_juruasanga.png", "group": "other", "rarity": 1}, {"lat": 16.4892, "lng": 41.9443, "id": "290088", "name": "Heteractis aurora", "sprite": "sp-actiniidae.png", "group": "coral", "rarity": 1}, {"lat": 15.9743, "lng": 40.4143, "id": "217986", "name": "Short-bodied pipefish", "thumb": "tn_Chbra_u6.jpg", "sprite": "sp-cosmocampus_coccineus.png", "group": "seahorse", "rarity": 1, "waterType": "Saltwater"}, {"lat": 16.4892, "lng": 41.9443, "id": "210499", "name": "Alpheus deuteropus", "sprite": "sp-american_lobster.png", "group": "crab_lobster", "rarity": 1}, {"lat": 15.63, "lng": 39.7, "id": "289898", "name": "Entacmaea quadricolor", "sprite": "sp-actiniidae.png", "group": "coral", "rarity": 1}, {"lat": 15.55, "lng": 41.8333, "id": "219586", "name": "Barrall's pygmygoby", "thumb": "tn_Trbar_u0.jpg", "sprite": "sp-eviota_bipunctata.png", "group": "goby", "rarity": 1, "waterType": "Saltwater"}, {"lat": 16.5641, "lng": 42.0585, "id": "428409", "name": "Conus wilsi", "sprite": "sp-cowrie_shell.png", "group": "sea_snail", "rarity": 1}, {"lat": 16.4892, "lng": 41.9443, "id": "181376", "name": "Sepia pharaonis", "sprite": "sp-giant_pacific_octopus.png", "group": "octopus_squid", "rarity": 1}, {"lat": 15.9441, "lng": 40.8034, "id": "712679", "name": "Blackstripe cardinalfish", "thumb": "tn_Apnig_u4.jpg", "sprite": "sp-anchoviella_juruasanga.png", "group": "other", "rarity": 1, "waterType": "Saltwater"}, {"lat": 16.5641, "lng": 42.0585, "id": "605546", "name": "Nerita quadricolor", "sprite": "sp-cowrie_shell.png", "group": "sea_snail", "rarity": 1}, {"lat": 16.4892, "lng": 41.9443, "id": "209035", "name": "Actaea jacquelinae", "sprite": "sp-american_lobster.png", "group": "crab_lobster", "rarity": 1}, {"lat": 16.5641, "lng": 42.0585, "id": "219277", "name": "Aron's blenny", "thumb": "tn_Ecaro_u3.jpg", "sprite": "sp-helcogramma_ascensionis.png", "group": "blenny", "rarity": 1, "waterType": "Saltwater"}, {"lat": 16.05, "lng": 39.4417, "id": "277719", "name": "Fringed blenny", "thumb": "tn_Micir_u1.jpg", "sprite": "sp-helcogramma_ascensionis.png", "group": "blenny", "rarity": 1, "waterType": "Saltwater"}, {"lat": 15.5876, "lng": 39.7854, "id": "126172", "name": "Scorpaenodes", "sprite": "sp-parascorpaena_moultoni.png", "group": "scorpionfish", "rarity": 1}, {"lat": 16.5641, "lng": 42.0585, "id": "1646824", "name": "Palaemonella philippinensis", "sprite": "sp-american_lobster.png", "group": "crab_lobster", "rarity": 1}, {"lat": 16.0969, "lng": 40.9237, "id": "216861", "name": "Erronea caurica", "sprite": "sp-cowrie_shell.png", "group": "sea_snail", "rarity": 1}, {"lat": 15.683, "lng": 39.466, "id": "216872", "name": "Mauritia arabica", "sprite": "sp-cowrie_shell.png", "group": "sea_snail", "rarity": 1}, {"lat": 15.5, "lng": 39.75, "id": "457927", "name": "Lioconcha lamprelli", "sprite": "sp-blue_mussel.png", "group": "clam_mussel", "rarity": 1}, {"lat": 15.5307, "lng": 39.9667, "id": "218218", "name": "Brown-marbled grouper", "thumb": "tn_Epfus_u0.jpg", "sprite": "sp-chelidoperca_santosi.png", "group": "grouper", "rarity": 1, "waterType": "Saltwater"}, {"lat": 16.5641, "lng": 42.0585, "id": "439122", "name": "Actaeinae", "sprite": "sp-american_lobster.png", "group": "crab_lobster", "rarity": 1}, {"lat": 16.4892, "lng": 41.9443, "id": "205582", "name": "Heterocentrotus", "sprite": "sp-sea_cucumber.png", "group": "starfish", "rarity": 1}, {"lat": 16.5641, "lng": 42.0585, "id": "106776", "name": "Alpheidae", "sprite": "sp-american_lobster.png", "group": "crab_lobster", "rarity": 1}, {"lat": 16.4038, "lng": 41.652, "id": "125185", "name": "Holothuria (Thymiosycia) impatiens", "sprite": "sp-sea_cucumber.png", "group": "starfish", "rarity": 1}, {"lat": 15.5997, "lng": 39.5607, "id": "206109", "name": "Peristernia", "sprite": "sp-cowrie_shell.png", "group": "sea_snail", "rarity": 1}, {"lat": 16.62, "lng": 41.15, "id": "105437", "name": "Mesosagitta minima", "sprite": "sp-anchoviella_juruasanga.png", "group": "other", "rarity": 1}, {"lat": 15.4113, "lng": 39.6447, "id": "277996", "name": "Cheeklined wrasse", "thumb": "tn_Oxrho_u1.jpg", "sprite": "sp-cleaner_wrasse.png", "group": "wrasse", "rarity": 1, "waterType": "Brackish"}, {"lat": 16.5641, "lng": 42.0585, "id": "106674", "name": "Caridea", "sprite": "sp-american_lobster.png", "group": "crab_lobster", "rarity": 1}, {"lat": 16.4892, "lng": 41.9443, "id": "107079", "name": "Upogebia", "sprite": "sp-american_lobster.png", "group": "crab_lobster", "rarity": 1}, {"lat": 15.4167, "lng": 41.8167, "id": "148723", "name": "Odontoceti", "sprite": "sp-anchoviella_juruasanga.png", "group": "other", "rarity": 1}, {"lat": 15.666, "lng": 40.1, "id": "206316", "name": "Talparia", "sprite": "sp-cowrie_shell.png", "group": "sea_snail", "rarity": 1}, {"lat": 15.1333, "lng": 42.0167, "id": "287246", "name": "Diphyes chamissonis", "sprite": "sp-anchoviella_juruasanga.png", "group": "other", "rarity": 1}, {"lat": 15.6512, "lng": 40.5792, "id": "216866", "name": "Lyncina carneola", "sprite": "sp-cowrie_shell.png", "group": "sea_snail", "rarity": 1}, {"lat": 15.5303, "lng": 41.6865, "id": "113464", "name": "Globigerinita glutinata", "sprite": "sp-anchoviella_juruasanga.png", "group": "other", "rarity": 1}, {"lat": 16.62, "lng": 41.175, "id": "106673", "name": "Brachyura", "sprite": "sp-american_lobster.png", "group": "crab_lobster", "rarity": 1}, {"lat": 15.5982, "lng": 39.6002, "id": "217940", "name": "Silverspot squirrelfish", "thumb": "tn_Sacau_u7.jpg", "sprite": "sp-anchoviella_juruasanga.png", "group": "other", "rarity": 1, "waterType": "Saltwater"}, {"lat": 16.0009, "lng": 41.0734, "id": "220070", "name": "Pervagor randalli", "thumb": "tn_Peran_u0.jpg", "sprite": "sp-anchoviella_juruasanga.png", "group": "other", "rarity": 1, "waterType": "Saltwater"}, {"lat": 16.2696, "lng": 40.7993, "id": "218942", "name": "Broomtail wrasse", "thumb": "tn_Chlun_u1.jpg", "sprite": "sp-cleaner_wrasse.png", "group": "wrasse", "rarity": 1, "waterType": "Saltwater"}, {"lat": 15.5419, "lng": 40.0, "id": "219616", "name": "Blue gudgeon", "thumb": "tn_Ptmic_u8.jpg", "sprite": "sp-anchoviella_juruasanga.png", "group": "other", "rarity": 1, "waterType": "Saltwater"}, {"lat": 16.5641, "lng": 42.0585, "id": "125519", "name": "Blenniidae", "sprite": "sp-helcogramma_ascensionis.png", "group": "blenny", "rarity": 1}, {"lat": 15.8, "lng": 40.083, "id": "210850", "name": "Holothuria (Selenkothuria) parva", "sprite": "sp-sea_cucumber.png", "group": "starfish", "rarity": 1}, {"lat": 16.4892, "lng": 41.9443, "id": "408910", "name": "Gonodactylellus lanchesteri", "sprite": "sp-american_lobster.png", "group": "crab_lobster", "rarity": 1}, {"lat": 15.7021, "lng": 39.6458, "id": "219504", "name": "Decorated goby", "thumb": "tn_Isdec_u4.jpg", "sprite": "sp-eviota_bipunctata.png", "group": "goby", "rarity": 1, "waterType": "Saltwater"}, {"lat": 15.796, "lng": 39.7208, "id": "218168", "name": "Redmouth grouper", "thumb": "tn_Aerog_u7.jpg", "sprite": "sp-chelidoperca_santosi.png", "group": "grouper", "rarity": 1, "waterType": "Saltwater"}, {"lat": 15.5089, "lng": 41.7012, "id": "113462", "name": "Turborotalita quinqueloba", "sprite": "sp-anchoviella_juruasanga.png", "group": "other", "rarity": 1}, {"lat": 16.62, "lng": 41.15, "id": "127769", "name": "Conchoecetta giesbrechti", "sprite": "sp-anchoviella_juruasanga.png", "group": "other", "rarity": 1}, {"lat": 15.67, "lng": 40.38, "id": "206416", "name": "Gymnocranius", "sprite": "sp-anchoviella_juruasanga.png", "group": "other", "rarity": 1}, {"lat": 15.6, "lng": 39.47, "id": "216886", "name": "Pustularia cicercula", "sprite": "sp-cowrie_shell.png", "group": "sea_snail", "rarity": 1}, {"lat": 15.5, "lng": 39.8333, "id": "218033", "name": "Barred xenia-pipefish", "sprite": "sp-cosmocampus_coccineus.png", "group": "seahorse", "rarity": 1, "waterType": "Saltwater"}, {"lat": 16.4892, "lng": 41.9443, "id": "211142", "name": "Polyonyx pedalis", "sprite": "sp-american_lobster.png", "group": "crab_lobster", "rarity": 1}, {"lat": 15.8, "lng": 40.083, "id": "211101", "name": "Vasum ceramicum", "sprite": "sp-cowrie_shell.png", "group": "sea_snail", "rarity": 1}, {"lat": 15.91, "lng": 41.2167, "id": "216142", "name": "Caryophyllia (Caryophyllia) sewelli", "sprite": "sp-actiniidae.png", "group": "coral", "rarity": 1}, {"lat": 15.3542, "lng": 39.85, "id": "218669", "name": "Red Sea goatfish", "thumb": "tn_Pafor_u8.jpg", "sprite": "sp-anchoviella_juruasanga.png", "group": "other", "rarity": 1, "waterType": "Brackish"}, {"lat": 16.5142, "lng": 41.9824, "id": "605729", "name": "Fulvia australis", "sprite": "sp-blue_mussel.png", "group": "clam_mussel", "rarity": 1}, {"lat": 16.4892, "lng": 41.9443, "id": "213317", "name": "Echinaster purpureus", "sprite": "sp-sea_cucumber.png", "group": "starfish", "rarity": 1}, {"lat": 16.5747, "lng": 41.8538, "id": "137102", "name": "Orcinus orca", "sprite": "sp-bottlenose_dolphin.png", "group": "dolphin", "rarity": 1}, {"lat": 15.4614, "lng": 40.1579, "id": "712704", "name": "Siphamia goreni", "thumb": "tn_Sigor_u0.jpg", "sprite": "sp-anchoviella_juruasanga.png", "group": "other", "rarity": 1, "waterType": "Saltwater"}, {"lat": 16.5641, "lng": 42.0585, "id": "216651", "name": "Crenatula picta", "sprite": "sp-blue_mussel.png", "group": "clam_mussel", "rarity": 1}, {"lat": 16.4892, "lng": 41.9443, "id": "217071", "name": "Pleuroploca trapezium", "sprite": "sp-cowrie_shell.png", "group": "sea_snail", "rarity": 1}, {"lat": 16.62, "lng": 41.2, "id": "146996", "name": "Leptostraca", "sprite": "sp-american_lobster.png", "group": "crab_lobster", "rarity": 1}, {"lat": 16.5641, "lng": 42.0585, "id": "394941", "name": "Gonodactylaceus falcatus", "sprite": "sp-american_lobster.png", "group": "crab_lobster", "rarity": 1}, {"lat": 15.6169, "lng": 39.5, "id": "312550", "name": "Two-spot razorfish", "thumb": "tn_Xybim_u2.jpg", "sprite": "sp-cleaner_wrasse.png", "group": "wrasse", "rarity": 1, "waterType": "Saltwater"}, {"lat": 15.5083, "lng": 39.9, "id": "219340", "name": "Jewelled blenny", "thumb": "tn_Safas_u0.jpg", "sprite": "sp-helcogramma_ascensionis.png", "group": "blenny", "rarity": 1, "waterType": "Brackish"}, {"lat": 15.6917, "lng": 39.9333, "id": "169418", "name": "Myxilla (Burtonanchora) gracilis", "sprite": "sp-barrel_sponge.png", "group": "sponge", "rarity": 1}, {"lat": 15.1, "lng": 40.2, "id": "105816", "name": "Scalloped hammerhead", "thumb": "tn_Splew_u0.jpg", "sprite": "sp-great_white_shark.png", "group": "shark", "rarity": 1, "waterType": "Brackish"}, {"lat": 14.75, "lng": 40.0, "id": "205519", "name": "Echinopora", "sprite": "sp-actiniidae.png", "group": "coral", "rarity": 1}, {"lat": 15.617, "lng": 39.467, "id": "280445", "name": "Arabian goby", "thumb": "tn_Crara_u5.jpg", "sprite": "sp-eviota_bipunctata.png", "group": "goby", "rarity": 1, "waterType": "Saltwater"}, {"lat": 15.7021, "lng": 39.6458, "id": "219436", "name": "Ctenogobiops crocineus", "thumb": "tn_Ctcro_u3.jpg", "sprite": "sp-eviota_bipunctata.png", "group": "goby", "rarity": 1, "waterType": "Saltwater"}, {"lat": 15.5419, "lng": 40.0, "id": "125908", "name": "Acanthurus", "sprite": "sp-acanthurus_albimento.png", "group": "surgeonfish", "rarity": 1}, {"lat": 15.5083, "lng": 39.9, "id": "218482", "name": "Common bluestripe snapper", "thumb": "tn_Lukas_u9.jpg", "sprite": "sp-mutton_snapper.png", "group": "snapper", "rarity": 1, "waterType": "Saltwater"}, {"lat": 15.5083, "lng": 39.9, "id": "218342", "name": "Crimsontip longfin", "thumb": "tn_Plcoe_u8.jpg", "sprite": "sp-anchoviella_juruasanga.png", "group": "other", "rarity": 1, "waterType": "Saltwater"}, {"lat": 15.617, "lng": 39.5, "id": "126948", "name": "Striped piggy", "thumb": "tn_Postr_u3.jpg", "sprite": "sp-anchoviella_juruasanga.png", "group": "other", "rarity": 1, "waterType": "Saltwater"}, {"lat": 16.5641, "lng": 42.0585, "id": "206788", "name": "Polyplectana", "sprite": "sp-sea_cucumber.png", "group": "starfish", "rarity": 1}, {"lat": 16.5641, "lng": 42.0585, "id": "106931", "name": "Thalamita", "sprite": "sp-american_lobster.png", "group": "crab_lobster", "rarity": 1}, {"lat": 16.4892, "lng": 41.9443, "id": "570008", "name": "Naticarius onca", "sprite": "sp-cowrie_shell.png", "group": "sea_snail", "rarity": 1}, {"lat": 15.5945, "lng": 39.4787, "id": "1471014", "name": "Chicoreus ethiopius", "sprite": "sp-cowrie_shell.png", "group": "sea_snail", "rarity": 1}, {"lat": 15.1835, "lng": 40.425, "id": "219956", "name": "Diamondback puffer", "thumb": "tn_Lague_u2.jpg", "sprite": "sp-fahaka_pufferfish.png", "group": "pufferfish", "rarity": 1, "waterType": "Saltwater"}, {"lat": 16.4892, "lng": 41.9443, "id": "205728", "name": "Macrophiothrix", "sprite": "sp-sea_cucumber.png", "group": "starfish", "rarity": 1}, {"lat": 15.6057, "lng": 39.4554, "id": "126296", "name": "Daggertooth pike conger", "thumb": "tn_Mucin_u3.jpg", "sprite": "sp-electric_eel.png", "group": "eel", "rarity": 1, "waterType": "Brackish"}, {"lat": 16.4892, "lng": 41.9443, "id": "179627", "name": "Prionocidaris", "sprite": "sp-sea_cucumber.png", "group": "starfish", "rarity": 1}, {"lat": 15.4331, "lng": 39.7511, "id": "1075046", "name": "Naria nebrites", "sprite": "sp-cowrie_shell.png", "group": "sea_snail", "rarity": 1}, {"lat": 15.3968, "lng": 41.7788, "id": "113450", "name": "Globorotalia menardii", "sprite": "sp-anchoviella_juruasanga.png", "group": "other", "rarity": 1}, {"lat": 16.4892, "lng": 41.9443, "id": "208702", "name": "Dardanus pedunculatus", "sprite": "sp-american_lobster.png", "group": "crab_lobster", "rarity": 1}, {"lat": 15.5833, "lng": 39.45, "id": "165350", "name": "Hyrtios erectus", "sprite": "sp-barrel_sponge.png", "group": "sponge", "rarity": 1}]}