{"zoom": 7, "x": 78, "y": 73, "points": [{"lat": -25.4167, "lng": 39.8, "id": "104495", "name": "Centropages furcatus", "sprite": "sp-anchoviella_juruasanga.png", "group": "other", "rarity": 1}, {"lat": -24.95, "lng": 40.3, "id": "246458", "name": "Petrarctus rugosus", "sprite": "sp-american_lobster.png", "group": "crab_lobster", "rarity": 1}, {"lat": -26.848, "lng": 39.599, "id": "212633", "name": "Puffinus lherminieri", "sprite": "sp-anchoviella_juruasanga.png", "group": "other", "rarity": 1}, {"lat": -26.6667, "lng": 40.0, "id": "217693", "name": "Hudson's lanternfish", "thumb": "tn_Dihud_u0.jpg", "sprite": "sp-anchoviella_juruasanga.png", "group": "other", "rarity": 1, "waterType": "Saltwater"}, {"lat": -24.7433, "lng": 40.5617, "id": "127813", "name": "Metaconchoecia rotundata", "sprite": "sp-anchoviella_juruasanga.png", "group": "other", "rarity": 1}, {"lat": -26.7167, "lng": 39.9167, "id": "103273", "name": "Phrosina semilunata", "sprite": "sp-american_lobster.png", "group": "crab_lobster", "rarity": 1}, {"lat": -25.9167, "lng": 39.5, "id": "221063", "name": "Thysanopoda orientalis", "sprite": "sp-antarctic_krill.png", "group": "shrimp", "rarity": 1}, {"lat": -24.7717, "lng": 40.0958, "id": "117568", "name": "Liriope tetraphylla", "sprite": "sp-anchoviella_juruasanga.png", "group": "other", "rarity": 1}, {"lat": -25.4167, "lng": 39.8, "id": "104469", "name": "Nannocalanus minor", "sprite": "sp-anchoviella_juruasanga.png", "group": "other", "rarity": 1}, {"lat": -26.6667, "lng": 40.0, "id": "126593", "name": "Spotlight lanternfish", "thumb": "tn_Diluc_u0.gif", "sprite": "sp-anchoviella_juruasanga.png", "group": "other", "rarity": 1, "waterType": "Saltwater"}, {"lat": -24.7433, "lng": 40.5617, "id": "127777", "name": "Conchoecissa ametra", "sprite": "sp-anchoviella_juruasanga.png", "group": "other", "rarity": 1}, {"lat": -25.5333, "lng": 42.1667, "id": "220839", "name": "Acrocalanus monachus", "sprite": "sp-anchoviella_juruasanga.png", "group": "other", "rarity": 1}, {"lat": -25.4944, "lng": 40.9833, "id": "104552", "name": "Euchaeta marina", "sprite": "sp-anchoviella_juruasanga.png", "group": "other", "rarity": 1}, {"lat": -24.5933, "lng": 39.8917, "id": "127826", "name": "Mollicia mollis", "sprite": "sp-anchoviella_juruasanga.png", "group": "other", "rarity": 1}, {"lat": -26.2917, "lng": 39.75, "id": "127297", "name": "Bighead portholefish", "thumb": "tn_Maobt_u0.jpg", "sprite": "sp-anchoviella_juruasanga.png", "group": "other", "rarity": 1, "waterType": "Saltwater"}, {"lat": -25.4167, "lng": 39.8, "id": "1135", "name": "Amphipoda", "sprite": "sp-american_lobster.png", "group": "crab_lobster", "rarity": 1}, {"lat": -26.7167, "lng": 39.9167, "id": "236634", "name": "Vibilia viatrix", "sprite": "sp-american_lobster.png", "group": "crab_lobster", "rarity": 1}, {"lat": -26.2917, "lng": 39.75, "id": "127309", "name": "Half-naked hatchetfish", "thumb": "tn_Arhem_u6.jpg", "sprite": "sp-anchoviella_juruasanga.png", "group": "other", "rarity": 1, "waterType": "Saltwater"}, {"lat": -24.7433, "lng": 40.5617, "id": "127845", "name": "Paraconchoecia oblonga", "sprite": "sp-anchoviella_juruasanga.png", "group": "other", "rarity": 1}, {"lat": -25.9167, "lng": 39.5, "id": "126306", "name": "Slender snipe eel", "thumb": "tn_Nesco_u3.jpg", "sprite": "sp-electric_eel.png", "group": "eel", "rarity": 1, "waterType": "Saltwater"}, {"lat": -24.995, "lng": 39.83, "id": "573437", "name": "Coscinodiscus sol", "sprite": "sp-anchoviella_juruasanga.png", "group": "other", "rarity": 1}, {"lat": -25.9167, "lng": 39.5, "id": "110699", "name": "Stylocheiron abbreviatum", "sprite": "sp-antarctic_krill.png", "group": "shrimp", "rarity": 1}, {"lat": -25.5333, "lng": 41.7229, "id": "105410", "name": "Sagitta", "sprite": "sp-anchoviella_juruasanga.png", "group": "other", "rarity": 1}, {"lat": -26.6667, "lng": 40.0, "id": "126611", "name": "Dusky lanternfish", "thumb": "tn_Laate_u0.gif", "sprite": "sp-anchoviella_juruasanga.png", "group": "other", "rarity": 1, "waterType": "Saltwater"}, {"lat": -25.9167, "lng": 39.5, "id": "110720", "name": "Thysanopoda pectinata", "sprite": "sp-antarctic_krill.png", "group": "shrimp", "rarity": 1}, {"lat": -26.8997, "lng": 39.6724, "id": "567827", "name": "Onychoprion fuscatus", "sprite": "sp-anchoviella_juruasanga.png", "group": "other", "rarity": 1}, {"lat": -26.2917, "lng": 39.75, "id": "126595", "name": "Soft lanternfish", "thumb": "tn_Dimol_u0.jpg", "sprite": "sp-anchoviella_juruasanga.png", "group": "other", "rarity": 1, "waterType": "Saltwater"}, {"lat": -25.9167, "lng": 39.5, "id": "217462", "name": "Southern fintail snipe eel", "sprite": "sp-electric_eel.png", "group": "eel", "rarity": 1, "waterType": "Saltwater"}, {"lat": -26.1667, "lng": 39.6667, "id": "514136", "name": "Parasergestes armatus", "sprite": "sp-american_lobster.png", "group": "crab_lobster", "rarity": 1}, {"lat": -26.7167, "lng": 39.9167, "id": "883866", "name": "Belzebub chacei", "sprite": "sp-american_lobster.png", "group": "crab_lobster", "rarity": 1}, {"lat": -24.6683, "lng": 40.2267, "id": "127778", "name": "Conchoecissa imbricata", "sprite": "sp-anchoviella_juruasanga.png", "group": "other", "rarity": 1}, {"lat": -24.95, "lng": 40.3, "id": "221206", "name": "Protiaropsis minor", "sprite": "sp-anchoviella_juruasanga.png", "group": "other", "rarity": 1}, {"lat": -25.9167, "lng": 39.5, "id": "217700", "name": "Firefly lanternfish", "thumb": "tn_Hypro_u1.gif", "sprite": "sp-anchoviella_juruasanga.png", "group": "other", "rarity": 1, "waterType": "Saltwater"}, {"lat": -25.4944, "lng": 40.9833, "id": "1080", "name": "Copepoda", "sprite": "sp-anchoviella_juruasanga.png", "group": "other", "rarity": 1}, {"lat": -24.6683, "lng": 40.2267, "id": "172494", "name": "Macroconchoecia caudata", "sprite": "sp-anchoviella_juruasanga.png", "group": "other", "rarity": 1}, {"lat": -25.9167, "lng": 39.5, "id": "107605", "name": "Systellaspis debilis", "sprite": "sp-american_lobster.png", "group": "crab_lobster", "rarity": 1}, {"lat": -24.995, "lng": 39.83, "id": "254448", "name": "Chaetoceros aequatorialis", "sprite": "sp-anchoviella_juruasanga.png", "group": "other", "rarity": 1}, {"lat": -24.7433, "lng": 40.5617, "id": "127856", "name": "Porroecia spinirostris", "sprite": "sp-anchoviella_juruasanga.png", "group": "other", "rarity": 1}, {"lat": -26.6667, "lng": 40.0, "id": "217695", "name": "Parr's lanternfish", "thumb": "tn_Dipar_u1.jpg", "sprite": "sp-anchoviella_juruasanga.png", "group": "other", "rarity": 1, "waterType": "Saltwater"}, {"lat": -26.2917, "lng": 39.75, "id": "1056510", "name": "Phorcosergia grandis", "sprite": "sp-american_lobster.png", "group": "crab_lobster", "rarity": 1}, {"lat": -25.4944, "lng": 40.9833, "id": "116116", "name": "Microsetella rosea", "sprite": "sp-anchoviella_juruasanga.png", "group": "other", "rarity": 1}, {"lat": -25.5333, "lng": 41.575, "id": "128721", "name": "Copilia", "sprite": "sp-anchoviella_juruasanga.png", "group": "other", "rarity": 1}, {"lat": -25.4167, "lng": 39.8, "id": "104551", "name": "Euchaeta concinna", "sprite": "sp-anchoviella_juruasanga.png", "group": "other", "rarity": 1}, {"lat": -26.2917, "lng": 39.75, "id": "127338", "name": "Sloane's viperfish", "thumb": "tn_Chslo_u5.jpg", "sprite": "sp-anchoviella_juruasanga.png", "group": "other", "rarity": 1, "waterType": "Saltwater"}, {"lat": -25.9167, "lng": 39.5, "id": "217717", "name": "Multispotted lanternfish", "thumb": "tn_Scmul_u1.gif", "sprite": "sp-anchoviella_juruasanga.png", "group": "other", "rarity": 1, "waterType": "Saltwater"}, {"lat": -24.95, "lng": 40.3, "id": "107706", "name": "Panulirus ornatus", "sprite": "sp-american_lobster.png", "group": "crab_lobster", "rarity": 1}, {"lat": -25.9167, "lng": 39.5, "id": "217681", "name": "Spinycheek lanternfish", "thumb": "tn_Befib_u0.gif", "sprite": "sp-anchoviella_juruasanga.png", "group": "other", "rarity": 1, "waterType": "Saltwater"}, {"lat": -25.5333, "lng": 40.9833, "id": "104544", "name": "Subeucalanus crassus", "sprite": "sp-anchoviella_juruasanga.png", "group": "other", "rarity": 1}, {"lat": -25.4944, "lng": 40.9833, "id": "1078", "name": "Ostracoda", "sprite": "sp-anchoviella_juruasanga.png", "group": "other", "rarity": 1}, {"lat": -26.6667, "lng": 40.0, "id": "158916", "name": "Patchwork lampfish", "thumb": "tn_Nores_u0.jpg", "sprite": "sp-anchoviella_juruasanga.png", "group": "other", "rarity": 1, "waterType": "Saltwater"}, {"lat": -24.995, "lng": 39.83, "id": "149629", "name": "Rhizosolenia styliformis", "sprite": "sp-anchoviella_juruasanga.png", "group": "other", "rarity": 1}, {"lat": -26.574, "lng": 39.524, "id": "212596", "name": "Sula sula", "sprite": "sp-anchoviella_juruasanga.png", "group": "other", "rarity": 1}, {"lat": -25.5333, "lng": 40.9833, "id": "104468", "name": "Mesocalanus tenuicornis", "sprite": "sp-anchoviella_juruasanga.png", "group": "other", "rarity": 1}, {"lat": -24.7433, "lng": 40.5617, "id": "127795", "name": "Halocypris pelagica", "sprite": "sp-anchoviella_juruasanga.png", "group": "other", "rarity": 1}, {"lat": -25.9167, "lng": 39.5, "id": "1649789", "name": "Hansarsia megalops", "sprite": "sp-antarctic_krill.png", "group": "shrimp", "rarity": 1}, {"lat": -24.5933, "lng": 39.8917, "id": "135448", "name": "Sulculeolaria turgida", "sprite": "sp-anchoviella_juruasanga.png", "group": "other", "rarity": 1}, {"lat": -25.1993, "lng": 40.7151, "id": "137119", "name": "Physeter macrocephalus", "sprite": "sp-blue_whale.png", "group": "whale", "rarity": 1}, {"lat": -25.5333, "lng": 40.9833, "id": "116382", "name": "Macrosetella gracilis", "sprite": "sp-anchoviella_juruasanga.png", "group": "other", "rarity": 1}, {"lat": -25.475, "lng": 40.9833, "id": "104548", "name": "Subeucalanus subcrassus", "sprite": "sp-anchoviella_juruasanga.png", "group": "other", "rarity": 1}, {"lat": -24.5933, "lng": 39.8917, "id": "220999", "name": "Neognathophausia ingens", "sprite": "sp-american_lobster.png", "group": "crab_lobster", "rarity": 1}, {"lat": -26.6667, "lng": 40.0, "id": "1056521", "name": "Scintillosergia scintillans", "sprite": "sp-american_lobster.png", "group": "crab_lobster", "rarity": 1}, {"lat": -26.7167, "lng": 39.9167, "id": "236568", "name": "Lestrigonus bengalensis", "sprite": "sp-american_lobster.png", "group": "crab_lobster", "rarity": 1}, {"lat": -26.7, "lng": 40.1167, "id": "141694", "name": "Tremoctopus violaceus", "sprite": "sp-giant_pacific_octopus.png", "group": "octopus_squid", "rarity": 1}, {"lat": -25.9167, "lng": 39.5, "id": "110704", "name": "Stylocheiron maximum", "sprite": "sp-antarctic_krill.png", "group": "shrimp", "rarity": 1}, {"lat": -24.95, "lng": 40.3, "id": "210355", "name": "Panulirus homarus", "sprite": "sp-american_lobster.png", "group": "crab_lobster", "rarity": 1}, {"lat": -25.9167, "lng": 39.5, "id": "369212", "name": "Pasiphaea acutifrons", "sprite": "sp-american_lobster.png", "group": "crab_lobster", "rarity": 1}, {"lat": -24.995, "lng": 39.83, "id": "149158", "name": "Coscinodiscus radiatus", "sprite": "sp-anchoviella_juruasanga.png", "group": "other", "rarity": 1}, {"lat": -25.9167, "lng": 39.5, "id": "126603", "name": "Bermuda lantern fish", "thumb": "tn_Hyhyg_u1.jpg", "sprite": "sp-anchoviella_juruasanga.png", "group": "other", "rarity": 1, "waterType": "Saltwater"}, {"lat": -26.6667, "lng": 39.8667, "id": "301537", "name": "Black lantern fish", "sprite": "sp-anchoviella_juruasanga.png", "group": "other", "rarity": 1, "waterType": "Saltwater"}, {"lat": -24.8692, "lng": 40.1958, "id": "127822", "name": "Mikroconchoecia echinulata", "sprite": "sp-anchoviella_juruasanga.png", "group": "other", "rarity": 1}, {"lat": -25.9167, "lng": 39.5, "id": "126338", "name": "Balbo sabretooth", "thumb": "tn_Evbal_u0.jpg", "sprite": "sp-anchoviella_juruasanga.png", "group": "other", "rarity": 1, "waterType": "Saltwater"}, {"lat": -24.95, "lng": 40.3, "id": "221196", "name": "Leuckartiara gardineri", "sprite": "sp-anchoviella_juruasanga.png", "group": "other", "rarity": 1}, {"lat": -24.7433, "lng": 40.5617, "id": "172456", "name": "Alacia hettacra", "sprite": "sp-anchoviella_juruasanga.png", "group": "other", "rarity": 1}, {"lat": -24.7622, "lng": 40.2511, "id": "127776", "name": "Conchoecilla daphnoides", "sprite": "sp-anchoviella_juruasanga.png", "group": "other", "rarity": 1}, {"lat": -24.7433, "lng": 40.5617, "id": "1314230", "name": "Macrochoecilla macrocheira", "sprite": "sp-anchoviella_juruasanga.png", "group": "other", "rarity": 1}, {"lat": -25.5333, "lng": 40.9833, "id": "220898", "name": "Temora discaudata", "sprite": "sp-anchoviella_juruasanga.png", "group": "other", "rarity": 1}, {"lat": -24.95, "lng": 40.3, "id": "117942", "name": "Pegantha clara", "sprite": "sp-anchoviella_juruasanga.png", "group": "other", "rarity": 1}, {"lat": -24.95, "lng": 40.3, "id": "383031", "name": "Scammarctus batei batei", "sprite": "sp-american_lobster.png", "group": "crab_lobster", "rarity": 1}, {"lat": -24.6683, "lng": 40.2267, "id": "127852", "name": "Paramollicia rhynchena", "sprite": "sp-anchoviella_juruasanga.png", "group": "other", "rarity": 1}, {"lat": -24.95, "lng": 40.3, "id": "221198", "name": "Octotiara russelli", "sprite": "sp-anchoviella_juruasanga.png", "group": "other", "rarity": 1}, {"lat": -26.6667, "lng": 40.0, "id": "217708", "name": "Southern lanternfish", "thumb": "tn_Laaus_u4.jpg", "sprite": "sp-anchoviella_juruasanga.png", "group": "other", "rarity": 1, "waterType": "Saltwater"}, {"lat": -25.9167, "lng": 39.5, "id": "127086", "name": "Elongate frostfish", "thumb": "tn_Beelo_u0.jpg", "sprite": "sp-anchoviella_juruasanga.png", "group": "other", "rarity": 1, "waterType": "Saltwater"}, {"lat": -25.4604, "lng": 40.6875, "id": "847452", "name": "Eucalanus elongatus elongatus", "sprite": "sp-anchoviella_juruasanga.png", "group": "other", "rarity": 1}, {"lat": -24.95, "lng": 40.3, "id": "210354", "name": "Panulirus longipes", "sprite": "sp-american_lobster.png", "group": "crab_lobster", "rarity": 1}, {"lat": -25.5333, "lng": 40.9833, "id": "115273", "name": "Clytemnestra", "sprite": "sp-anchoviella_juruasanga.png", "group": "other", "rarity": 1}, {"lat": -26.83, "lng": 40.68, "id": "289404", "name": "Anactinia pelagica", "sprite": "sp-actiniidae.png", "group": "coral", "rarity": 1}, {"lat": -26.533, "lng": 40.383, "id": "1517577", "name": "Eupercaria incertae sedis", "sprite": "sp-anchoviella_juruasanga.png", "group": "other", "rarity": 1}, {"lat": -25.9167, "lng": 39.5, "id": "217690", "name": "Crown lanternfish", "thumb": "tn_Didia_u1.gif", "sprite": "sp-anchoviella_juruasanga.png", "group": "other", "rarity": 1, "waterType": "Saltwater"}, {"lat": -25.9167, "lng": 39.5, "id": "127295", "name": "Gonostoma denudatum", "thumb": "tn_Goden_u0.jpg", "sprite": "sp-anchoviella_juruasanga.png", "group": "other", "rarity": 1, "waterType": "Saltwater"}, {"lat": -24.7433, "lng": 40.5617, "id": "1314233", "name": "Lophuroecia lophura", "sprite": "sp-anchoviella_juruasanga.png", "group": "other", "rarity": 1}, {"lat": -25.5333, "lng": 41.575, "id": "220838", "name": "Acrocalanus gracilis", "sprite": "sp-anchoviella_juruasanga.png", "group": "other", "rarity": 1}, {"lat": -25.5, "lng": 40.6667, "id": "157031", "name": "Pyroteuthis margaritifera", "sprite": "sp-giant_pacific_octopus.png", "group": "octopus_squid", "rarity": 1}, {"lat": -26.7, "lng": 40.1167, "id": "137931", "name": "Abraliopsis", "sprite": "sp-giant_pacific_octopus.png", "group": "octopus_squid", "rarity": 1}, {"lat": -26.2917, "lng": 39.75, "id": "514117", "name": "Deosergestes corniculum", "sprite": "sp-american_lobster.png", "group": "crab_lobster", "rarity": 1}, {"lat": -25.4167, "lng": 39.8, "id": "104597", "name": "Lucicutia flavicornis", "sprite": "sp-anchoviella_juruasanga.png", "group": "other", "rarity": 1}, {"lat": -25.9167, "lng": 39.5, "id": "127268", "name": "Melamphaes microps", "thumb": "tn_Memic_u0.jpg", "sprite": "sp-anchoviella_juruasanga.png", "group": "other", "rarity": 1, "waterType": "Saltwater"}, {"lat": -25.5333, "lng": 41.7722, "id": "883", "name": "Polychaeta", "sprite": "sp-anchoviella_juruasanga.png", "group": "other", "rarity": 1}, {"lat": -26.6667, "lng": 40.0, "id": "1056514", "name": "Phorcosergia potens", "sprite": "sp-american_lobster.png", "group": "crab_lobster", "rarity": 1}, {"lat": -25.4944, "lng": 40.9833, "id": "128634", "name": "Corycaeus", "sprite": "sp-anchoviella_juruasanga.png", "group": "other", "rarity": 1}, {"lat": -24.7717, "lng": 40.0958, "id": "117865", "name": "Rhopalonema velatum", "sprite": "sp-anchoviella_juruasanga.png", "group": "other", "rarity": 1}, {"lat": -24.7433, "lng": 40.5617, "id": "127798", "name": "Loricoecia loricata", "sprite": "sp-anchoviella_juruasanga.png", "group": "other", "rarity": 1}, {"lat": -24.95, "lng": 40.3, "id": "210359", "name": "Panulirus versicolor", "sprite": "sp-american_lobster.png", "group": "crab_lobster", "rarity": 1}, {"lat": -25.9167, "lng": 39.5, "id": "126583", "name": "Stubby lanternfish", "thumb": "tn_Bosup_u0.jpg", "sprite": "sp-anchoviella_juruasanga.png", "group": "other", "rarity": 1, "waterType": "Saltwater"}, {"lat": -24.7433, "lng": 40.5617, "id": "176588", "name": "Pseudoconchoecia serrulata", "sprite": "sp-anchoviella_juruasanga.png", "group": "other", "rarity": 1}, {"lat": -25.475, "lng": 40.3916, "id": "104669", "name": "Calocalanus pavo", "sprite": "sp-anchoviella_juruasanga.png", "group": "other", "rarity": 1}, {"lat": -25.9167, "lng": 39.5, "id": "272079", "name": "Ahlstrom's waryfish", "thumb": "tn_Scahl_u0.jpg", "sprite": "sp-anchoviella_juruasanga.png", "group": "other", "rarity": 1, "waterType": "Saltwater"}, {"lat": -25.9167, "lng": 39.5, "id": "158890", "name": "Transparent lantern fish", "thumb": "tn_Diper_u5.jpg", "sprite": "sp-anchoviella_juruasanga.png", "group": "other", "rarity": 1, "waterType": "Saltwater"}, {"lat": -25.7271, "lng": 41.6401, "id": "127026", "name": "Albacore", "thumb": "tn_Thala_u4.jpg", "sprite": "sp-bluefin_tuna.png", "group": "tuna_mackerel", "rarity": 1, "waterType": "Saltwater"}, {"lat": -25.9167, "lng": 39.5, "id": "110719", "name": "Thysanopoda obtusifrons", "sprite": "sp-antarctic_krill.png", "group": "shrimp", "rarity": 1}, {"lat": -24.7433, "lng": 40.5617, "id": "127807", "name": "Metaconchoecia inflata", "sprite": "sp-anchoviella_juruasanga.png", "group": "other", "rarity": 1}, {"lat": -25.829, "lng": 40.8896, "id": "212583", "name": "Diomedea exulans", "sprite": "sp-anchoviella_juruasanga.png", "group": "other", "rarity": 1}, {"lat": -24.7433, "lng": 40.5617, "id": "127859", "name": "Proceroecia macroprocera", "sprite": "sp-anchoviella_juruasanga.png", "group": "other", "rarity": 1}, {"lat": -26.936, "lng": 39.714, "id": "137171", "name": "Stercorarius longicaudus", "sprite": "sp-anchoviella_juruasanga.png", "group": "other", "rarity": 1}, {"lat": -24.8692, "lng": 40.1958, "id": "127785", "name": "Euconchoecia chierchiae", "sprite": "sp-anchoviella_juruasanga.png", "group": "other", "rarity": 1}, {"lat": -25.4167, "lng": 39.8, "id": "1130", "name": "Decapoda", "sprite": "sp-american_lobster.png", "group": "crab_lobster", "rarity": 1}, {"lat": -24.95, "lng": 40.3, "id": "382952", "name": "Eduarctus martensii", "sprite": "sp-american_lobster.png", "group": "crab_lobster", "rarity": 1}, {"lat": -25.9167, "lng": 39.5, "id": "158870", "name": "Lestidium", "sprite": "sp-anchoviella_juruasanga.png", "group": "other", "rarity": 1}, {"lat": -25.4167, "lng": 39.8, "id": "104821", "name": "Scolecithrix danae", "sprite": "sp-anchoviella_juruasanga.png", "group": "other", "rarity": 1}, {"lat": -24.95, "lng": 40.3, "id": "221102", "name": "Bougainvillia fulva", "sprite": "sp-anchoviella_juruasanga.png", "group": "other", "rarity": 1}, {"lat": -26.2917, "lng": 39.75, "id": "1056516", "name": "Prehensilosergia prehensilis", "sprite": "sp-american_lobster.png", "group": "crab_lobster", "rarity": 1}]}