{"zoom": 7, "x": 79, "y": 80, "points": [{"lat": -42.7069, "lng": 43.5392, "id": "231404", "name": "Arctocephalus gazella", "sprite": "sp-elephant_seal.png", "group": "seal", "rarity": 1}, {"lat": -41.4214, "lng": 42.9103, "id": "126398", "name": "Silver spinyfin", "thumb": "tn_Diarg_u5.jpg", "sprite": "sp-anchoviella_juruasanga.png", "group": "other", "rarity": 1, "waterType": "Saltwater"}, {"lat": -42.6417, "lng": 42.3667, "id": "234627", "name": "Ringed barracudina", "thumb": "tn_Noann_u0.gif", "sprite": "sp-anchoviella_juruasanga.png", "group": "other", "rarity": 1, "waterType": "Saltwater"}, {"lat": -42.6417, "lng": 42.3667, "id": "127164", "name": "Bobtail eel", "thumb": "tn_Cyatr_u0.gif", "sprite": "sp-anchoviella_juruasanga.png", "group": "other", "rarity": 1, "waterType": "Saltwater"}, {"lat": -41.4167, "lng": 42.8667, "id": "215606", "name": "Shorttail lanternshark", "thumb": "tn_Etbra_u0.gif", "sprite": "sp-great_white_shark.png", "group": "shark", "rarity": 1, "waterType": "Saltwater"}, {"lat": -41.96, "lng": 43.5233, "id": "138007", "name": "Fiona", "sprite": "sp-cowrie_shell.png", "group": "sea_snail", "rarity": 1}, {"lat": -41.6652, "lng": 42.7997, "id": "234638", "name": "Electron subantarctic", "thumb": "tn_Elcar_u0.jpg", "sprite": "sp-anchoviella_juruasanga.png", "group": "other", "rarity": 1, "waterType": "Saltwater"}, {"lat": -41.4207, "lng": 42.9123, "id": "282223", "name": "Spangled tubeshoulder", "thumb": "tn_Pekop_u0.gif", "sprite": "sp-anchoviella_juruasanga.png", "group": "other", "rarity": 1, "waterType": "Saltwater"}, {"lat": -41.4266, "lng": 42.9292, "id": "275005", "name": "False oblique hatchetfish", "thumb": "tn_Stpse_u2.jpg", "sprite": "sp-anchoviella_juruasanga.png", "group": "other", "rarity": 1, "waterType": "Saltwater"}, {"lat": -41.9667, "lng": 42.55, "id": "104171", "name": "Eucalanus", "sprite": "sp-anchoviella_juruasanga.png", "group": "other", "rarity": 1}, {"lat": -42.88, "lng": 42.35, "id": "1026410", "name": "Globoconella inflata", "sprite": "sp-anchoviella_juruasanga.png", "group": "other", "rarity": 1}, {"lat": -42.4304, "lng": 43.7857, "id": "212642", "name": "Pterodroma lessonii", "sprite": "sp-anchoviella_juruasanga.png", "group": "other", "rarity": 1}, {"lat": -41.427, "lng": 42.928, "id": "234731", "name": "Smallscale waryfish", "thumb": "tn_Scham_u0.jpg", "sprite": "sp-anchoviella_juruasanga.png", "group": "other", "rarity": 1, "waterType": "Saltwater"}, {"lat": -41.4117, "lng": 42.8704, "id": "126431", "name": "Antenna codlet", "thumb": "tn_Bratl_u1.jpg", "sprite": "sp-anchoviella_juruasanga.png", "group": "other", "rarity": 1, "waterType": "Saltwater"}, {"lat": -42.6417, "lng": 42.3667, "id": "127354", "name": "Ribbon sawtail fish", "thumb": "tn_Idfas_u1.jpg", "sprite": "sp-anchoviella_juruasanga.png", "group": "other", "rarity": 1, "waterType": "Saltwater"}, {"lat": -41.4244, "lng": 42.9198, "id": "398364", "name": "Southern stoplight loosejaw", "sprite": "sp-anchoviella_juruasanga.png", "group": "other", "rarity": 1, "waterType": "Saltwater"}, {"lat": -41.9667, "lng": 42.55, "id": "104193", "name": "Calocalanus", "sprite": "sp-anchoviella_juruasanga.png", "group": "other", "rarity": 1}, {"lat": -41.4195, "lng": 42.8991, "id": "217605", "name": "Maurolicus walvisensis", "sprite": "sp-anchoviella_juruasanga.png", "group": "other", "rarity": 1, "waterType": "Saltwater"}, {"lat": -42.2, "lng": 43.5067, "id": "282354", "name": "Southern sawshark", "thumb": "tn_Prnud_u0.gif", "sprite": "sp-great_white_shark.png", "group": "shark", "rarity": 1, "waterType": "Saltwater"}, {"lat": -42.2, "lng": 43.5067, "id": "105766", "name": "Raja", "sprite": "sp-himantura_australis.png", "group": "ray", "rarity": 1}, {"lat": -41.4227, "lng": 42.9167, "id": "234749", "name": "Gymnoscopelus opisthopterus", "thumb": "tn_Gyopi_u0.jpg", "sprite": "sp-anchoviella_juruasanga.png", "group": "other", "rarity": 1, "waterType": "Saltwater"}, {"lat": -41.4024, "lng": 42.8803, "id": "127026", "name": "Albacore", "thumb": "tn_Thala_u4.jpg", "sprite": "sp-bluefin_tuna.png", "group": "tuna_mackerel", "rarity": 1, "waterType": "Saltwater"}, {"lat": -42.88, "lng": 42.35, "id": "113458", "name": "Neogloboquadrina pachyderma", "sprite": "sp-anchoviella_juruasanga.png", "group": "other", "rarity": 1}, {"lat": -42.285, "lng": 42.9558, "id": "105839", "name": "Shortfin mako", "thumb": "tn_Isoxy_u0.jpg", "sprite": "sp-great_white_shark.png", "group": "shark", "rarity": 1, "waterType": "Saltwater"}, {"lat": -42.2, "lng": 43.5067, "id": "126634", "name": "Large-scaled lantern fish", "thumb": "tn_Nemac_u5.jpg", "sprite": "sp-anchoviella_juruasanga.png", "group": "other", "rarity": 1, "waterType": "Saltwater"}, {"lat": -41.7305, "lng": 42.7883, "id": "221402", "name": "Pelagic cod", "thumb": "tn_Megra_u0.gif", "sprite": "sp-anchoviella_juruasanga.png", "group": "other", "rarity": 1, "waterType": "Saltwater"}, {"lat": -41.4262, "lng": 42.9303, "id": "273401", "name": "Epigonus angustifrons", "thumb": "tn_Epang_u0.jpg", "sprite": "sp-anchoviella_juruasanga.png", "group": "other", "rarity": 1, "waterType": "Saltwater"}, {"lat": -42.3424, "lng": 44.1753, "id": "220222", "name": "Eubalaena australis", "sprite": "sp-blue_whale.png", "group": "whale", "rarity": 1}, {"lat": -41.4117, "lng": 42.8704, "id": "126631", "name": "Deepwater lanternfish", "thumb": "tn_Tabat_u0.jpg", "sprite": "sp-anchoviella_juruasanga.png", "group": "other", "rarity": 1, "waterType": "Saltwater"}, {"lat": -42.88, "lng": 42.35, "id": "113448", "name": "Globorotalia hirsuta", "sprite": "sp-anchoviella_juruasanga.png", "group": "other", "rarity": 1}, {"lat": -41.427, "lng": 42.928, "id": "221452", "name": "Rebains' portholefish", "thumb": "tn_Direb_u0.gif", "sprite": "sp-anchoviella_juruasanga.png", "group": "other", "rarity": 1, "waterType": "Saltwater"}, {"lat": -41.4193, "lng": 42.9031, "id": "234767", "name": "Tenison’s lanternfish", "thumb": "tn_Prten_u0.jpg", "sprite": "sp-anchoviella_juruasanga.png", "group": "other", "rarity": 1, "waterType": "Saltwater"}, {"lat": -41.9584, "lng": 43.7666, "id": "596242", "name": "Pleuromamma abdominalis abdominalis", "sprite": "sp-anchoviella_juruasanga.png", "group": "other", "rarity": 1}, {"lat": -42.88, "lng": 42.35, "id": "1026286", "name": "Trilobatus sacculifer", "sprite": "sp-anchoviella_juruasanga.png", "group": "other", "rarity": 1}, {"lat": -41.9667, "lng": 42.55, "id": "104638", "name": "Pleuromamma borealis", "sprite": "sp-anchoviella_juruasanga.png", "group": "other", "rarity": 1}, {"lat": -41.95, "lng": 44.9833, "id": "101", "name": "Gastropoda", "sprite": "sp-cowrie_shell.png", "group": "sea_snail", "rarity": 1}, {"lat": -41.427, "lng": 42.928, "id": "127314", "name": "Diaphanous hatchet fish", "thumb": "tn_Stdia_u7.jpg", "sprite": "sp-anchoviella_juruasanga.png", "group": "other", "rarity": 1, "waterType": "Saltwater"}, {"lat": -41.4167, "lng": 42.8667, "id": "127080", "name": "Smalleye squaretail", "thumb": "tn_Tecuv_u1.jpg", "sprite": "sp-anchoviella_juruasanga.png", "group": "other", "rarity": 1, "waterType": "Saltwater"}, {"lat": -42.2, "lng": 43.5067, "id": "274674", "name": "Smooth-head blobfish", "thumb": "tn_Psmar_u0.gif", "sprite": "sp-anchoviella_juruasanga.png", "group": "other", "rarity": 1, "waterType": "Saltwater"}, {"lat": -42.88, "lng": 42.35, "id": "113462", "name": "Turborotalita quinqueloba", "sprite": "sp-anchoviella_juruasanga.png", "group": "other", "rarity": 1}, {"lat": -42.88, "lng": 42.35, "id": "113474", "name": "Neogloboquadrina incompta", "sprite": "sp-anchoviella_juruasanga.png", "group": "other", "rarity": 1}, {"lat": -41.95, "lng": 44.9833, "id": "346030", "name": "Acartia (Acartia) negligens", "sprite": "sp-anchoviella_juruasanga.png", "group": "other", "rarity": 1}, {"lat": -42.88, "lng": 42.35, "id": "418106", "name": "Globigerinella calida", "sprite": "sp-anchoviella_juruasanga.png", "group": "other", "rarity": 1}, {"lat": -42.6417, "lng": 42.3667, "id": "282406", "name": "Stout blacksmelt", "thumb": "tn_Psmil_u0.jpg", "sprite": "sp-anchoviella_juruasanga.png", "group": "other", "rarity": 1, "waterType": "Saltwater"}, {"lat": -42.6417, "lng": 42.3667, "id": "127282", "name": "Benttooth bristlemouth", "thumb": "tn_Cyacc_u0.jpg", "sprite": "sp-anchoviella_juruasanga.png", "group": "other", "rarity": 1, "waterType": "Saltwater"}, {"lat": -41.427, "lng": 42.9282, "id": "272706", "name": "Lampadena dea", "thumb": "tn_Ladea_u0.gif", "sprite": "sp-anchoviella_juruasanga.png", "group": "other", "rarity": 1, "waterType": "Saltwater"}, {"lat": -41.7229, "lng": 42.7787, "id": "127338", "name": "Sloane's viperfish", "thumb": "tn_Chslo_u5.jpg", "sprite": "sp-anchoviella_juruasanga.png", "group": "other", "rarity": 1, "waterType": "Saltwater"}, {"lat": -41.4142, "lng": 42.8813, "id": "274971", "name": "Maurolicus inventionis", "sprite": "sp-anchoviella_juruasanga.png", "group": "other", "rarity": 1, "waterType": "Saltwater"}, {"lat": -42.6417, "lng": 42.3667, "id": "234839", "name": "Parallel lanternfish", "thumb": "tn_Prpar_u1.gif", "sprite": "sp-anchoviella_juruasanga.png", "group": "other", "rarity": 1, "waterType": "Saltwater"}, {"lat": -41.95, "lng": 44.9833, "id": "137233", "name": "Salpa", "sprite": "sp-anchoviella_juruasanga.png", "group": "other", "rarity": 1}, {"lat": -41.4266, "lng": 42.9291, "id": "274926", "name": "Melamphaes eulepis", "thumb": "tn_Meeul_u0.gif", "sprite": "sp-anchoviella_juruasanga.png", "group": "other", "rarity": 1, "waterType": "Saltwater"}, {"lat": -42.2214, "lng": 43.2946, "id": "212651", "name": "Procellaria aequinoctialis", "sprite": "sp-anchoviella_juruasanga.png", "group": "other", "rarity": 1}, {"lat": -41.4167, "lng": 42.8667, "id": "206650", "name": "Halieutaea", "sprite": "sp-deep_sea_anglerfish.png", "group": "anglerfish", "rarity": 1}, {"lat": -41.9542, "lng": 44.375, "id": "105410", "name": "Sagitta", "sprite": "sp-anchoviella_juruasanga.png", "group": "other", "rarity": 1}, {"lat": -42.88, "lng": 42.35, "id": "113452", "name": "Globorotalia scitula", "sprite": "sp-anchoviella_juruasanga.png", "group": "other", "rarity": 1}, {"lat": -41.513, "lng": 43.704, "id": "231413", "name": "Mirounga leonina", "sprite": "sp-elephant_seal.png", "group": "seal", "rarity": 1}, {"lat": -41.8316, "lng": 42.7416, "id": "126615", "name": "Diamondcheek lanternfish", "thumb": "tn_Laint_u1.jpg", "sprite": "sp-anchoviella_juruasanga.png", "group": "other", "rarity": 1, "waterType": "Saltwater"}, {"lat": -42.2, "lng": 43.5067, "id": "279866", "name": "Deepsea conger", "thumb": "tn_Bahir_u0.jpg", "sprite": "sp-electric_eel.png", "group": "eel", "rarity": 1, "waterType": "Saltwater"}, {"lat": -41.4, "lng": 42.9, "id": "217969", "name": "Banded yellowfish", "thumb": "tn_Cehum_u1.jpg", "sprite": "sp-anchoviella_juruasanga.png", "group": "other", "rarity": 1, "waterType": "Saltwater"}, {"lat": -41.4167, "lng": 42.8667, "id": "217703", "name": "Notal lanternfish", "thumb": "tn_Lanot_u0.gif", "sprite": "sp-anchoviella_juruasanga.png", "group": "other", "rarity": 1, "waterType": "Saltwater"}, {"lat": -41.4117, "lng": 42.8704, "id": "127334", "name": "Snaggletooth", "thumb": "tn_Boant_u3.jpg", "sprite": "sp-anchoviella_juruasanga.png", "group": "other", "rarity": 1, "waterType": "Saltwater"}, {"lat": -41.4167, "lng": 42.8667, "id": "125672", "name": "Scopelosaurus", "sprite": "sp-anchoviella_juruasanga.png", "group": "other", "rarity": 1}, {"lat": -41.4114, "lng": 42.9418, "id": "126583", "name": "Stubby lanternfish", "thumb": "tn_Bosup_u0.jpg", "sprite": "sp-anchoviella_juruasanga.png", "group": "other", "rarity": 1, "waterType": "Saltwater"}, {"lat": -42.6417, "lng": 42.3667, "id": "127284", "name": "Garrick", "thumb": "tn_Cybra_u0.jpg", "sprite": "sp-anchoviella_juruasanga.png", "group": "other", "rarity": 1, "waterType": "Saltwater"}, {"lat": -42.88, "lng": 42.35, "id": "1455327", "name": "Globorotalia (Truncorotalia) crassaformis", "sprite": "sp-anchoviella_juruasanga.png", "group": "other", "rarity": 1}, {"lat": -42.0343, "lng": 42.6474, "id": "127274", "name": "Poromitra megalops", "thumb": "tn_Pomeg_u0.jpg", "sprite": "sp-anchoviella_juruasanga.png", "group": "other", "rarity": 1, "waterType": "Saltwater"}, {"lat": -41.9667, "lng": 42.55, "id": "104152", "name": "Calanus", "sprite": "sp-anchoviella_juruasanga.png", "group": "other", "rarity": 1}, {"lat": -41.4262, "lng": 42.9303, "id": "234732", "name": "Jewelled lanternfish", "thumb": "tn_Prgem_u0.jpg", "sprite": "sp-anchoviella_juruasanga.png", "group": "other", "rarity": 1, "waterType": "Saltwater"}, {"lat": -41.3452, "lng": 42.9215, "id": "1253654", "name": "Chondrocladia (Meliiderma) rogersi", "sprite": "sp-barrel_sponge.png", "group": "sponge", "rarity": 1}, {"lat": -41.95, "lng": 44.9833, "id": "1410", "name": "Foraminifera", "sprite": "sp-anchoviella_juruasanga.png", "group": "other", "rarity": 1}, {"lat": -42.2, "lng": 43.5067, "id": "282200", "name": "Longsnout boarfish", "thumb": "tn_Perec_u0.jpg", "sprite": "sp-anchoviella_juruasanga.png", "group": "other", "rarity": 1, "waterType": "Saltwater"}, {"lat": -41.9667, "lng": 42.55, "id": "104643", "name": "Pleuromamma xiphias", "sprite": "sp-anchoviella_juruasanga.png", "group": "other", "rarity": 1}, {"lat": -42.88, "lng": 42.35, "id": "615435", "name": "Helicosphaera carteri", "sprite": "sp-anchoviella_juruasanga.png", "group": "other", "rarity": 1}, {"lat": -41.4, "lng": 42.9, "id": "126395", "name": "Splendid alfonsino", "thumb": "tn_Bespl_ui.jpg", "sprite": "sp-anchoviella_juruasanga.png", "group": "other", "rarity": 1, "waterType": "Saltwater"}, {"lat": -41.7236, "lng": 42.9027, "id": "105801", "name": "Blue shark", "thumb": "tn_Prgla_j1.jpg", "sprite": "sp-great_white_shark.png", "group": "shark", "rarity": 1, "waterType": "Brackish"}, {"lat": -41.4116, "lng": 42.9061, "id": "234737", "name": "Andriashev’s lanternfish", "thumb": "tn_Prand_u1.gif", "sprite": "sp-anchoviella_juruasanga.png", "group": "other", "rarity": 1, "waterType": "Saltwater"}, {"lat": -42.2, "lng": 43.5067, "id": "217961", "name": "Ox-eyed oreo", "thumb": "tn_Oratl_u0.gif", "sprite": "sp-anchoviella_juruasanga.png", "group": "other", "rarity": 1, "waterType": "Saltwater"}, {"lat": -41.4262, "lng": 42.9303, "id": "126537", "name": "Kroyer's deep-sea angler fish", "thumb": "tn_Cehol_u1.jpg", "sprite": "sp-deep_sea_anglerfish.png", "group": "anglerfish", "rarity": 1, "waterType": "Saltwater"}, {"lat": -42.6417, "lng": 42.3667, "id": "234631", "name": "Antarctic deepsea smelt", "thumb": "tn_Baant_u0.gif", "sprite": "sp-anchoviella_juruasanga.png", "group": "other", "rarity": 1, "waterType": "Saltwater"}, {"lat": -41.4241, "lng": 42.9205, "id": "127358", "name": "Stoplight loosejaw", "thumb": "tn_Manig_u6.jpg", "sprite": "sp-anchoviella_juruasanga.png", "group": "other", "rarity": 1, "waterType": "Saltwater"}, {"lat": -42.6442, "lng": 43.5221, "id": "212631", "name": "Phoebetria palpebrata", "sprite": "sp-anchoviella_juruasanga.png", "group": "other", "rarity": 1}, {"lat": -41.4217, "lng": 42.9211, "id": "220007", "name": "Silver lightfish", "thumb": "tn_Pharg_u0.jpg", "sprite": "sp-anchoviella_juruasanga.png", "group": "other", "rarity": 1, "waterType": "Saltwater"}, {"lat": -41.4261, "lng": 42.9262, "id": "1524323", "name": "Bathypelagic rattail", "thumb": "tn_Meant_u0.gif", "sprite": "sp-anchoviella_juruasanga.png", "group": "other", "rarity": 1, "waterType": "Saltwater"}, {"lat": -41.427, "lng": 42.928, "id": "127315", "name": "Highlight hatchetfish", "thumb": "tn_Stpse_u3.jpg", "sprite": "sp-anchoviella_juruasanga.png", "group": "other", "rarity": 1, "waterType": "Saltwater"}, {"lat": -41.9667, "lng": 42.55, "id": "104232", "name": "Scottocalanus", "sprite": "sp-anchoviella_juruasanga.png", "group": "other", "rarity": 1}, {"lat": -42.0543, "lng": 43.1214, "id": "126333", "name": "Long snouted lancetfish", "thumb": "tn_Alfer_u0.jpg", "sprite": "sp-anchoviella_juruasanga.png", "group": "other", "rarity": 1, "waterType": "Saltwater"}, {"lat": -41.4167, "lng": 42.9101, "id": "127306", "name": "Lovely hatchetfish", "thumb": "tn_Aracu_u4.jpg", "sprite": "sp-anchoviella_juruasanga.png", "group": "other", "rarity": 1, "waterType": "Saltwater"}, {"lat": -42.6417, "lng": 42.3667, "id": "125498", "name": "Myctophidae", "sprite": "sp-anchoviella_juruasanga.png", "group": "other", "rarity": 1}, {"lat": -42.6417, "lng": 42.3667, "id": "301537", "name": "Black lantern fish", "sprite": "sp-anchoviella_juruasanga.png", "group": "other", "rarity": 1, "waterType": "Saltwater"}, {"lat": -42.1845, "lng": 43.8216, "id": "125924", "name": "Brama", "sprite": "sp-anchoviella_juruasanga.png", "group": "other", "rarity": 1}, {"lat": -41.427, "lng": 42.928, "id": "234656", "name": "False-midas lanternfish", "thumb": "tn_Gyhin_u0.gif", "sprite": "sp-anchoviella_juruasanga.png", "group": "other", "rarity": 1, "waterType": "Saltwater"}, {"lat": -42.88, "lng": 42.35, "id": "113440", "name": "Globigerinella siphonifera", "sprite": "sp-anchoviella_juruasanga.png", "group": "other", "rarity": 1}, {"lat": -41.4177, "lng": 42.9118, "id": "217709", "name": "Blackhead lanternfish", "thumb": "tn_Lapro_u0.gif", "sprite": "sp-anchoviella_juruasanga.png", "group": "other", "rarity": 1, "waterType": "Saltwater"}, {"lat": -42.6417, "lng": 42.3667, "id": "127276", "name": "Longjaw bigscale", "thumb": "tn_Scrob_u0.jpg", "sprite": "sp-anchoviella_juruasanga.png", "group": "other", "rarity": 1, "waterType": "Saltwater"}, {"lat": -42.88, "lng": 42.35, "id": "113464", "name": "Globigerinita glutinata", "sprite": "sp-anchoviella_juruasanga.png", "group": "other", "rarity": 1}, {"lat": -41.4, "lng": 42.9, "id": "280355", "name": "Coelorinchus vityazae", "sprite": "sp-anchoviella_juruasanga.png", "group": "other", "rarity": 1, "waterType": "Saltwater"}, {"lat": -41.4114, "lng": 42.9418, "id": "127304", "name": "Power's deep-water bristle-mouth fish", "thumb": "tn_Vipow_u0.gif", "sprite": "sp-anchoviella_juruasanga.png", "group": "other", "rarity": 1, "waterType": "Saltwater"}, {"lat": -42.6417, "lng": 42.3667, "id": "274944", "name": "Kobayashi's bristlemouth", "sprite": "sp-anchoviella_juruasanga.png", "group": "other", "rarity": 1, "waterType": "Saltwater"}, {"lat": -41.4266, "lng": 42.9292, "id": "217708", "name": "Southern lanternfish", "thumb": "tn_Laaus_u4.jpg", "sprite": "sp-anchoviella_juruasanga.png", "group": "other", "rarity": 1, "waterType": "Saltwater"}, {"lat": -41.4117, "lng": 42.8704, "id": "126593", "name": "Spotlight lanternfish", "thumb": "tn_Diluc_u0.gif", "sprite": "sp-anchoviella_juruasanga.png", "group": "other", "rarity": 1, "waterType": "Saltwater"}, {"lat": -41.9892, "lng": 42.7713, "id": "126834", "name": "Imperial blackfish", "thumb": "tn_Scova_m0.jpg", "sprite": "sp-anchoviella_juruasanga.png", "group": "other", "rarity": 1, "waterType": "Saltwater"}, {"lat": -42.88, "lng": 42.35, "id": "113444", "name": "Globigerinoides ruber", "sprite": "sp-anchoviella_juruasanga.png", "group": "other", "rarity": 1}, {"lat": -41.9667, "lng": 42.55, "id": "1130", "name": "Decapoda", "sprite": "sp-american_lobster.png", "group": "crab_lobster", "rarity": 1}, {"lat": -41.95, "lng": 44.9833, "id": "211848", "name": "Calocalanus plumulosus", "sprite": "sp-anchoviella_juruasanga.png", "group": "other", "rarity": 1}, {"lat": -42.88, "lng": 42.35, "id": "113473", "name": "Neogloboquadrina dutertrei", "sprite": "sp-anchoviella_juruasanga.png", "group": "other", "rarity": 1}, {"lat": -41.9667, "lng": 42.55, "id": "1078", "name": "Ostracoda", "sprite": "sp-anchoviella_juruasanga.png", "group": "other", "rarity": 1}, {"lat": -41.9584, "lng": 43.7666, "id": "1461626", "name": "Clausocalanus arcuicornis arcuicornis", "sprite": "sp-anchoviella_juruasanga.png", "group": "other", "rarity": 1}, {"lat": -41.4303, "lng": 42.8858, "id": "105841", "name": "Porbeagle", "thumb": "tn_Lanas_u2.jpg", "sprite": "sp-great_white_shark.png", "group": "shark", "rarity": 1, "waterType": "Saltwater"}, {"lat": -42.6417, "lng": 42.3667, "id": "234821", "name": "Nichol's lanternfish", "thumb": "tn_Gynic_u0.jpg", "sprite": "sp-anchoviella_juruasanga.png", "group": "other", "rarity": 1, "waterType": "Saltwater"}, {"lat": -41.4, "lng": 42.9, "id": "127251", "name": "Blackbelly rosefish", "thumb": "tn_Hedac_f0.jpg", "sprite": "sp-anchoviella_juruasanga.png", "group": "other", "rarity": 1, "waterType": "Saltwater"}, {"lat": -41.4117, "lng": 42.8704, "id": "126476", "name": "Roundhead grenadier", "thumb": "tn_Odmur_u0.jpg", "sprite": "sp-anchoviella_juruasanga.png", "group": "other", "rarity": 1, "waterType": "Saltwater"}, {"lat": -42.88, "lng": 42.35, "id": "113434", "name": "Globigerina bulloides", "sprite": "sp-anchoviella_juruasanga.png", "group": "other", "rarity": 1}, {"lat": -42.2, "lng": 43.5067, "id": "280071", "name": "Centroselachus crepidater", "sprite": "sp-great_white_shark.png", "group": "shark", "rarity": 1}, {"lat": -42.88, "lng": 42.35, "id": "113461", "name": "Turborotalita humilis", "sprite": "sp-anchoviella_juruasanga.png", "group": "other", "rarity": 1}, {"lat": -42.6417, "lng": 42.3667, "id": "126304", "name": "Avocet snipe eel", "thumb": "tn_Avinf_u0.jpg", "sprite": "sp-electric_eel.png", "group": "eel", "rarity": 1, "waterType": "Saltwater"}, {"lat": -41.4167, "lng": 42.8667, "id": "127426", "name": "Silvery John dory", "thumb": "tn_Zecon_f0.jpg", "sprite": "sp-anchoviella_juruasanga.png", "group": "other", "rarity": 1, "waterType": "Saltwater"}, {"lat": -41.4167, "lng": 42.8667, "id": "105834", "name": "Bigeyed sixgill shark", "thumb": "tn_Henak_u1.jpg", "sprite": "sp-great_white_shark.png", "group": "shark", "rarity": 1, "waterType": "Saltwater"}, {"lat": -41.3569, "lng": 42.9182, "id": "764832", "name": "Paralebbeus mollis", "sprite": "sp-american_lobster.png", "group": "crab_lobster", "rarity": 1}, {"lat": -41.4114, "lng": 42.9418, "id": "126538", "name": "Triplewart seadevil", "thumb": "tn_Crcou_u0.gif", "sprite": "sp-deep_sea_anglerfish.png", "group": "anglerfish", "rarity": 1, "waterType": "Saltwater"}, {"lat": -41.9584, "lng": 43.7666, "id": "128690", "name": "Oncaea", "sprite": "sp-anchoviella_juruasanga.png", "group": "other", "rarity": 1}]}