{"zoom": 7, "x": 80, "y": 30, "points": [{"lat": 67.767, "lng": 46.792, "id": "140290", "name": "Lyonsia arenosa", "sprite": "sp-blue_mussel.png", "group": "clam_mussel", "rarity": 1}, {"lat": 67.9802, "lng": 46.9614, "id": "149106", "name": "Leptocylindrus danicus", "sprite": "sp-anchoviella_juruasanga.png", "group": "other", "rarity": 1}, {"lat": 68.0277, "lng": 47.028, "id": "102199", "name": "Eusirus cuspidatus", "sprite": "sp-american_lobster.png", "group": "crab_lobster", "rarity": 1}, {"lat": 67.78, "lng": 46.82, "id": "149127", "name": "Chaetoceros similis", "sprite": "sp-anchoviella_juruasanga.png", "group": "other", "rarity": 1}, {"lat": 68.5317, "lng": 47.0856, "id": "137077", "name": "Odobenus rosmarus", "sprite": "sp-elephant_seal.png", "group": "seal", "rarity": 1}, {"lat": 68.45, "lng": 47.2, "id": "137079", "name": "Erignathus barbatus", "sprite": "sp-elephant_seal.png", "group": "seal", "rarity": 1}, {"lat": 68.0628, "lng": 46.9093, "id": "149219", "name": "Chaetoceros debilis", "sprite": "sp-anchoviella_juruasanga.png", "group": "other", "rarity": 1}, {"lat": 68.0628, "lng": 46.9093, "id": "576265", "name": "Gymnodinium wulffii", "sprite": "sp-anchoviella_juruasanga.png", "group": "other", "rarity": 1}, {"lat": 67.65, "lng": 47.17, "id": "109549", "name": "Peridinium", "sprite": "sp-anchoviella_juruasanga.png", "group": "other", "rarity": 1}, {"lat": 68.6, "lng": 46.02, "id": "418547", "name": "Melosira moniliformis", "sprite": "sp-anchoviella_juruasanga.png", "group": "other", "rarity": 1}, {"lat": 68.6363, "lng": 47.6203, "id": "149159", "name": "Coscinodiscus centralis", "sprite": "sp-anchoviella_juruasanga.png", "group": "other", "rarity": 1}, {"lat": 68.2527, "lng": 46.9223, "id": "137741", "name": "Serripes", "sprite": "sp-blue_mussel.png", "group": "clam_mussel", "rarity": 1}, {"lat": 68.3314, "lng": 46.4647, "id": "149093", "name": "Thalassionema nitzschioides", "sprite": "sp-anchoviella_juruasanga.png", "group": "other", "rarity": 1}, {"lat": 68.0, "lng": 47.6, "id": "247773", "name": "Stenosemus albus", "sprite": "sp-anchoviella_juruasanga.png", "group": "other", "rarity": 1}, {"lat": 67.917, "lng": 47.417, "id": "125125", "name": "Ophiopholis aculeata", "sprite": "sp-sea_cucumber.png", "group": "starfish", "rarity": 1}, {"lat": 68.2419, "lng": 46.6129, "id": "109637", "name": "Dinophysis norvegica", "sprite": "sp-anchoviella_juruasanga.png", "group": "other", "rarity": 1}, {"lat": 68.422, "lng": 46.205, "id": "110542", "name": "Campylaspis costata", "sprite": "sp-american_lobster.png", "group": "crab_lobster", "rarity": 1}, {"lat": 68.5943, "lng": 46.4833, "id": "102514", "name": "Anonyx nugax", "sprite": "sp-american_lobster.png", "group": "crab_lobster", "rarity": 1}, {"lat": 67.65, "lng": 47.17, "id": "134546", "name": "Halosphaera viridis", "sprite": "sp-anchoviella_juruasanga.png", "group": "other", "rarity": 1}, {"lat": 67.9788, "lng": 47.3201, "id": "149173", "name": "Chaetoceros fragilis", "sprite": "sp-anchoviella_juruasanga.png", "group": "other", "rarity": 1}, {"lat": 67.65, "lng": 47.17, "id": "17329", "name": "Prasinophyceae", "sprite": "sp-anchoviella_juruasanga.png", "group": "other", "rarity": 1}, {"lat": 67.8024, "lng": 46.8644, "id": "149150", "name": "Nitzschia longissima", "sprite": "sp-anchoviella_juruasanga.png", "group": "other", "rarity": 1}, {"lat": 68.6181, "lng": 46.8202, "id": "963482", "name": "Nitzschia closterium", "sprite": "sp-anchoviella_juruasanga.png", "group": "other", "rarity": 1}, {"lat": 67.716, "lng": 46.584, "id": "148922", "name": "Thalassiosira eccentrica", "sprite": "sp-anchoviella_juruasanga.png", "group": "other", "rarity": 1}, {"lat": 68.0628, "lng": 46.9093, "id": "110250", "name": "Protoperidinium quarnerense", "sprite": "sp-anchoviella_juruasanga.png", "group": "other", "rarity": 1}, {"lat": 68.6, "lng": 46.02, "id": "149126", "name": "Chaetoceros decipiens", "sprite": "sp-anchoviella_juruasanga.png", "group": "other", "rarity": 1}, {"lat": 68.1665, "lng": 47.0085, "id": "102516", "name": "Anonyx sarsi", "sprite": "sp-american_lobster.png", "group": "crab_lobster", "rarity": 1}, {"lat": 68.0628, "lng": 46.9093, "id": "149318", "name": "Nitzschia delicatissima", "sprite": "sp-anchoviella_juruasanga.png", "group": "other", "rarity": 1}, {"lat": 68.6363, "lng": 47.6203, "id": "163624", "name": "Pauliella taeniata", "sprite": "sp-anchoviella_juruasanga.png", "group": "other", "rarity": 1}, {"lat": 68.6363, "lng": 47.6203, "id": "148917", "name": "Coscinodiscus", "sprite": "sp-anchoviella_juruasanga.png", "group": "other", "rarity": 1}, {"lat": 68.4167, "lng": 46.2, "id": "110408", "name": "Lamprops", "sprite": "sp-american_lobster.png", "group": "crab_lobster", "rarity": 1}, {"lat": 68.3167, "lng": 46.7167, "id": "110398", "name": "Diastylis", "sprite": "sp-american_lobster.png", "group": "crab_lobster", "rarity": 1}, {"lat": 67.8128, "lng": 46.9868, "id": "163451", "name": "Coscinodiscus polychordus", "sprite": "sp-anchoviella_juruasanga.png", "group": "other", "rarity": 1}, {"lat": 68.4525, "lng": 46.8275, "id": "141648", "name": "Thracia myopsis", "sprite": "sp-blue_mussel.png", "group": "clam_mussel", "rarity": 1}, {"lat": 68.0571, "lng": 46.6771, "id": "148931", "name": "Thalassiosira nordenskioeldii", "sprite": "sp-anchoviella_juruasanga.png", "group": "other", "rarity": 1}, {"lat": 68.0, "lng": 47.6, "id": "152686", "name": "Stenosemus", "sprite": "sp-anchoviella_juruasanga.png", "group": "other", "rarity": 1}, {"lat": 67.9391, "lng": 46.59, "id": "149074", "name": "Skeletonema costatum", "sprite": "sp-anchoviella_juruasanga.png", "group": "other", "rarity": 1}, {"lat": 68.6, "lng": 46.02, "id": "149503", "name": "Pleurosigma elongatum", "sprite": "sp-anchoviella_juruasanga.png", "group": "other", "rarity": 1}, {"lat": 68.3388, "lng": 46.8201, "id": "149055", "name": "Paralia sulcata", "sprite": "sp-anchoviella_juruasanga.png", "group": "other", "rarity": 1}, {"lat": 68.6, "lng": 46.02, "id": "149070", "name": "Rhizosolenia hebetata", "sprite": "sp-anchoviella_juruasanga.png", "group": "other", "rarity": 1}, {"lat": 67.9167, "lng": 47.4167, "id": "123622", "name": "Ophiopholis", "sprite": "sp-sea_cucumber.png", "group": "starfish", "rarity": 1}, {"lat": 68.1947, "lng": 46.598, "id": "110245", "name": "Protoperidinium pellucidum", "sprite": "sp-anchoviella_juruasanga.png", "group": "other", "rarity": 1}, {"lat": 67.6867, "lng": 46.8444, "id": "156621", "name": "Chaetoceros subtilis", "sprite": "sp-anchoviella_juruasanga.png", "group": "other", "rarity": 1}, {"lat": 68.6, "lng": 46.02, "id": "149129", "name": "Chaetoceros compressus", "sprite": "sp-anchoviella_juruasanga.png", "group": "other", "rarity": 1}, {"lat": 67.9167, "lng": 47.4167, "id": "138154", "name": "Lyonsia", "sprite": "sp-blue_mussel.png", "group": "clam_mussel", "rarity": 1}, {"lat": 68.0833, "lng": 47.1447, "id": "102419", "name": "Ischyrocerus latipes", "sprite": "sp-american_lobster.png", "group": "crab_lobster", "rarity": 1}, {"lat": 68.6363, "lng": 47.6203, "id": "148905", "name": "Cyclotella", "sprite": "sp-anchoviella_juruasanga.png", "group": "other", "rarity": 1}, {"lat": 68.483, "lng": 47.45, "id": "158096", "name": "Halirages fulvocinctus", "sprite": "sp-american_lobster.png", "group": "crab_lobster", "rarity": 1}, {"lat": 67.7, "lng": 46.525, "id": "149375", "name": "Asterionella bleakeleyi", "sprite": "sp-anchoviella_juruasanga.png", "group": "other", "rarity": 1}, {"lat": 68.6363, "lng": 47.6203, "id": "983464", "name": "Fragilaria oceanica f. oceanica", "sprite": "sp-anchoviella_juruasanga.png", "group": "other", "rarity": 1}, {"lat": 68.0628, "lng": 46.9093, "id": "841259", "name": "Tripos longipes", "sprite": "sp-anchoviella_juruasanga.png", "group": "other", "rarity": 1}, {"lat": 67.705, "lng": 46.6817, "id": "172535", "name": "Ceratoneis fasciola", "sprite": "sp-anchoviella_juruasanga.png", "group": "other", "rarity": 1}, {"lat": 68.0628, "lng": 46.9093, "id": "109859", "name": "Gyrodinium lachryma", "sprite": "sp-anchoviella_juruasanga.png", "group": "other", "rarity": 1}, {"lat": 68.0628, "lng": 46.9093, "id": "1321853", "name": "Scrippsiella acuminata", "sprite": "sp-anchoviella_juruasanga.png", "group": "other", "rarity": 1}, {"lat": 68.65, "lng": 46.0, "id": "124943", "name": "Stegophiura nodosa", "sprite": "sp-sea_cucumber.png", "group": "starfish", "rarity": 1}, {"lat": 68.4725, "lng": 47.1675, "id": "159019", "name": "Pagophilus groenlandicus", "sprite": "sp-elephant_seal.png", "group": "seal", "rarity": 1}, {"lat": 68.22, "lng": 46.48, "id": "148956", "name": "Asterionella kariana", "sprite": "sp-anchoviella_juruasanga.png", "group": "other", "rarity": 1}, {"lat": 68.65, "lng": 46.0, "id": "123576", "name": "Stegophiura", "sprite": "sp-sea_cucumber.png", "group": "starfish", "rarity": 1}, {"lat": 67.65, "lng": 47.17, "id": "110035", "name": "Gonyaulax polygramma", "sprite": "sp-anchoviella_juruasanga.png", "group": "other", "rarity": 1}, {"lat": 68.6363, "lng": 47.6203, "id": "341375", "name": "Entomoneis paludosa var. hyperborea", "sprite": "sp-anchoviella_juruasanga.png", "group": "other", "rarity": 1}, {"lat": 67.8114, "lng": 47.4853, "id": "2", "name": "Animalia", "sprite": "sp-anchoviella_juruasanga.png", "group": "other", "rarity": 1}, {"lat": 68.6363, "lng": 47.6203, "id": "549210", "name": "Navicula septentrionalis", "sprite": "sp-anchoviella_juruasanga.png", "group": "other", "rarity": 1}, {"lat": 68.0628, "lng": 46.9093, "id": "163097", "name": "Dicladia mitra", "sprite": "sp-anchoviella_juruasanga.png", "group": "other", "rarity": 1}, {"lat": 68.1745, "lng": 46.5463, "id": "1304629", "name": "Pennales", "sprite": "sp-anchoviella_juruasanga.png", "group": "other", "rarity": 1}, {"lat": 67.9446, "lng": 46.6925, "id": "1590706", "name": "Sundstroemia setigera", "sprite": "sp-anchoviella_juruasanga.png", "group": "other", "rarity": 1}, {"lat": 68.0, "lng": 47.6, "id": "102513", "name": "Anonyx lilljeborgi", "sprite": "sp-american_lobster.png", "group": "crab_lobster", "rarity": 1}, {"lat": 68.317, "lng": 46.717, "id": "110478", "name": "Diastylis glabra", "sprite": "sp-american_lobster.png", "group": "crab_lobster", "rarity": 1}, {"lat": 68.6363, "lng": 47.6203, "id": "149142", "name": "Navicula", "sprite": "sp-anchoviella_juruasanga.png", "group": "other", "rarity": 1}, {"lat": 68.0628, "lng": 46.9093, "id": "148985", "name": "Chaetoceros", "sprite": "sp-anchoviella_juruasanga.png", "group": "other", "rarity": 1}, {"lat": 68.6, "lng": 46.02, "id": "163063", "name": "Chaetoceros holsaticus", "sprite": "sp-anchoviella_juruasanga.png", "group": "other", "rarity": 1}, {"lat": 67.78, "lng": 46.82, "id": "149042", "name": "Melosira", "sprite": "sp-anchoviella_juruasanga.png", "group": "other", "rarity": 1}, {"lat": 68.1043, "lng": 46.6998, "id": "149102", "name": "Thalassiosira gravida", "sprite": "sp-anchoviella_juruasanga.png", "group": "other", "rarity": 1}, {"lat": 68.5277, "lng": 45.5745, "id": "137115", "name": "Delphinapterus leucas", "sprite": "sp-anchoviella_juruasanga.png", "group": "other", "rarity": 1}, {"lat": 67.7367, "lng": 46.9367, "id": "149183", "name": "Pleurosigma angulatum", "sprite": "sp-anchoviella_juruasanga.png", "group": "other", "rarity": 1}, {"lat": 68.4167, "lng": 46.2, "id": "110415", "name": "Campylaspis", "sprite": "sp-american_lobster.png", "group": "crab_lobster", "rarity": 1}, {"lat": 68.422, "lng": 46.205, "id": "110517", "name": "Lamprops fuscatus", "sprite": "sp-american_lobster.png", "group": "crab_lobster", "rarity": 1}]}