{"zoom": 7, "x": 80, "y": 83, "points": [{"lat": -47.9762, "lng": 46.0753, "id": "212631", "name": "Phoebetria palpebrata", "sprite": "sp-anchoviella_juruasanga.png", "group": "other", "rarity": 1}, {"lat": -48.05, "lng": 47.7667, "id": "212637", "name": "Macronectes halli", "sprite": "sp-anchoviella_juruasanga.png", "group": "other", "rarity": 1}, {"lat": -47.523, "lng": 46.4846, "id": "231413", "name": "Mirounga leonina", "sprite": "sp-elephant_seal.png", "group": "seal", "rarity": 1}, {"lat": -47.9518, "lng": 46.2536, "id": "212583", "name": "Diomedea exulans", "sprite": "sp-anchoviella_juruasanga.png", "group": "other", "rarity": 1}, {"lat": -47.7, "lng": 47.05, "id": "341795", "name": "Brachioteuthis picta", "sprite": "sp-giant_pacific_octopus.png", "group": "octopus_squid", "rarity": 1}, {"lat": -47.7997, "lng": 46.3153, "id": "212651", "name": "Procellaria aequinoctialis", "sprite": "sp-anchoviella_juruasanga.png", "group": "other", "rarity": 1}, {"lat": -47.8577, "lng": 45.201, "id": "137088", "name": "Balaenoptera borealis", "sprite": "sp-blue_whale.png", "group": "whale", "rarity": 1}, {"lat": -47.9833, "lng": 47.3533, "id": "212638", "name": "Fulmarus glacialoides", "sprite": "sp-anchoviella_juruasanga.png", "group": "other", "rarity": 1}, {"lat": -47.662, "lng": 45.8562, "id": "231404", "name": "Arctocephalus gazella", "sprite": "sp-elephant_seal.png", "group": "seal", "rarity": 1}, {"lat": -48.324, "lng": 45.7571, "id": "225760", "name": "Thalassarche chrysostoma", "sprite": "sp-anchoviella_juruasanga.png", "group": "other", "rarity": 1}, {"lat": -47.8001, "lng": 45.696, "id": "212632", "name": "Phoebetria fusca", "sprite": "sp-anchoviella_juruasanga.png", "group": "other", "rarity": 1}, {"lat": -48.8644, "lng": 47.3159, "id": "212656", "name": "Aptenodytes patagonicus", "sprite": "sp-anchoviella_juruasanga.png", "group": "other", "rarity": 1}, {"lat": -47.7008, "lng": 46.4175, "id": "212642", "name": "Pterodroma lessonii", "sprite": "sp-anchoviella_juruasanga.png", "group": "other", "rarity": 1}, {"lat": -48.05, "lng": 47.7667, "id": "212645", "name": "Halobaena caerulea", "sprite": "sp-anchoviella_juruasanga.png", "group": "other", "rarity": 1}, {"lat": -47.2144, "lng": 47.1059, "id": "220222", "name": "Eubalaena australis", "sprite": "sp-blue_whale.png", "group": "whale", "rarity": 1}, {"lat": -48.05, "lng": 47.7667, "id": "344020", "name": "Aphrodroma brevirostris", "sprite": "sp-anchoviella_juruasanga.png", "group": "other", "rarity": 1}, {"lat": -47.9667, "lng": 47.25, "id": "212649", "name": "Pachyptila desolata", "sprite": "sp-anchoviella_juruasanga.png", "group": "other", "rarity": 1}, {"lat": -47.9667, "lng": 47.25, "id": "212640", "name": "Daption capense", "sprite": "sp-anchoviella_juruasanga.png", "group": "other", "rarity": 1}, {"lat": -48.05, "lng": 47.7667, "id": "206822", "name": "Macronectes", "sprite": "sp-anchoviella_juruasanga.png", "group": "other", "rarity": 1}, {"lat": -48.05, "lng": 47.7667, "id": "225749", "name": "Pelecanoides", "sprite": "sp-anchoviella_juruasanga.png", "group": "other", "rarity": 1}, {"lat": -47.5638, "lng": 47.441, "id": "343995", "name": "Thalassarche melanophris", "sprite": "sp-anchoviella_juruasanga.png", "group": "other", "rarity": 1}]}