{"zoom": 7, "x": 81, "y": 72, "points": [{"lat": -22.5302, "lng": 47.96, "id": "220000", "name": "Old woman angelfish", "thumb": "tn_Porho_u0.jpg", "sprite": "sp-holacanthus.png", "group": "angelfish", "rarity": 1, "waterType": "Saltwater"}, {"lat": -22.0747, "lng": 48.153, "id": "218426", "name": "Shortfin scad", "thumb": "tn_Demac_u6.jpg", "sprite": "sp-anchoviella_juruasanga.png", "group": "other", "rarity": 1, "waterType": "Saltwater"}, {"lat": -22.8331, "lng": 47.8331, "id": "218912", "name": "Blackspot threadfin", "thumb": "tn_Posex_u6.jpg", "sprite": "sp-anchoviella_juruasanga.png", "group": "other", "rarity": 1, "waterType": "Brackish"}, {"lat": -22.0747, "lng": 48.153, "id": "712660", "name": "Gular cardinalfish", "thumb": "tn_Apsmi_u0.jpg", "sprite": "sp-anchoviella_juruasanga.png", "group": "other", "rarity": 1, "waterType": "Saltwater"}, {"lat": -23.4833, "lng": 50.5, "id": "180759", "name": "Primno macropa", "sprite": "sp-american_lobster.png", "group": "crab_lobster", "rarity": 1}, {"lat": -22.5302, "lng": 47.96, "id": "159439", "name": "Red cornetfish", "thumb": "tn_Fipet_u2.jpg", "sprite": "sp-anchoviella_juruasanga.png", "group": "other", "rarity": 1, "waterType": "Brackish"}, {"lat": -23.4231, "lng": 49.6619, "id": "217829", "name": "Pygmy pearlfish", "sprite": "sp-anchoviella_juruasanga.png", "group": "other", "rarity": 1, "waterType": "Saltwater"}, {"lat": -24.457, "lng": 50.4735, "id": "137205", "name": "Caretta caretta", "sprite": "sp-green_sea_turtle.png", "group": "sea_turtle", "rarity": 1}, {"lat": -22.833, "lng": 47.833, "id": "318181", "name": "Snakehead gudgeon", "thumb": "tn_Opapo_u0.jpg", "sprite": "sp-anchoviella_juruasanga.png", "group": "other", "rarity": 1, "waterType": "Brackish"}, {"lat": -24.35, "lng": 48.866, "id": "1517577", "name": "Eupercaria incertae sedis", "sprite": "sp-anchoviella_juruasanga.png", "group": "other", "rarity": 1}, {"lat": -22.85, "lng": 47.84, "id": "413345", "name": "Solen crosnieri", "sprite": "sp-blue_mussel.png", "group": "clam_mussel", "rarity": 1}, {"lat": -22.5302, "lng": 47.96, "id": "218498", "name": "Mangrove red snapper", "thumb": "tn_Luarg_uh.jpg", "sprite": "sp-mutton_snapper.png", "group": "snapper", "rarity": 1, "waterType": "Brackish"}, {"lat": -23.5089, "lng": 48.9617, "id": "137119", "name": "Physeter macrocephalus", "sprite": "sp-blue_whale.png", "group": "whale", "rarity": 1}, {"lat": -23.033, "lng": 49.517, "id": "127779", "name": "Conchoecissa plinthina", "sprite": "sp-anchoviella_juruasanga.png", "group": "other", "rarity": 1}, {"lat": -23.86, "lng": 49.6574, "id": "212583", "name": "Diomedea exulans", "sprite": "sp-anchoviella_juruasanga.png", "group": "other", "rarity": 1}, {"lat": -22.5302, "lng": 47.96, "id": "209406", "name": "Luminous cardinalfish", "thumb": "tn_Rhgra_u5.jpg", "sprite": "sp-anchoviella_juruasanga.png", "group": "other", "rarity": 1, "waterType": "Saltwater"}, {"lat": -23.4231, "lng": 49.6619, "id": "217823", "name": "Star pearlfish", "thumb": "tn_Camou_u0.jpg", "sprite": "sp-anchoviella_juruasanga.png", "group": "other", "rarity": 1, "waterType": "Saltwater"}, {"lat": -24.35, "lng": 48.866, "id": "1061345", "name": "Anthiadinae", "sprite": "sp-chelidoperca_santosi.png", "group": "grouper", "rarity": 1}, {"lat": -22.8331, "lng": 47.8331, "id": "219471", "name": "Tank goby", "thumb": "tn_Glgiu_u4.jpg", "sprite": "sp-eviota_bipunctata.png", "group": "goby", "rarity": 1, "waterType": "Brackish"}, {"lat": -22.0747, "lng": 48.153, "id": "584793", "name": "Red-eye round herring", "thumb": "tn_Etter_u2.jpg", "sprite": "sp-anchoviella_juruasanga.png", "group": "other", "rarity": 1, "waterType": "Saltwater"}]}