{"zoom": 7, "x": 81, "y": 70, "points": [{"lat": -18.0556, "lng": 49.4167, "id": "282941", "name": "Kiener's silverside", "thumb": "tn_Tekie_m0.jpg", "sprite": "sp-anchoviella_juruasanga.png", "group": "other", "rarity": 1, "waterType": "Brackish"}, {"lat": -17.6667, "lng": 49.5, "id": "218228", "name": "Honeycomb grouper", "thumb": "tn_Epmer_u2.jpg", "sprite": "sp-chelidoperca_santosi.png", "group": "grouper", "rarity": 1, "waterType": "Saltwater"}, {"lat": -17.6667, "lng": 49.5, "id": "277497", "name": "Starry goby", "thumb": "tn_Assem_u7.jpg", "sprite": "sp-eviota_bipunctata.png", "group": "goby", "rarity": 1, "waterType": "Saltwater"}, {"lat": -18.9331, "lng": 49.1169, "id": "219853", "name": "Lachner's tonguesole", "thumb": "tn_Cylac_u0.jpg", "sprite": "sp-atlantic_halibut.png", "group": "flatfish", "rarity": 1, "waterType": "Saltwater"}, {"lat": -18.1667, "lng": 49.4167, "id": "218641", "name": "Tigertooth croaker", "thumb": "tn_Otrub_u6.jpg", "sprite": "sp-anchoviella_juruasanga.png", "group": "other", "rarity": 1, "waterType": "Brackish"}, {"lat": -18.9544, "lng": 49.1094, "id": "214562", "name": "African sea catfish", "thumb": "tn_Arafr_u0.jpg", "sprite": "sp-blue_catfish.png", "group": "catfish", "rarity": 1, "waterType": "Brackish"}, {"lat": -18.0833, "lng": 49.4167, "id": "217662", "name": "Gracile lizardfish", "thumb": "tn_Bagra_u3.jpg", "sprite": "sp-anchoviella_juruasanga.png", "group": "other", "rarity": 1, "waterType": "Saltwater"}, {"lat": -17.6667, "lng": 49.5, "id": "218782", "name": "Onespot demoiselle", "thumb": "tn_Chuni_u0.jpg", "sprite": "sp-chrysiptera_caesifrons.png", "group": "clownfish", "rarity": 1, "waterType": "Saltwater"}, {"lat": -18.8352, "lng": 48.4588, "id": "1836", "name": "Aves", "sprite": "sp-anchoviella_juruasanga.png", "group": "other", "rarity": 1}, {"lat": -17.6667, "lng": 49.5, "id": "217947", "name": "Crown squirrelfish", "thumb": "tn_Sadia_u1.jpg", "sprite": "sp-anchoviella_juruasanga.png", "group": "other", "rarity": 1, "waterType": "Saltwater"}, {"lat": -17.6667, "lng": 49.5, "id": "219082", "name": "Daisy parrotfish", "thumb": "tn_Chsor_m6.jpg", "sprite": "sp-rainbow_parrotfish.png", "group": "parrotfish", "rarity": 1, "waterType": "Brackish"}, {"lat": -18.0, "lng": 49.4167, "id": "277973", "name": "Atlantic mudskipper", "thumb": "tn_Pebar_u0.jpg", "sprite": "sp-eviota_bipunctata.png", "group": "goby", "rarity": 1, "waterType": "Brackish"}, {"lat": -18.125, "lng": 49.4167, "id": "212289", "name": "Longjaw thryssa", "thumb": "tn_Thset_u0.jpg", "sprite": "sp-anchoviella_juruasanga.png", "group": "anchovy", "rarity": 1, "waterType": "Brackish"}, {"lat": -17.6667, "lng": 49.5, "id": "593553", "name": "Seagrass wrasse", "thumb": "tn_Nomac_u1.jpg", "sprite": "sp-cleaner_wrasse.png", "group": "wrasse", "rarity": 1, "waterType": "Saltwater"}, {"lat": -17.1569, "lng": 50.2492, "id": "567789", "name": "Onychoprion", "sprite": "sp-anchoviella_juruasanga.png", "group": "other", "rarity": 1}, {"lat": -18.1335, "lng": 49.2168, "id": "309257", "name": "Shorttail pipefish", "thumb": "tn_Mibra_u3.jpg", "sprite": "sp-cosmocampus_coccineus.png", "group": "seahorse", "rarity": 1, "waterType": "Brackish"}, {"lat": -18.0, "lng": 49.4167, "id": "218498", "name": "Mangrove red snapper", "thumb": "tn_Luarg_uh.jpg", "sprite": "sp-mutton_snapper.png", "group": "snapper", "rarity": 1, "waterType": "Brackish"}, {"lat": -17.6667, "lng": 49.5, "id": "219463", "name": "Greenbubble dwarfgoby", "thumb": "tn_Evpra_f0.jpg", "sprite": "sp-eviota_bipunctata.png", "group": "goby", "rarity": 1, "waterType": "Saltwater"}, {"lat": -17.5452, "lng": 49.946, "id": "137103", "name": "Peponocephala electra", "sprite": "sp-bottlenose_dolphin.png", "group": "dolphin", "rarity": 1}, {"lat": -18.8352, "lng": 48.4588, "id": "1837", "name": "Mammalia", "sprite": "sp-anchoviella_juruasanga.png", "group": "other", "rarity": 1}, {"lat": -17.3574, "lng": 50.0372, "id": "125574", "name": "Xiphiidae", "sprite": "sp-blue_marlin.png", "group": "swordfish", "rarity": 1}, {"lat": -17.1975, "lng": 50.2168, "id": "231418", "name": "Indopacetus pacificus", "sprite": "sp-blue_whale.png", "group": "whale", "rarity": 1}, {"lat": -17.6667, "lng": 49.5, "id": "218991", "name": "Dusky wrasse", "thumb": "tn_Hamar_u3.jpg", "sprite": "sp-cleaner_wrasse.png", "group": "wrasse", "rarity": 1, "waterType": "Saltwater"}, {"lat": -18.5341, "lng": 49.866, "id": "137119", "name": "Physeter macrocephalus", "sprite": "sp-blue_whale.png", "group": "whale", "rarity": 1}, {"lat": -18.1669, "lng": 49.4, "id": "219890", "name": "White-banded triggerfish", "thumb": "tn_Rhacu_ui.jpg", "sprite": "sp-balistidae.png", "group": "triggerfish", "rarity": 1, "waterType": "Saltwater"}, {"lat": -19.0, "lng": 48.0, "id": "219567", "name": "Chinstripe goby", "thumb": "tn_Stgen_u5.jpg", "sprite": "sp-eviota_bipunctata.png", "group": "goby", "rarity": 1, "waterType": "Brackish"}, {"lat": -17.1389, "lng": 49.9682, "id": "10193", "name": "Elasmobranchii", "sprite": "sp-anchoviella_juruasanga.png", "group": "other", "rarity": 1}, {"lat": -18.15, "lng": 49.4166, "id": "207350", "name": "Fungia fungites", "sprite": "sp-actiniidae.png", "group": "coral", "rarity": 1}, {"lat": -18.1667, "lng": 49.4167, "id": "212843", "name": "Whitetail dascyllus", "thumb": "tn_Daaru_u5.jpg", "sprite": "sp-chrysiptera_caesifrons.png", "group": "clownfish", "rarity": 1, "waterType": "Saltwater"}, {"lat": -18.1667, "lng": 49.4167, "id": "218205", "name": "Greasy grouper", "thumb": "tn_Eptau_u0.jpg", "sprite": "sp-chelidoperca_santosi.png", "group": "grouper", "rarity": 1, "waterType": "Saltwater"}, {"lat": -17.6667, "lng": 49.5, "id": "218094", "name": "Guam scorpionfish", "thumb": "tn_Scgua_u1.jpg", "sprite": "sp-parascorpaena_moultoni.png", "group": "scorpionfish", "rarity": 1, "waterType": "Saltwater"}, {"lat": -18.2086, "lng": 49.3272, "id": "368972", "name": "Nardoa novaecaledoniae", "sprite": "sp-sea_cucumber.png", "group": "starfish", "rarity": 1}, {"lat": -18.1222, "lng": 49.2722, "id": "219630", "name": "Convict surgeonfish", "thumb": "tn_Actri_u9.jpg", "sprite": "sp-acanthurus_albimento.png", "group": "surgeonfish", "rarity": 1, "waterType": "Saltwater"}, {"lat": -17.6667, "lng": 49.5, "id": "218081", "name": "Broadbarred firefish", "thumb": "tn_Ptant_u0.jpg", "sprite": "sp-parascorpaena_moultoni.png", "group": "scorpionfish", "rarity": 1, "waterType": "Saltwater"}, {"lat": -17.5382, "lng": 49.6188, "id": "159439", "name": "Red cornetfish", "thumb": "tn_Fipet_u2.jpg", "sprite": "sp-anchoviella_juruasanga.png", "group": "other", "rarity": 1, "waterType": "Brackish"}, {"lat": -18.1667, "lng": 48.8333, "id": "125438", "name": "Atherinidae", "sprite": "sp-anchoviella_juruasanga.png", "group": "other", "rarity": 1}, {"lat": -16.7602, "lng": 49.182, "id": "1448365", "name": "Parvedentulina marojejyae", "sprite": "sp-cowrie_shell.png", "group": "sea_snail", "rarity": 1}, {"lat": -17.6667, "lng": 49.5, "id": "219506", "name": "Pearl goby", "thumb": "tn_Isspe_u0.jpg", "sprite": "sp-eviota_bipunctata.png", "group": "goby", "rarity": 1, "waterType": "Brackish"}, {"lat": -18.817, "lng": 49.15, "id": "218025", "name": "Barhead pipefish", "thumb": "tn_Milei_u0.jpg", "sprite": "sp-cosmocampus_coccineus.png", "group": "seahorse", "rarity": 1, "waterType": "Brackish"}, {"lat": -18.08, "lng": 48.2, "id": "215513", "name": "Conus gubernator", "sprite": "sp-cowrie_shell.png", "group": "sea_snail", "rarity": 1}, {"lat": -17.5382, "lng": 49.6188, "id": "218519", "name": "Slender threadfin bream", "thumb": "tn_Nezys_u4.jpg", "sprite": "sp-anchoviella_juruasanga.png", "group": "other", "rarity": 1, "waterType": "Saltwater"}, {"lat": -17.8597, "lng": 49.4819, "id": "277730", "name": "Commerson's glassy", "thumb": "tn_Ampro_u0.jpg", "sprite": "sp-anchoviella_juruasanga.png", "group": "other", "rarity": 1, "waterType": "Brackish"}, {"lat": -18.15, "lng": 49.14, "id": "582048", "name": "Palythoa hypopelia", "sprite": "sp-actiniidae.png", "group": "coral", "rarity": 1}, {"lat": -17.9387, "lng": 49.6813, "id": "137053", "name": "Phaethon", "sprite": "sp-anchoviella_juruasanga.png", "group": "other", "rarity": 1}, {"lat": -16.6736, "lng": 49.7033, "id": "1447924", "name": "Boucardicus corrugatus", "sprite": "sp-cowrie_shell.png", "group": "sea_snail", "rarity": 1}, {"lat": -17.5382, "lng": 49.6188, "id": "158884", "name": "Snakefish", "thumb": "tn_Trmyo_ua.jpg", "sprite": "sp-anchoviella_juruasanga.png", "group": "other", "rarity": 1, "waterType": "Saltwater"}, {"lat": -18.1669, "lng": 49.3831, "id": "159259", "name": "Hound needlefish", "thumb": "tn_Tycro_u1.jpg", "sprite": "sp-anchoviella_juruasanga.png", "group": "other", "rarity": 1, "waterType": "Saltwater"}, {"lat": -17.0, "lng": 49.5, "id": "125464", "name": "Clupeidae", "sprite": "sp-atlantic_herring.png", "group": "herring", "rarity": 1}, {"lat": -17.1, "lng": 49.8167, "id": "367242", "name": "Strongspine silver-biddy", "thumb": "tn_Gelon_u0.jpg", "sprite": "sp-anchoviella_juruasanga.png", "group": "other", "rarity": 1, "waterType": "Brackish"}, {"lat": -17.6667, "lng": 49.5, "id": "218576", "name": "Grey large-eye bream", "thumb": "tn_Gygri_u5.jpg", "sprite": "sp-anchoviella_juruasanga.png", "group": "other", "rarity": 1, "waterType": "Saltwater"}, {"lat": -17.1622, "lng": 50.4526, "id": "137127", "name": "Ziphius cavirostris", "sprite": "sp-blue_whale.png", "group": "whale", "rarity": 1}, {"lat": -16.8792, "lng": 49.9125, "id": "220039", "name": "Slender glassy", "thumb": "tn_Amnat_u0.jpg", "sprite": "sp-anchoviella_juruasanga.png", "group": "other", "rarity": 1, "waterType": "Brackish"}, {"lat": -18.1669, "lng": 49.4169, "id": "218348", "name": "Plain terapon", "thumb": "tn_Meelo_u1.gif", "sprite": "sp-anchoviella_juruasanga.png", "group": "other", "rarity": 1, "waterType": "Brackish"}, {"lat": -18.1667, "lng": 49.4167, "id": "212279", "name": "Indian pellona", "thumb": "tn_Pedit_u0.jpg", "sprite": "sp-anchoviella_juruasanga.png", "group": "other", "rarity": 1, "waterType": "Brackish"}, {"lat": -17.5382, "lng": 49.6188, "id": "273671", "name": "Por's goatfish", "thumb": "tn_Uppor_u0.jpg", "sprite": "sp-anchoviella_juruasanga.png", "group": "other", "rarity": 1, "waterType": "Saltwater"}, {"lat": -16.8494, "lng": 49.2469, "id": "1448216", "name": "Boucardicus mitovytovylavalavus", "sprite": "sp-cowrie_shell.png", "group": "sea_snail", "rarity": 1}, {"lat": -18.1667, "lng": 49.4167, "id": "219788", "name": "Indian halibut", "thumb": "tn_Pseru_u3.jpg", "sprite": "sp-atlantic_halibut.png", "group": "flatfish", "rarity": 1, "waterType": "Saltwater"}, {"lat": -17.6985, "lng": 49.5203, "id": "208385", "name": "Oliva annulata", "sprite": "sp-cowrie_shell.png", "group": "sea_snail", "rarity": 1}, {"lat": -17.683, "lng": 49.516, "id": "396999", "name": "Mancinella armigera", "sprite": "sp-cowrie_shell.png", "group": "sea_snail", "rarity": 1}, {"lat": -17.0, "lng": 49.7833, "id": "218358", "name": "Rock flagtail", "thumb": "tn_Kurup_u7.jpg", "sprite": "sp-anchoviella_juruasanga.png", "group": "other", "rarity": 1, "waterType": "Brackish"}, {"lat": -18.1222, "lng": 49.2722, "id": "212290", "name": "Orangemouth anchovy", "thumb": "tn_Thvit_u1.jpg", "sprite": "sp-anchoviella_juruasanga.png", "group": "anchovy", "rarity": 1, "waterType": "Brackish"}, {"lat": -18.1669, "lng": 49.4169, "id": "218474", "name": "One-spot snapper", "thumb": "tn_Lumon_u5.jpg", "sprite": "sp-mutton_snapper.png", "group": "snapper", "rarity": 1, "waterType": "Brackish"}, {"lat": -18.688, "lng": 48.8055, "id": "1470870", "name": "Ampelita thompsoni", "sprite": "sp-cowrie_shell.png", "group": "sea_snail", "rarity": 1}, {"lat": -17.1398, "lng": 49.8977, "id": "267118", "name": "Scombrinae", "sprite": "sp-bluefin_tuna.png", "group": "tuna_mackerel", "rarity": 1}, {"lat": -18.511, "lng": 48.879, "id": "196287", "name": "Thiaridae", "sprite": "sp-cowrie_shell.png", "group": "sea_snail", "rarity": 1}, {"lat": -17.4652, "lng": 49.2094, "id": "405035", "name": "Omphalotropis", "sprite": "sp-cowrie_shell.png", "group": "sea_snail", "rarity": 1}, {"lat": -18.1667, "lng": 49.4167, "id": "217457", "name": "Giant mottled eel", "thumb": "tn_Anmar_u0.jpg", "sprite": "sp-electric_eel.png", "group": "eel", "rarity": 1, "waterType": "Brackish"}, {"lat": -17.5, "lng": 50.5, "id": "106861", "name": "Enoplometopus", "sprite": "sp-american_lobster.png", "group": "crab_lobster", "rarity": 1}, {"lat": -17.1821, "lng": 50.1126, "id": "137092", "name": "Megaptera novaeangliae", "sprite": "sp-blue_whale.png", "group": "whale", "rarity": 1}, {"lat": -17.68, "lng": 49.53, "id": "854452", "name": "Taractostephanus squamosa", "sprite": "sp-actiniidae.png", "group": "coral", "rarity": 1}, {"lat": -17.6667, "lng": 49.5, "id": "212076", "name": "Slender emperor", "thumb": "tn_Levar_u4.jpg", "sprite": "sp-anchoviella_juruasanga.png", "group": "other", "rarity": 1, "waterType": "Saltwater"}, {"lat": -18.5359, "lng": 50.2745, "id": "137205", "name": "Caretta caretta", "sprite": "sp-green_sea_turtle.png", "group": "sea_turtle", "rarity": 1}, {"lat": -16.9092, "lng": 49.9542, "id": "138646", "name": "Timoclea", "sprite": "sp-blue_mussel.png", "group": "clam_mussel", "rarity": 1}, {"lat": -18.0, "lng": 49.4167, "id": "220018", "name": "Feathered river-garfish", "thumb": "tn_Zedis_u1.jpg", "sprite": "sp-anchoviella_juruasanga.png", "group": "other", "rarity": 1, "waterType": "Brackish"}, {"lat": -18.1222, "lng": 49.2722, "id": "218848", "name": "Stegastes lividus", "thumb": "tn_Stliv_u2.jpg", "sprite": "sp-chrysiptera_caesifrons.png", "group": "clownfish", "rarity": 1, "waterType": "Saltwater"}, {"lat": -18.0015, "lng": 48.9232, "id": "217458", "name": "African longfin eel", "thumb": "tn_Anmos_u0.jpg", "sprite": "sp-electric_eel.png", "group": "eel", "rarity": 1, "waterType": "Brackish"}, {"lat": -18.875, "lng": 48.236, "id": "151420", "name": "Eleotridae", "sprite": "sp-anchoviella_juruasanga.png", "group": "other", "rarity": 1}, {"lat": -17.5382, "lng": 49.6188, "id": "217668", "name": "Blackear lizardfish", "thumb": "tn_Syhos_u0.jpg", "sprite": "sp-anchoviella_juruasanga.png", "group": "other", "rarity": 1, "waterType": "Brackish"}, {"lat": -16.983, "lng": 49.866, "id": "216872", "name": "Mauritia arabica", "sprite": "sp-cowrie_shell.png", "group": "sea_snail", "rarity": 1}, {"lat": -18.8169, "lng": 49.15, "id": "218696", "name": "Full moony", "thumb": "tn_Mofal_u0.gif", "sprite": "sp-anchoviella_juruasanga.png", "group": "other", "rarity": 1, "waterType": "Brackish"}, {"lat": -18.0, "lng": 49.4167, "id": "218490", "name": "Dory snapper", "thumb": "tn_Luful_ue.jpg", "sprite": "sp-mutton_snapper.png", "group": "snapper", "rarity": 1, "waterType": "Brackish"}, {"lat": -17.35, "lng": 49.4167, "id": "218524", "name": "Whipfin silver-biddy", "thumb": "tn_Gefil_u4.jpg", "sprite": "sp-anchoviella_juruasanga.png", "group": "other", "rarity": 1, "waterType": "Brackish"}, {"lat": -16.6643, "lng": 49.9408, "id": "105847", "name": "Whale shark", "thumb": "tn_Rhtyp_ud.jpg", "sprite": "sp-great_white_shark.png", "group": "shark", "rarity": 1, "waterType": "Saltwater"}, {"lat": -17.7007, "lng": 50.1846, "id": "105730", "name": "Sphyrna", "sprite": "sp-great_white_shark.png", "group": "shark", "rarity": 1}, {"lat": -16.8987, "lng": 50.1444, "id": "137059", "name": "Oceanites", "sprite": "sp-anchoviella_juruasanga.png", "group": "other", "rarity": 1}, {"lat": -18.0167, "lng": 49.1167, "id": "218777", "name": "Mozambique tilapia", "thumb": "tn_Ormos_m0.jpg", "sprite": "sp-coptodon_louka.png", "group": "cichlid", "rarity": 1, "waterType": "Brackish"}, {"lat": -18.0833, "lng": 49.4167, "id": "218404", "name": "Bigeye trevally", "thumb": "tn_Casex_u0.jpg", "sprite": "sp-anchoviella_juruasanga.png", "group": "other", "rarity": 1, "waterType": "Brackish"}, {"lat": -16.9156, "lng": 49.8861, "id": "1448384", "name": "Parvedentulina rapetoa", "sprite": "sp-cowrie_shell.png", "group": "sea_snail", "rarity": 1}, {"lat": -17.6667, "lng": 49.5, "id": "219061", "name": "Three-ribbon wrasse", "thumb": "tn_Ststr_u1.jpg", "sprite": "sp-cleaner_wrasse.png", "group": "wrasse", "rarity": 1, "waterType": "Saltwater"}, {"lat": -16.9571, "lng": 50.091, "id": "152352", "name": "Osteichthyes", "sprite": "sp-anchoviella_juruasanga.png", "group": "other", "rarity": 1}, {"lat": -17.6667, "lng": 49.5, "id": "218948", "name": "Cigar wrasse", "thumb": "tn_Chine_m2.jpg", "sprite": "sp-cleaner_wrasse.png", "group": "wrasse", "rarity": 1, "waterType": "Saltwater"}, {"lat": -18.0, "lng": 49.2722, "id": "219931", "name": "Immaculate puffer", "thumb": "tn_Arimm_u2.jpg", "sprite": "sp-fahaka_pufferfish.png", "group": "pufferfish", "rarity": 1, "waterType": "Brackish"}, {"lat": -17.5, "lng": 48.5, "id": "278158", "name": "Tropical carp-gudgeon", "thumb": "tn_Hycyp_f0.jpg", "sprite": "sp-anchoviella_juruasanga.png", "group": "other", "rarity": 1, "waterType": "Brackish"}, {"lat": -16.983, "lng": 49.867, "id": "207675", "name": "Tridacna maxima", "sprite": "sp-blue_mussel.png", "group": "clam_mussel", "rarity": 1}, {"lat": -17.0, "lng": 49.5, "id": "204831", "name": "Ambassis", "sprite": "sp-anchoviella_juruasanga.png", "group": "other", "rarity": 1}, {"lat": -18.0565, "lng": 48.8943, "id": "2041", "name": "Hirudinea", "sprite": "sp-anchoviella_juruasanga.png", "group": "other", "rarity": 1}, {"lat": -18.2292, "lng": 49.2313, "id": "282511", "name": "Ptychochromis oligacanthus", "thumb": "tn_Ptoli_u0.jpg", "sprite": "sp-coptodon_louka.png", "group": "cichlid", "rarity": 1, "waterType": "Brackish"}, {"lat": -17.6667, "lng": 49.5, "id": "219688", "name": "Shoemaker spinefoot", "thumb": "tn_Sisut_u1.jpg", "sprite": "sp-anchoviella_juruasanga.png", "group": "other", "rarity": 1, "waterType": "Brackish"}, {"lat": -17.0561, "lng": 49.8083, "id": "136988", "name": "Laridae", "sprite": "sp-anchoviella_juruasanga.png", "group": "other", "rarity": 1}, {"lat": -18.166, "lng": 49.383, "id": "151383", "name": "Cichlidae", "sprite": "sp-coptodon_louka.png", "group": "cichlid", "rarity": 1}, {"lat": -18.4433, "lng": 48.5633, "id": "217453", "name": "Madagascar round herring", "thumb": "tn_Samad_u5.jpg", "sprite": "sp-anchoviella_juruasanga.png", "group": "other", "rarity": 1, "waterType": "Brackish"}, {"lat": -17.1448, "lng": 49.9195, "id": "206812", "name": "Anous", "sprite": "sp-anchoviella_juruasanga.png", "group": "other", "rarity": 1}, {"lat": -18.1667, "lng": 49.4167, "id": "218419", "name": "Bluefin trevally", "thumb": "tn_Camel_u0.jpg", "sprite": "sp-anchoviella_juruasanga.png", "group": "other", "rarity": 1, "waterType": "Brackish"}, {"lat": -17.6667, "lng": 49.5, "id": "218342", "name": "Crimsontip longfin", "thumb": "tn_Plcoe_u8.jpg", "sprite": "sp-anchoviella_juruasanga.png", "group": "other", "rarity": 1, "waterType": "Saltwater"}, {"lat": -18.16, "lng": 49.38, "id": "216875", "name": "Monetaria annulus", "sprite": "sp-cowrie_shell.png", "group": "sea_snail", "rarity": 1}, {"lat": -17.6667, "lng": 49.5, "id": "211864", "name": "Goldenstriped soapfish", "thumb": "tn_Grsex_u0.jpg", "sprite": "sp-chelidoperca_santosi.png", "group": "grouper", "rarity": 1, "waterType": "Saltwater"}, {"lat": -18.8169, "lng": 49.15, "id": "218533", "name": "Deep-bodied mojarra", "thumb": "tn_Geery_u2.jpg", "sprite": "sp-anchoviella_juruasanga.png", "group": "other", "rarity": 1, "waterType": "Brackish"}, {"lat": -18.1667, "lng": 49.4167, "id": "217455", "name": "Indonesian shortfin eel", "thumb": "tn_Anbic_u2.jpg", "sprite": "sp-electric_eel.png", "group": "eel", "rarity": 1, "waterType": "Brackish"}, {"lat": -17.6667, "lng": 49.5167, "id": "219852", "name": "Natal tongue-fish", "thumb": "tn_Cyaca_u0.gif", "sprite": "sp-atlantic_halibut.png", "group": "flatfish", "rarity": 1, "waterType": "Saltwater"}, {"lat": -16.983, "lng": 49.866, "id": "216632", "name": "Septifer bilocularis", "sprite": "sp-blue_mussel.png", "group": "clam_mussel", "rarity": 1}, {"lat": -16.983, "lng": 49.8915, "id": "208939", "name": "Littoraria scabra", "sprite": "sp-cowrie_shell.png", "group": "sea_snail", "rarity": 1}, {"lat": -18.1669, "lng": 49.4169, "id": "218558", "name": "Banded grunter", "thumb": "tn_Pofur_u2.jpg", "sprite": "sp-anchoviella_juruasanga.png", "group": "other", "rarity": 1, "waterType": "Saltwater"}, {"lat": -18.5447, "lng": 49.2389, "id": "1042880", "name": "Robust mullet", "thumb": "tn_Varob_u0.gif", "sprite": "sp-anchoviella_juruasanga.png", "group": "other", "rarity": 1, "waterType": "Brackish"}, {"lat": -16.983, "lng": 49.866, "id": "216719", "name": "Planaxis sulcatus", "sprite": "sp-cowrie_shell.png", "group": "sea_snail", "rarity": 1}, {"lat": -18.1745, "lng": 48.7471, "id": "1131", "name": "Isopoda", "sprite": "sp-american_lobster.png", "group": "crab_lobster", "rarity": 1}, {"lat": -18.1525, "lng": 48.9625, "id": "1135", "name": "Amphipoda", "sprite": "sp-american_lobster.png", "group": "crab_lobster", "rarity": 1}, {"lat": -18.1667, "lng": 49.4167, "id": "105799", "name": "Tiger shark", "thumb": "tn_Gacuv_ud.jpg", "sprite": "sp-great_white_shark.png", "group": "shark", "rarity": 1, "waterType": "Brackish"}, {"lat": -17.236, "lng": 49.5916, "id": "218695", "name": "Silver moony", "thumb": "tn_Moarg_u6.jpg", "sprite": "sp-anchoviella_juruasanga.png", "group": "other", "rarity": 1, "waterType": "Brackish"}, {"lat": -17.2185, "lng": 49.7512, "id": "137111", "name": "Tursiops truncatus", "sprite": "sp-bottlenose_dolphin.png", "group": "dolphin", "rarity": 1}, {"lat": -18.1667, "lng": 49.3833, "id": "218638", "name": "Bearded croaker", "thumb": "tn_Joamb_u0.jpg", "sprite": "sp-anchoviella_juruasanga.png", "group": "other", "rarity": 1, "waterType": "Brackish"}]}