{"zoom": 7, "x": 82, "y": 27, "points": [{"lat": 71.03, "lng": 51.5967, "id": "123561", "name": "Ophiocten", "sprite": "sp-sea_cucumber.png", "group": "starfish", "rarity": 1}, {"lat": 71.28, "lng": 51.37, "id": "137077", "name": "Odobenus rosmarus", "sprite": "sp-elephant_seal.png", "group": "seal", "rarity": 1}, {"lat": 70.7777, "lng": 51.7057, "id": "140290", "name": "Lyonsia arenosa", "sprite": "sp-blue_mussel.png", "group": "clam_mussel", "rarity": 1}, {"lat": 70.9, "lng": 51.6881, "id": "123574", "name": "Ophiura", "sprite": "sp-sea_cucumber.png", "group": "starfish", "rarity": 1}, {"lat": 70.8637, "lng": 51.5973, "id": "110479", "name": "Diastylis goodsiri", "sprite": "sp-american_lobster.png", "group": "crab_lobster", "rarity": 1}, {"lat": 70.833, "lng": 51.0, "id": "110487", "name": "Diastylis rathkei", "sprite": "sp-american_lobster.png", "group": "crab_lobster", "rarity": 1}, {"lat": 70.883, "lng": 52.733, "id": "137741", "name": "Serripes", "sprite": "sp-blue_mussel.png", "group": "clam_mussel", "rarity": 1}, {"lat": 70.7083, "lng": 52.0917, "id": "123586", "name": "Gorgonocephalus", "sprite": "sp-sea_cucumber.png", "group": "starfish", "rarity": 1}, {"lat": 71.33, "lng": 50.67, "id": "159021", "name": "Pusa hispida", "sprite": "sp-elephant_seal.png", "group": "seal", "rarity": 1}, {"lat": 71.167, "lng": 51.0, "id": "125125", "name": "Ophiopholis aculeata", "sprite": "sp-sea_cucumber.png", "group": "starfish", "rarity": 1}, {"lat": 71.1024, "lng": 52.7738, "id": "123576", "name": "Stegophiura", "sprite": "sp-sea_cucumber.png", "group": "starfish", "rarity": 1}, {"lat": 70.708, "lng": 52.3165, "id": "124966", "name": "Gorgonocephalus arcticus", "sprite": "sp-sea_cucumber.png", "group": "starfish", "rarity": 1}, {"lat": 71.0407, "lng": 51.8044, "id": "2", "name": "Animalia", "sprite": "sp-anchoviella_juruasanga.png", "group": "other", "rarity": 1}, {"lat": 71.025, "lng": 50.817, "id": "124154", "name": "Crossaster papposus", "sprite": "sp-sea_cucumber.png", "group": "starfish", "rarity": 1}, {"lat": 71.0167, "lng": 51.0, "id": "123622", "name": "Ophiopholis", "sprite": "sp-sea_cucumber.png", "group": "starfish", "rarity": 1}, {"lat": 70.633, "lng": 52.133, "id": "110478", "name": "Diastylis glabra", "sprite": "sp-american_lobster.png", "group": "crab_lobster", "rarity": 1}, {"lat": 71.283, "lng": 52.6665, "id": "141918", "name": "Liocyma fluctuosa", "sprite": "sp-blue_mussel.png", "group": "clam_mussel", "rarity": 1}, {"lat": 70.9632, "lng": 52.1332, "id": "124978", "name": "Ophiacantha bidentata", "sprite": "sp-sea_cucumber.png", "group": "starfish", "rarity": 1}, {"lat": 71.1734, "lng": 51.83, "id": "124860", "name": "Ophiocten sericeum", "sprite": "sp-sea_cucumber.png", "group": "starfish", "rarity": 1}, {"lat": 70.85, "lng": 51.5786, "id": "110398", "name": "Diastylis", "sprite": "sp-american_lobster.png", "group": "crab_lobster", "rarity": 1}, {"lat": 70.8542, "lng": 52.0577, "id": "835694", "name": "Operculodinium centrocarpum", "sprite": "sp-anchoviella_juruasanga.png", "group": "other", "rarity": 1}, {"lat": 70.8837, "lng": 52.2479, "id": "109901", "name": "Polykrikos schwartzii", "sprite": "sp-anchoviella_juruasanga.png", "group": "other", "rarity": 1}, {"lat": 70.717, "lng": 53.4, "id": "247773", "name": "Stenosemus albus", "sprite": "sp-anchoviella_juruasanga.png", "group": "other", "rarity": 1}, {"lat": 70.8333, "lng": 51.0, "id": "130118", "name": "Glycera capitata", "sprite": "sp-anchoviella_juruasanga.png", "group": "other", "rarity": 1}, {"lat": 70.985, "lng": 51.065, "id": "137079", "name": "Erignathus barbatus", "sprite": "sp-elephant_seal.png", "group": "seal", "rarity": 1}, {"lat": 70.9472, "lng": 51.8694, "id": "123587", "name": "Ophiacantha", "sprite": "sp-sea_cucumber.png", "group": "starfish", "rarity": 1}, {"lat": 71.4333, "lng": 52.7498, "id": "124943", "name": "Stegophiura nodosa", "sprite": "sp-sea_cucumber.png", "group": "starfish", "rarity": 1}, {"lat": 71.0313, "lng": 51.5428, "id": "101950", "name": "Haploops laevis", "sprite": "sp-american_lobster.png", "group": "crab_lobster", "rarity": 1}, {"lat": 70.708, "lng": 52.3165, "id": "124934", "name": "Ophiura sarsii", "sprite": "sp-sea_cucumber.png", "group": "starfish", "rarity": 1}, {"lat": 71.2362, "lng": 51.1312, "id": "159019", "name": "Pagophilus groenlandicus", "sprite": "sp-elephant_seal.png", "group": "seal", "rarity": 1}, {"lat": 70.8542, "lng": 52.0577, "id": "146203", "name": "Dinoflagellata", "sprite": "sp-anchoviella_juruasanga.png", "group": "other", "rarity": 1}, {"lat": 70.7167, "lng": 53.4, "id": "152686", "name": "Stenosemus", "sprite": "sp-anchoviella_juruasanga.png", "group": "other", "rarity": 1}, {"lat": 71.5, "lng": 52.583, "id": "141648", "name": "Thracia myopsis", "sprite": "sp-blue_mussel.png", "group": "clam_mussel", "rarity": 1}, {"lat": 70.783, "lng": 52.5, "id": "101958", "name": "Haploops tubicola", "sprite": "sp-american_lobster.png", "group": "crab_lobster", "rarity": 1}, {"lat": 71.167, "lng": 51.0, "id": "101877", "name": "Acanthonotozoma serratum", "sprite": "sp-american_lobster.png", "group": "crab_lobster", "rarity": 1}, {"lat": 70.929, "lng": 50.9085, "id": "110489", "name": "Diastylis scorpioides", "sprite": "sp-american_lobster.png", "group": "crab_lobster", "rarity": 1}, {"lat": 71.0875, "lng": 51.5835, "id": "102514", "name": "Anonyx nugax", "sprite": "sp-american_lobster.png", "group": "crab_lobster", "rarity": 1}, {"lat": 70.675, "lng": 52.167, "id": "102870", "name": "Arrhis phyllonyx", "sprite": "sp-american_lobster.png", "group": "crab_lobster", "rarity": 1}, {"lat": 71.3335, "lng": 51.7915, "id": "124933", "name": "Ophiura robusta", "sprite": "sp-sea_cucumber.png", "group": "starfish", "rarity": 1}]}