{"zoom": 7, "x": 83, "y": 53, "points": [{"lat": 28.75, "lng": 54.363, "id": "276134", "name": "Eastern mosquitofish", "thumb": "tn_Gahol_f0.jpg", "sprite": "sp-anchoviella_juruasanga.png", "group": "other", "rarity": 1, "waterType": "Brackish"}, {"lat": 27.8667, "lng": 54.15, "id": "159325", "name": "Mosquitofish", "thumb": "tn_Gaaff_m2.jpg", "sprite": "sp-anchoviella_juruasanga.png", "group": "other", "rarity": 1, "waterType": "Brackish"}, {"lat": 28.0, "lng": 56.0, "id": "220047", "name": "Concertina fish", "thumb": "tn_Drlon_u0.jpg", "sprite": "sp-anchoviella_juruasanga.png", "group": "other", "rarity": 1, "waterType": "Brackish"}, {"lat": 27.1968, "lng": 55.6099, "id": "269508", "name": "Iranocichla", "sprite": "sp-coptodon_louka.png", "group": "cichlid", "rarity": 1}, {"lat": 28.8243, "lng": 54.0174, "id": "275337", "name": "Sellal bleak", "sprite": "sp-enteromius.png", "group": "carp_minnow", "rarity": 1, "waterType": "Brackish"}, {"lat": 27.1968, "lng": 55.6099, "id": "125725", "name": "Aphanius", "sprite": "sp-anchoviella_juruasanga.png", "group": "other", "rarity": 1}, {"lat": 28.0, "lng": 56.0, "id": "280693", "name": "Orbfish", "thumb": "tn_Eporb_u0.jpg", "sprite": "sp-anchoviella_juruasanga.png", "group": "other", "rarity": 1, "waterType": "Saltwater"}, {"lat": 27.2917, "lng": 56.0583, "id": "279925", "name": "Boleophthalmus dussumieri", "thumb": "tn_Bodus_u1.jpg", "sprite": "sp-eviota_bipunctata.png", "group": "goby", "rarity": 1, "waterType": "Brackish"}, {"lat": 28.7583, "lng": 54.4, "id": "270608", "name": "Pseudophoxinus", "sprite": "sp-enteromius.png", "group": "carp_minnow", "rarity": 1}, {"lat": 27.4569, "lng": 55.038, "id": "316333", "name": "Aphaniops dispar", "sprite": "sp-anchoviella_juruasanga.png", "group": "other", "rarity": 1}, {"lat": 27.2978, "lng": 55.0018, "id": "281182", "name": "Iranocichla hormuzensis", "thumb": "tn_Irhor_u0.jpg", "sprite": "sp-coptodon_louka.png", "group": "cichlid", "rarity": 1, "waterType": "Brackish"}]}