{"zoom": 7, "x": 83, "y": 77, "points": [{"lat": -34.7757, "lng": 54.6256, "id": "148926", "name": "Coscinosira", "sprite": "sp-anchoviella_juruasanga.png", "group": "other", "rarity": 1}, {"lat": -35.0, "lng": 55.0, "id": "220916", "name": "Candacia truncata", "sprite": "sp-anchoviella_juruasanga.png", "group": "other", "rarity": 1}, {"lat": -34.7757, "lng": 54.6256, "id": "162254", "name": "Asteromphalus", "sprite": "sp-anchoviella_juruasanga.png", "group": "other", "rarity": 1}, {"lat": -34.801, "lng": 54.6131, "id": "109549", "name": "Peridinium", "sprite": "sp-anchoviella_juruasanga.png", "group": "other", "rarity": 1}, {"lat": -35.8095, "lng": 53.8529, "id": "883", "name": "Polychaeta", "sprite": "sp-anchoviella_juruasanga.png", "group": "other", "rarity": 1}, {"lat": -35.8333, "lng": 53.915, "id": "137233", "name": "Salpa", "sprite": "sp-anchoviella_juruasanga.png", "group": "other", "rarity": 1}, {"lat": -34.8389, "lng": 54.5942, "id": "149200", "name": "Amphora", "sprite": "sp-anchoviella_juruasanga.png", "group": "other", "rarity": 1}, {"lat": -35.2916, "lng": 54.8292, "id": "1436445", "name": "Pleuromamma gracilis gracilis", "sprite": "sp-anchoviella_juruasanga.png", "group": "other", "rarity": 1}, {"lat": -34.8422, "lng": 55.133, "id": "220222", "name": "Eubalaena australis", "sprite": "sp-blue_whale.png", "group": "whale", "rarity": 1}, {"lat": -34.8366, "lng": 54.5976, "id": "2104", "name": "Myodocopida", "sprite": "sp-anchoviella_juruasanga.png", "group": "other", "rarity": 1}, {"lat": -35.7, "lng": 55.25, "id": "105428", "name": "Krohnitta pacifica", "sprite": "sp-anchoviella_juruasanga.png", "group": "other", "rarity": 1}, {"lat": -34.7757, "lng": 54.6256, "id": "149208", "name": "Pinnularia", "sprite": "sp-anchoviella_juruasanga.png", "group": "other", "rarity": 1}, {"lat": -35.0525, "lng": 54.7607, "id": "137222", "name": "Doliolum", "sprite": "sp-anchoviella_juruasanga.png", "group": "other", "rarity": 1}, {"lat": -34.8366, "lng": 54.5976, "id": "104184", "name": "Mecynocera", "sprite": "sp-anchoviella_juruasanga.png", "group": "other", "rarity": 1}, {"lat": -35.7, "lng": 55.25, "id": "1762", "name": "Nudibranchia", "sprite": "sp-cowrie_shell.png", "group": "sea_snail", "rarity": 1}, {"lat": -34.6539, "lng": 54.2348, "id": "126846", "name": "Common dolphinfish", "thumb": "tn_Cohip_ud.jpg", "sprite": "sp-anchoviella_juruasanga.png", "group": "other", "rarity": 1, "waterType": "Brackish"}, {"lat": -35.7, "lng": 55.25, "id": "126619", "name": "Pygmy lanternfish", "thumb": "tn_Lapus_u0.jpg", "sprite": "sp-anchoviella_juruasanga.png", "group": "other", "rarity": 1, "waterType": "Saltwater"}, {"lat": -35.7, "lng": 55.25, "id": "106731", "name": "Sergestidae", "sprite": "sp-american_lobster.png", "group": "crab_lobster", "rarity": 1}, {"lat": -35.3, "lng": 53.8333, "id": "745865", "name": "Paracalanus parvus parvus", "sprite": "sp-anchoviella_juruasanga.png", "group": "other", "rarity": 1}, {"lat": -35.5869, "lng": 54.5785, "id": "127027", "name": "Yellowfin tuna", "thumb": "tn_Thalb_u0.jpg", "sprite": "sp-bluefin_tuna.png", "group": "tuna_mackerel", "rarity": 1, "waterType": "Brackish"}, {"lat": -35.7, "lng": 55.25, "id": "1648", "name": "Sipunculidae", "sprite": "sp-anchoviella_juruasanga.png", "group": "other", "rarity": 1}, {"lat": -34.8942, "lng": 54.6411, "id": "196874", "name": "Paraeuchaeta", "sprite": "sp-anchoviella_juruasanga.png", "group": "other", "rarity": 1}, {"lat": -35.6864, "lng": 53.8121, "id": "104596", "name": "Lucicutia curta", "sprite": "sp-anchoviella_juruasanga.png", "group": "other", "rarity": 1}, {"lat": -35.7556, "lng": 53.8722, "id": "115409", "name": "Miracia", "sprite": "sp-anchoviella_juruasanga.png", "group": "other", "rarity": 1}, {"lat": -35.7, "lng": 55.25, "id": "266888", "name": "Zonosagitta pulchra", "sprite": "sp-anchoviella_juruasanga.png", "group": "other", "rarity": 1}, {"lat": -34.33, "lng": 54.217, "id": "113448", "name": "Globorotalia hirsuta", "sprite": "sp-anchoviella_juruasanga.png", "group": "other", "rarity": 1}, {"lat": -34.8366, "lng": 54.5976, "id": "106485", "name": "Oithona", "sprite": "sp-anchoviella_juruasanga.png", "group": "other", "rarity": 1}, {"lat": -34.8366, "lng": 54.5976, "id": "104172", "name": "Rhincalanus", "sprite": "sp-anchoviella_juruasanga.png", "group": "other", "rarity": 1}, {"lat": -35.7059, "lng": 53.8383, "id": "104190", "name": "Metridia", "sprite": "sp-anchoviella_juruasanga.png", "group": "other", "rarity": 1}, {"lat": -34.8389, "lng": 54.5942, "id": "149191", "name": "Achnanthes", "sprite": "sp-anchoviella_juruasanga.png", "group": "other", "rarity": 1}, {"lat": -34.8366, "lng": 54.5976, "id": "129328", "name": "Pedinosoma", "sprite": "sp-anchoviella_juruasanga.png", "group": "other", "rarity": 1}, {"lat": -35.3521, "lng": 54.1845, "id": "127094", "name": "Swordfish", "thumb": "tn_Xigla_u5.jpg", "sprite": "sp-blue_marlin.png", "group": "swordfish", "rarity": 1, "waterType": "Saltwater"}, {"lat": -34.8389, "lng": 54.5942, "id": "149342", "name": "Licmophora", "sprite": "sp-anchoviella_juruasanga.png", "group": "other", "rarity": 1}, {"lat": -34.8366, "lng": 54.5976, "id": "51", "name": "Mollusca", "sprite": "sp-anchoviella_juruasanga.png", "group": "other", "rarity": 1}, {"lat": -35.7, "lng": 55.25, "id": "104106", "name": "Temoridae", "sprite": "sp-anchoviella_juruasanga.png", "group": "other", "rarity": 1}, {"lat": -34.8366, "lng": 54.5976, "id": "129715", "name": "Tomopteris", "sprite": "sp-anchoviella_juruasanga.png", "group": "other", "rarity": 1}, {"lat": -35.7833, "lng": 53.6917, "id": "128722", "name": "Sapphirina", "sprite": "sp-anchoviella_juruasanga.png", "group": "other", "rarity": 1}, {"lat": -35.3417, "lng": 54.4333, "id": "104481", "name": "Candacia longimana", "sprite": "sp-anchoviella_juruasanga.png", "group": "other", "rarity": 1}, {"lat": -35.4548, "lng": 53.655, "id": "126395", "name": "Splendid alfonsino", "thumb": "tn_Bespl_ui.jpg", "sprite": "sp-anchoviella_juruasanga.png", "group": "other", "rarity": 1, "waterType": "Saltwater"}, {"lat": -35.6737, "lng": 53.8519, "id": "128690", "name": "Oncaea", "sprite": "sp-anchoviella_juruasanga.png", "group": "other", "rarity": 1}, {"lat": -35.7, "lng": 53.7133, "id": "211848", "name": "Calocalanus plumulosus", "sprite": "sp-anchoviella_juruasanga.png", "group": "other", "rarity": 1}, {"lat": -34.8366, "lng": 54.5976, "id": "127535", "name": "Conchoecissa", "sprite": "sp-anchoviella_juruasanga.png", "group": "other", "rarity": 1}, {"lat": -35.7, "lng": 55.25, "id": "1137", "name": "Cumacea", "sprite": "sp-american_lobster.png", "group": "crab_lobster", "rarity": 1}, {"lat": -34.8262, "lng": 54.6005, "id": "149092", "name": "Thalassionema", "sprite": "sp-anchoviella_juruasanga.png", "group": "other", "rarity": 1}, {"lat": -35.7, "lng": 55.25, "id": "266884", "name": "Zonosagitta bedoti", "sprite": "sp-anchoviella_juruasanga.png", "group": "other", "rarity": 1}, {"lat": -35.7, "lng": 55.25, "id": "146420", "name": "Tunicata", "sprite": "sp-anchoviella_juruasanga.png", "group": "other", "rarity": 1}, {"lat": -35.7, "lng": 55.25, "id": "105434", "name": "Flaccisagitta enflata", "sprite": "sp-anchoviella_juruasanga.png", "group": "other", "rarity": 1}, {"lat": -34.536, "lng": 54.678, "id": "137165", "name": "Sterna paradisaea", "sprite": "sp-anchoviella_juruasanga.png", "group": "other", "rarity": 1}, {"lat": -35.7, "lng": 55.25, "id": "1789", "name": "Phoronida", "sprite": "sp-anchoviella_juruasanga.png", "group": "other", "rarity": 1}, {"lat": -35.7, "lng": 55.25, "id": "146996", "name": "Leptostraca", "sprite": "sp-american_lobster.png", "group": "crab_lobster", "rarity": 1}, {"lat": -34.8389, "lng": 54.5942, "id": "149084", "name": "Surirella", "sprite": "sp-anchoviella_juruasanga.png", "group": "other", "rarity": 1}, {"lat": -35.689, "lng": 53.9251, "id": "110673", "name": "Euphausia", "sprite": "sp-antarctic_krill.png", "group": "shrimp", "rarity": 1}, {"lat": -35.7884, "lng": 54.4893, "id": "127026", "name": "Albacore", "thumb": "tn_Thala_u4.jpg", "sprite": "sp-bluefin_tuna.png", "group": "tuna_mackerel", "rarity": 1, "waterType": "Saltwater"}, {"lat": -34.8468, "lng": 54.5711, "id": "109566", "name": "Prorocentrum", "sprite": "sp-anchoviella_juruasanga.png", "group": "other", "rarity": 1}, {"lat": -35.7, "lng": 55.25, "id": "1082", "name": "Cirripedia", "sprite": "sp-anchoviella_juruasanga.png", "group": "other", "rarity": 1}, {"lat": -35.7, "lng": 55.25, "id": "178738", "name": "[unassigned] Enteropneusta", "sprite": "sp-anchoviella_juruasanga.png", "group": "other", "rarity": 1}, {"lat": -34.8366, "lng": 54.5976, "id": "127546", "name": "Metaconchoecia", "sprite": "sp-anchoviella_juruasanga.png", "group": "other", "rarity": 1}, {"lat": -34.8389, "lng": 54.5942, "id": "157081", "name": "Thalassiothrix", "sprite": "sp-anchoviella_juruasanga.png", "group": "other", "rarity": 1}, {"lat": -34.8389, "lng": 54.5942, "id": "149181", "name": "Pleurosigma", "sprite": "sp-anchoviella_juruasanga.png", "group": "other", "rarity": 1}, {"lat": -34.8366, "lng": 54.5976, "id": "105406", "name": "Flaccisagitta", "sprite": "sp-anchoviella_juruasanga.png", "group": "other", "rarity": 1}, {"lat": -35.7, "lng": 55.25, "id": "110671", "name": "Euphausiidae", "sprite": "sp-antarctic_krill.png", "group": "shrimp", "rarity": 1}, {"lat": -34.8389, "lng": 54.5942, "id": "149537", "name": "Cymbellaceae", "sprite": "sp-anchoviella_juruasanga.png", "group": "other", "rarity": 1}, {"lat": -34.8366, "lng": 54.5976, "id": "137229", "name": "Ihlea", "sprite": "sp-anchoviella_juruasanga.png", "group": "other", "rarity": 1}, {"lat": -34.8366, "lng": 54.5976, "id": "129721", "name": "Travisiopsis", "sprite": "sp-anchoviella_juruasanga.png", "group": "other", "rarity": 1}, {"lat": -35.7, "lng": 55.25, "id": "117199", "name": "Porpita", "sprite": "sp-anchoviella_juruasanga.png", "group": "other", "rarity": 1}, {"lat": -34.8452, "lng": 54.5757, "id": "109470", "name": "Alexandrium", "sprite": "sp-anchoviella_juruasanga.png", "group": "other", "rarity": 1}, {"lat": -34.8389, "lng": 54.5942, "id": "231799", "name": "Lingulodinium", "sprite": "sp-anchoviella_juruasanga.png", "group": "other", "rarity": 1}, {"lat": -35.7, "lng": 55.25, "id": "128586", "name": "Oncaeidae", "sprite": "sp-anchoviella_juruasanga.png", "group": "other", "rarity": 1}, {"lat": -34.7757, "lng": 54.6256, "id": "248069", "name": "Asterolampra", "sprite": "sp-anchoviella_juruasanga.png", "group": "other", "rarity": 1}, {"lat": -36.4209, "lng": 54.5371, "id": "343995", "name": "Thalassarche melanophris", "sprite": "sp-anchoviella_juruasanga.png", "group": "other", "rarity": 1}, {"lat": -35.1167, "lng": 53.766, "id": "1042809", "name": "Dusky snout catshark", "thumb": "tn_Bynay_m0.jpg", "sprite": "sp-great_white_shark.png", "group": "shark", "rarity": 1, "waterType": "Saltwater"}, {"lat": -35.7, "lng": 55.25, "id": "104209", "name": "Pontella", "sprite": "sp-anchoviella_juruasanga.png", "group": "other", "rarity": 1}, {"lat": -35.7, "lng": 55.25, "id": "562626", "name": "Ellobiopsidae", "sprite": "sp-anchoviella_juruasanga.png", "group": "other", "rarity": 1}, {"lat": -35.1244, "lng": 54.8151, "id": "1100", "name": "Calanoida", "sprite": "sp-anchoviella_juruasanga.png", "group": "other", "rarity": 1}, {"lat": -35.7, "lng": 55.25, "id": "164", "name": "Gymnosomata", "sprite": "sp-cowrie_shell.png", "group": "sea_snail", "rarity": 1}, {"lat": -35.0093, "lng": 54.7281, "id": "104075", "name": "Aetideidae", "sprite": "sp-anchoviella_juruasanga.png", "group": "other", "rarity": 1}, {"lat": -35.7043, "lng": 53.9701, "id": "1080", "name": "Copepoda", "sprite": "sp-anchoviella_juruasanga.png", "group": "other", "rarity": 1}, {"lat": -35.5617, "lng": 54.0366, "id": "105839", "name": "Shortfin mako", "thumb": "tn_Isoxy_u0.jpg", "sprite": "sp-great_white_shark.png", "group": "shark", "rarity": 1, "waterType": "Saltwater"}, {"lat": -35.7167, "lng": 53.8444, "id": "149755", "name": "Acartia (Acartiura) clausi", "sprite": "sp-anchoviella_juruasanga.png", "group": "other", "rarity": 1}, {"lat": -35.7, "lng": 55.25, "id": "2081", "name": "Chaetognatha", "sprite": "sp-anchoviella_juruasanga.png", "group": "other", "rarity": 1}, {"lat": -35.7, "lng": 55.25, "id": "105", "name": "Bivalvia", "sprite": "sp-blue_mussel.png", "group": "clam_mussel", "rarity": 1}, {"lat": -35.9016, "lng": 53.9884, "id": "1130", "name": "Decapoda", "sprite": "sp-american_lobster.png", "group": "crab_lobster", "rarity": 1}, {"lat": -34.8547, "lng": 54.4712, "id": "109571", "name": "Pyrocystis", "sprite": "sp-anchoviella_juruasanga.png", "group": "other", "rarity": 1}, {"lat": -34.8389, "lng": 54.5942, "id": "109392", "name": "Gymnodiniales", "sprite": "sp-anchoviella_juruasanga.png", "group": "other", "rarity": 1}, {"lat": -34.8366, "lng": 54.5976, "id": "104115", "name": "Bradyidius", "sprite": "sp-anchoviella_juruasanga.png", "group": "other", "rarity": 1}, {"lat": -35.743, "lng": 53.8858, "id": "105410", "name": "Sagitta", "sprite": "sp-anchoviella_juruasanga.png", "group": "other", "rarity": 1}, {"lat": -34.882, "lng": 54.632, "id": "104183", "name": "Lucicutia", "sprite": "sp-anchoviella_juruasanga.png", "group": "other", "rarity": 1}, {"lat": -34.7757, "lng": 54.6256, "id": "149154", "name": "Triceratium", "sprite": "sp-anchoviella_juruasanga.png", "group": "other", "rarity": 1}, {"lat": -35.7, "lng": 55.25, "id": "135220", "name": "Scyphozoa", "sprite": "sp-box_jellyfish.png", "group": "jellyfish", "rarity": 1}, {"lat": -34.8366, "lng": 54.5976, "id": "115273", "name": "Clytemnestra", "sprite": "sp-anchoviella_juruasanga.png", "group": "other", "rarity": 1}, {"lat": -35.7, "lng": 55.25, "id": "2", "name": "Animalia", "sprite": "sp-anchoviella_juruasanga.png", "group": "other", "rarity": 1}, {"lat": -35.7, "lng": 55.25, "id": "128569", "name": "Corycaeidae", "sprite": "sp-anchoviella_juruasanga.png", "group": "other", "rarity": 1}, {"lat": -35.7, "lng": 55.25, "id": "105448", "name": "Sagitta bipunctata", "sprite": "sp-anchoviella_juruasanga.png", "group": "other", "rarity": 1}, {"lat": -34.33, "lng": 54.217, "id": "113440", "name": "Globigerinella siphonifera", "sprite": "sp-anchoviella_juruasanga.png", "group": "other", "rarity": 1}, {"lat": -34.8366, "lng": 54.5976, "id": "236610", "name": "Phronimella", "sprite": "sp-american_lobster.png", "group": "crab_lobster", "rarity": 1}, {"lat": -35.1266, "lng": 53.71, "id": "313240", "name": "Pelagic armourhead", "thumb": "tn_Psric_u0.jpg", "sprite": "sp-anchoviella_juruasanga.png", "group": "other", "rarity": 1, "waterType": "Saltwater"}, {"lat": -35.7, "lng": 55.25, "id": "266708", "name": "Aidanosagitta neglecta", "sprite": "sp-anchoviella_juruasanga.png", "group": "other", "rarity": 1}, {"lat": -34.33, "lng": 54.217, "id": "113444", "name": "Globigerinoides ruber", "sprite": "sp-anchoviella_juruasanga.png", "group": "other", "rarity": 1}, {"lat": -34.8389, "lng": 54.5942, "id": "160583", "name": "Chattonellaceae", "sprite": "sp-anchoviella_juruasanga.png", "group": "other", "rarity": 1}, {"lat": -35.1333, "lng": 53.7217, "id": "105905", "name": "Arrowhead dogfish", "thumb": "tn_Depro_m0.jpg", "sprite": "sp-great_white_shark.png", "group": "shark", "rarity": 1, "waterType": "Saltwater"}, {"lat": -35.9167, "lng": 53.8167, "id": "104543", "name": "Rhincalanus nasutus", "sprite": "sp-anchoviella_juruasanga.png", "group": "other", "rarity": 1}, {"lat": -35.5651, "lng": 54.8493, "id": "212583", "name": "Diomedea exulans", "sprite": "sp-anchoviella_juruasanga.png", "group": "other", "rarity": 1}, {"lat": -35.8762, "lng": 53.7696, "id": "1488083", "name": "Rhincalanus cornutus cornutus", "sprite": "sp-anchoviella_juruasanga.png", "group": "other", "rarity": 1}, {"lat": -35.7, "lng": 55.25, "id": "105435", "name": "Flaccisagitta hexaptera", "sprite": "sp-anchoviella_juruasanga.png", "group": "other", "rarity": 1}, {"lat": -35.4833, "lng": 54.1167, "id": "104597", "name": "Lucicutia flavicornis", "sprite": "sp-anchoviella_juruasanga.png", "group": "other", "rarity": 1}, {"lat": -34.8389, "lng": 54.5942, "id": "149045", "name": "Nitzschia", "sprite": "sp-anchoviella_juruasanga.png", "group": "other", "rarity": 1}, {"lat": -34.8167, "lng": 55.8333, "id": "410018", "name": "Macrochiridothea estuariae", "sprite": "sp-american_lobster.png", "group": "crab_lobster", "rarity": 1}, {"lat": -34.33, "lng": 54.217, "id": "113453", "name": "Globorotalia truncatulinoides", "sprite": "sp-anchoviella_juruasanga.png", "group": "other", "rarity": 1}, {"lat": -35.7944, "lng": 53.6889, "id": "1410", "name": "Foraminifera", "sprite": "sp-anchoviella_juruasanga.png", "group": "other", "rarity": 1}, {"lat": -34.8389, "lng": 54.5942, "id": "149488", "name": "Caloneis", "sprite": "sp-anchoviella_juruasanga.png", "group": "other", "rarity": 1}, {"lat": -35.7, "lng": 55.25, "id": "149668", "name": "Mysida", "sprite": "sp-american_lobster.png", "group": "crab_lobster", "rarity": 1}, {"lat": -34.7757, "lng": 54.6256, "id": "177604", "name": "Trichodesmium", "sprite": "sp-anchoviella_juruasanga.png", "group": "other", "rarity": 1}, {"lat": -35.6017, "lng": 54.0871, "id": "1135", "name": "Amphipoda", "sprite": "sp-american_lobster.png", "group": "crab_lobster", "rarity": 1}, {"lat": -34.8366, "lng": 54.5976, "id": "236595", "name": "Paraphronima", "sprite": "sp-american_lobster.png", "group": "crab_lobster", "rarity": 1}, {"lat": -35.3785, "lng": 54.2707, "id": "104193", "name": "Calocalanus", "sprite": "sp-anchoviella_juruasanga.png", "group": "other", "rarity": 1}, {"lat": -34.8366, "lng": 54.5976, "id": "129329", "name": "Pelagobia", "sprite": "sp-anchoviella_juruasanga.png", "group": "other", "rarity": 1}, {"lat": -35.45, "lng": 54.0587, "id": "363905", "name": "Delibus nudus", "sprite": "sp-anchoviella_juruasanga.png", "group": "other", "rarity": 1}, {"lat": -35.2683, "lng": 54.9238, "id": "104077", "name": "Augaptilidae", "sprite": "sp-anchoviella_juruasanga.png", "group": "other", "rarity": 1}, {"lat": -34.8366, "lng": 54.5976, "id": "127548", "name": "Mikroconchoecia", "sprite": "sp-anchoviella_juruasanga.png", "group": "other", "rarity": 1}, {"lat": -34.8366, "lng": 54.5976, "id": "346507", "name": "Goniopsyllus", "sprite": "sp-anchoviella_juruasanga.png", "group": "other", "rarity": 1}]}