{"zoom": 7, "x": 86, "y": 82, "points": [{"lat": -45.7287, "lng": 62.9569, "id": "212631", "name": "Phoebetria palpebrata", "sprite": "sp-anchoviella_juruasanga.png", "group": "other", "rarity": 1}, {"lat": -46.67, "lng": 64.0, "id": "138092", "name": "Janthina", "sprite": "sp-cowrie_shell.png", "group": "sea_snail", "rarity": 1}, {"lat": -46.67, "lng": 64.0, "id": "793", "name": "Platyhelminthes", "sprite": "sp-anchoviella_juruasanga.png", "group": "other", "rarity": 1}, {"lat": -46.67, "lng": 64.0, "id": "104902", "name": "Branchiostoma", "sprite": "sp-anchoviella_juruasanga.png", "group": "other", "rarity": 1}, {"lat": -46.67, "lng": 64.0, "id": "1762", "name": "Nudibranchia", "sprite": "sp-cowrie_shell.png", "group": "sea_snail", "rarity": 1}, {"lat": -46.67, "lng": 64.0, "id": "106794", "name": "Palinuridae", "sprite": "sp-american_lobster.png", "group": "crab_lobster", "rarity": 1}, {"lat": -46.67, "lng": 64.0, "id": "1803", "name": "Brachiopoda", "sprite": "sp-anchoviella_juruasanga.png", "group": "other", "rarity": 1}, {"lat": -46.67, "lng": 64.0, "id": "1806", "name": "Echinodermata", "sprite": "sp-sea_cucumber.png", "group": "starfish", "rarity": 1}, {"lat": -46.67, "lng": 64.0, "id": "14355", "name": "Stomatopoda", "sprite": "sp-american_lobster.png", "group": "crab_lobster", "rarity": 1}, {"lat": -46.67, "lng": 64.0, "id": "204105", "name": "Halobates", "sprite": "sp-anchoviella_juruasanga.png", "group": "other", "rarity": 1}, {"lat": -46.67, "lng": 64.0, "id": "2", "name": "Animalia", "sprite": "sp-anchoviella_juruasanga.png", "group": "other", "rarity": 1}, {"lat": -46.67, "lng": 64.0, "id": "1078", "name": "Ostracoda", "sprite": "sp-anchoviella_juruasanga.png", "group": "other", "rarity": 1}, {"lat": -46.67, "lng": 64.0, "id": "1648", "name": "Sipunculidae", "sprite": "sp-anchoviella_juruasanga.png", "group": "other", "rarity": 1}, {"lat": -46.67, "lng": 64.0, "id": "5", "name": "Protozoa", "sprite": "sp-anchoviella_juruasanga.png", "group": "other", "rarity": 1}, {"lat": -46.67, "lng": 64.0, "id": "152391", "name": "Nemertea", "sprite": "sp-anchoviella_juruasanga.png", "group": "other", "rarity": 1}, {"lat": -46.67, "lng": 64.0, "id": "2081", "name": "Chaetognatha", "sprite": "sp-anchoviella_juruasanga.png", "group": "other", "rarity": 1}, {"lat": -46.67, "lng": 64.0, "id": "558", "name": "Porifera", "sprite": "sp-barrel_sponge.png", "group": "sponge", "rarity": 1}, {"lat": -46.67, "lng": 64.0, "id": "137216", "name": "Pyrosomatidae", "sprite": "sp-anchoviella_juruasanga.png", "group": "other", "rarity": 1}, {"lat": -46.67, "lng": 64.0, "id": "135220", "name": "Scyphozoa", "sprite": "sp-box_jellyfish.png", "group": "jellyfish", "rarity": 1}, {"lat": -46.67, "lng": 64.0, "id": "146142", "name": "Bryozoa", "sprite": "sp-anchoviella_juruasanga.png", "group": "other", "rarity": 1}, {"lat": -46.67, "lng": 64.0, "id": "146420", "name": "Tunicata", "sprite": "sp-anchoviella_juruasanga.png", "group": "other", "rarity": 1}, {"lat": -46.67, "lng": 64.0, "id": "135382", "name": "Physalia", "sprite": "sp-anchoviella_juruasanga.png", "group": "other", "rarity": 1}, {"lat": -46.67, "lng": 64.0, "id": "1082", "name": "Cirripedia", "sprite": "sp-anchoviella_juruasanga.png", "group": "other", "rarity": 1}, {"lat": -46.67, "lng": 64.0, "id": "1337", "name": "Hydrozoa", "sprite": "sp-anchoviella_juruasanga.png", "group": "other", "rarity": 1}, {"lat": -46.67, "lng": 64.0, "id": "149668", "name": "Mysida", "sprite": "sp-american_lobster.png", "group": "crab_lobster", "rarity": 1}, {"lat": -46.67, "lng": 64.0, "id": "106731", "name": "Sergestidae", "sprite": "sp-american_lobster.png", "group": "crab_lobster", "rarity": 1}, {"lat": -46.67, "lng": 64.0, "id": "1135", "name": "Amphipoda", "sprite": "sp-american_lobster.png", "group": "crab_lobster", "rarity": 1}, {"lat": -46.67, "lng": 64.0, "id": "1248", "name": "Ctenophora", "sprite": "sp-anchoviella_juruasanga.png", "group": "other", "rarity": 1}, {"lat": -46.67, "lng": 64.0, "id": "1080", "name": "Copepoda", "sprite": "sp-anchoviella_juruasanga.png", "group": "other", "rarity": 1}, {"lat": -46.2026, "lng": 63.3533, "id": "231413", "name": "Mirounga leonina", "sprite": "sp-elephant_seal.png", "group": "seal", "rarity": 1}, {"lat": -46.67, "lng": 64.0, "id": "148378", "name": "Phoronidae", "sprite": "sp-anchoviella_juruasanga.png", "group": "other", "rarity": 1}, {"lat": -46.67, "lng": 64.0, "id": "155670", "name": "Diplostraca", "sprite": "sp-anchoviella_juruasanga.png", "group": "other", "rarity": 1}, {"lat": -46.67, "lng": 64.0, "id": "1137", "name": "Cumacea", "sprite": "sp-american_lobster.png", "group": "crab_lobster", "rarity": 1}, {"lat": -46.67, "lng": 64.0, "id": "1109", "name": "Rhizocephala", "sprite": "sp-anchoviella_juruasanga.png", "group": "other", "rarity": 1}, {"lat": -46.67, "lng": 64.0, "id": "799", "name": "Nematoda", "sprite": "sp-anchoviella_juruasanga.png", "group": "other", "rarity": 1}, {"lat": -46.67, "lng": 64.0, "id": "562626", "name": "Ellobiopsidae", "sprite": "sp-anchoviella_juruasanga.png", "group": "other", "rarity": 1}, {"lat": -45.6739, "lng": 63.6035, "id": "231404", "name": "Arctocephalus gazella", "sprite": "sp-elephant_seal.png", "group": "seal", "rarity": 1}, {"lat": -46.5083, "lng": 64.0014, "id": "343995", "name": "Thalassarche melanophris", "sprite": "sp-anchoviella_juruasanga.png", "group": "other", "rarity": 1}, {"lat": -46.67, "lng": 64.0, "id": "13703", "name": "Thecosomata", "sprite": "sp-cowrie_shell.png", "group": "sea_snail", "rarity": 1}, {"lat": -46.67, "lng": 64.0, "id": "101", "name": "Gastropoda", "sprite": "sp-cowrie_shell.png", "group": "sea_snail", "rarity": 1}, {"lat": -46.67, "lng": 64.0, "id": "14260", "name": "Rotifera", "sprite": "sp-anchoviella_juruasanga.png", "group": "other", "rarity": 1}, {"lat": -46.67, "lng": 64.0, "id": "387338", "name": "Pterotracheoidea", "sprite": "sp-cowrie_shell.png", "group": "sea_snail", "rarity": 1}, {"lat": -46.67, "lng": 64.0, "id": "1128", "name": "Euphausiacea", "sprite": "sp-antarctic_krill.png", "group": "shrimp", "rarity": 1}, {"lat": -46.67, "lng": 64.0, "id": "106671", "name": "Anomura", "sprite": "sp-american_lobster.png", "group": "crab_lobster", "rarity": 1}, {"lat": -46.67, "lng": 64.0, "id": "117199", "name": "Porpita", "sprite": "sp-anchoviella_juruasanga.png", "group": "other", "rarity": 1}, {"lat": -46.67, "lng": 64.0, "id": "958", "name": "Tomopteridae", "sprite": "sp-anchoviella_juruasanga.png", "group": "other", "rarity": 1}, {"lat": -46.67, "lng": 64.0, "id": "1371", "name": "Siphonophorae", "sprite": "sp-anchoviella_juruasanga.png", "group": "other", "rarity": 1}, {"lat": -46.67, "lng": 64.0, "id": "1051", "name": "Cestoda", "sprite": "sp-anchoviella_juruasanga.png", "group": "other", "rarity": 1}, {"lat": -46.67, "lng": 64.0, "id": "883", "name": "Polychaeta", "sprite": "sp-anchoviella_juruasanga.png", "group": "other", "rarity": 1}, {"lat": -46.67, "lng": 64.0, "id": "196151", "name": "Eryonidae", "sprite": "sp-american_lobster.png", "group": "crab_lobster", "rarity": 1}, {"lat": -46.67, "lng": 64.0, "id": "1292", "name": "Anthozoa", "sprite": "sp-actiniidae.png", "group": "coral", "rarity": 1}, {"lat": -46.67, "lng": 64.0, "id": "1100", "name": "Calanoida", "sprite": "sp-anchoviella_juruasanga.png", "group": "other", "rarity": 1}, {"lat": -46.67, "lng": 64.0, "id": "103353", "name": "Copelata", "sprite": "sp-anchoviella_juruasanga.png", "group": "other", "rarity": 1}, {"lat": -46.67, "lng": 64.0, "id": "117200", "name": "Velella", "sprite": "sp-anchoviella_juruasanga.png", "group": "other", "rarity": 1}, {"lat": -46.67, "lng": 64.0, "id": "1133", "name": "Tanaidacea", "sprite": "sp-american_lobster.png", "group": "crab_lobster", "rarity": 1}, {"lat": -46.67, "lng": 64.0, "id": "128595", "name": "Sapphirinidae", "sprite": "sp-anchoviella_juruasanga.png", "group": "other", "rarity": 1}, {"lat": -46.67, "lng": 64.0, "id": "22626", "name": "Thaliacea", "sprite": "sp-anchoviella_juruasanga.png", "group": "other", "rarity": 1}, {"lat": -46.67, "lng": 64.0, "id": "146996", "name": "Leptostraca", "sprite": "sp-american_lobster.png", "group": "crab_lobster", "rarity": 1}, {"lat": -46.67, "lng": 64.0, "id": "106673", "name": "Brachyura", "sprite": "sp-american_lobster.png", "group": "crab_lobster", "rarity": 1}, {"lat": -45.8873, "lng": 62.6543, "id": "212632", "name": "Phoebetria fusca", "sprite": "sp-anchoviella_juruasanga.png", "group": "other", "rarity": 1}, {"lat": -46.67, "lng": 64.0, "id": "178738", "name": "[unassigned] Enteropneusta", "sprite": "sp-anchoviella_juruasanga.png", "group": "other", "rarity": 1}, {"lat": -46.67, "lng": 64.0, "id": "1130", "name": "Decapoda", "sprite": "sp-american_lobster.png", "group": "crab_lobster", "rarity": 1}, {"lat": -46.67, "lng": 64.0, "id": "11676", "name": "Pisces", "sprite": "sp-anchoviella_juruasanga.png", "group": "other", "rarity": 1}, {"lat": -46.2039, "lng": 63.2608, "id": "212583", "name": "Diomedea exulans", "sprite": "sp-anchoviella_juruasanga.png", "group": "other", "rarity": 1}, {"lat": -46.67, "lng": 64.0, "id": "164", "name": "Gymnosomata", "sprite": "sp-cowrie_shell.png", "group": "sea_snail", "rarity": 1}, {"lat": -45.7322, "lng": 64.34, "id": "212642", "name": "Pterodroma lessonii", "sprite": "sp-anchoviella_juruasanga.png", "group": "other", "rarity": 1}, {"lat": -46.67, "lng": 64.0, "id": "1131", "name": "Isopoda", "sprite": "sp-american_lobster.png", "group": "crab_lobster", "rarity": 1}, {"lat": -46.67, "lng": 64.0, "id": "11707", "name": "Cephalopoda", "sprite": "sp-giant_pacific_octopus.png", "group": "octopus_squid", "rarity": 1}]}