{"zoom": 7, "x": 87, "y": 59, "points": [{"lat": 12.31, "lng": 65.4743, "id": "138092", "name": "Janthina", "sprite": "sp-cowrie_shell.png", "group": "sea_snail", "rarity": 1}, {"lat": 12.31, "lng": 65.4743, "id": "1131", "name": "Isopoda", "sprite": "sp-american_lobster.png", "group": "crab_lobster", "rarity": 1}, {"lat": 11.8, "lng": 65.0, "id": "275057", "name": "Chauliodus pammelas", "sprite": "sp-anchoviella_juruasanga.png", "group": "other", "rarity": 1, "waterType": "Saltwater"}, {"lat": 11.3956, "lng": 66.9973, "id": "417257", "name": "Parundella longa", "sprite": "sp-anchoviella_juruasanga.png", "group": "other", "rarity": 1}, {"lat": 12.09, "lng": 65.03, "id": "127779", "name": "Conchoecissa plinthina", "sprite": "sp-anchoviella_juruasanga.png", "group": "other", "rarity": 1}, {"lat": 11.9761, "lng": 67.0001, "id": "109528", "name": "Oxytoxum", "sprite": "sp-anchoviella_juruasanga.png", "group": "other", "rarity": 1}, {"lat": 11.9761, "lng": 67.0001, "id": "17640", "name": "Cryptomonadales", "sprite": "sp-anchoviella_juruasanga.png", "group": "other", "rarity": 1}, {"lat": 11.3956, "lng": 66.9973, "id": "157463", "name": "Dictyocha fibula", "sprite": "sp-anchoviella_juruasanga.png", "group": "other", "rarity": 1}, {"lat": 11.3956, "lng": 66.9973, "id": "415724", "name": "Ormosella", "sprite": "sp-anchoviella_juruasanga.png", "group": "other", "rarity": 1}, {"lat": 11.6858, "lng": 66.9987, "id": "109479", "name": "Torodinium", "sprite": "sp-anchoviella_juruasanga.png", "group": "other", "rarity": 1}, {"lat": 11.9761, "lng": 67.0001, "id": "235926", "name": "Calciosolenia murrayi", "sprite": "sp-anchoviella_juruasanga.png", "group": "other", "rarity": 1}, {"lat": 11.3956, "lng": 66.9973, "id": "417240", "name": "Proplectella claparedei", "sprite": "sp-anchoviella_juruasanga.png", "group": "other", "rarity": 1}, {"lat": 12.535, "lng": 65.06, "id": "176562", "name": "Orthoconchoecia striola", "sprite": "sp-anchoviella_juruasanga.png", "group": "other", "rarity": 1}, {"lat": 12.22, "lng": 65.64, "id": "137216", "name": "Pyrosomatidae", "sprite": "sp-anchoviella_juruasanga.png", "group": "other", "rarity": 1}, {"lat": 12.0691, "lng": 64.9979, "id": "172658", "name": "Sarcodina", "sprite": "sp-anchoviella_juruasanga.png", "group": "other", "rarity": 1}, {"lat": 11.6858, "lng": 66.9987, "id": "109394", "name": "Peridiniales", "sprite": "sp-anchoviella_juruasanga.png", "group": "other", "rarity": 1}, {"lat": 11.9333, "lng": 66.0, "id": "161473", "name": "Siriella gracilis", "sprite": "sp-american_lobster.png", "group": "crab_lobster", "rarity": 1}, {"lat": 11.9761, "lng": 67.0001, "id": "292728", "name": "Lioloma delicatulum", "sprite": "sp-anchoviella_juruasanga.png", "group": "other", "rarity": 1}, {"lat": 13.6, "lng": 65.05, "id": "104853", "name": "Spinocalanus magnus", "sprite": "sp-anchoviella_juruasanga.png", "group": "other", "rarity": 1}, {"lat": 12.0691, "lng": 64.9979, "id": "148899", "name": "Bacillariophyceae", "sprite": "sp-anchoviella_juruasanga.png", "group": "other", "rarity": 1}, {"lat": 12.4576, "lng": 66.2938, "id": "105410", "name": "Sagitta", "sprite": "sp-anchoviella_juruasanga.png", "group": "other", "rarity": 1}, {"lat": 12.6, "lng": 66.2166, "id": "1464945", "name": "Paracalanus aculeatus aculeatus", "sprite": "sp-anchoviella_juruasanga.png", "group": "other", "rarity": 1}, {"lat": 12.1, "lng": 65.0, "id": "219722", "name": "Longtail tuna", "thumb": "tn_Thton_u3.jpg", "sprite": "sp-bluefin_tuna.png", "group": "tuna_mackerel", "rarity": 1, "waterType": "Saltwater"}, {"lat": 11.3956, "lng": 66.9973, "id": "109888", "name": "Ptychodiscus noctiluca", "sprite": "sp-anchoviella_juruasanga.png", "group": "other", "rarity": 1}, {"lat": 13.6, "lng": 65.05, "id": "104843", "name": "Monacilla tenera", "sprite": "sp-anchoviella_juruasanga.png", "group": "other", "rarity": 1}, {"lat": 12.3571, "lng": 66.6737, "id": "105", "name": "Bivalvia", "sprite": "sp-blue_mussel.png", "group": "clam_mussel", "rarity": 1}, {"lat": 12.625, "lng": 65.9167, "id": "104669", "name": "Calocalanus pavo", "sprite": "sp-anchoviella_juruasanga.png", "group": "other", "rarity": 1}, {"lat": 11.9761, "lng": 67.0001, "id": "235979", "name": "Syracosphaera pulchra", "sprite": "sp-anchoviella_juruasanga.png", "group": "other", "rarity": 1}, {"lat": 11.9761, "lng": 67.0001, "id": "110257", "name": "Protoperidinium steinii", "sprite": "sp-anchoviella_juruasanga.png", "group": "other", "rarity": 1}, {"lat": 12.4145, "lng": 66.2561, "id": "101", "name": "Gastropoda", "sprite": "sp-cowrie_shell.png", "group": "sea_snail", "rarity": 1}, {"lat": 11.62, "lng": 65.53, "id": "127314", "name": "Diaphanous hatchet fish", "thumb": "tn_Stdia_u7.jpg", "sprite": "sp-anchoviella_juruasanga.png", "group": "other", "rarity": 1, "waterType": "Saltwater"}, {"lat": 11.9761, "lng": 67.0001, "id": "961694", "name": "Cerataulina bergonii", "sprite": "sp-anchoviella_juruasanga.png", "group": "other", "rarity": 1}, {"lat": 13.6, "lng": 65.05, "id": "104387", "name": "Euaugaptilus facilis", "sprite": "sp-anchoviella_juruasanga.png", "group": "other", "rarity": 1}, {"lat": 12.55, "lng": 66.4, "id": "128690", "name": "Oncaea", "sprite": "sp-anchoviella_juruasanga.png", "group": "other", "rarity": 1}, {"lat": 11.6858, "lng": 66.9987, "id": "978142", "name": "Pyxidicula compressa var. compressa", "sprite": "sp-anchoviella_juruasanga.png", "group": "other", "rarity": 1}, {"lat": 13.6, "lng": 65.05, "id": "104596", "name": "Lucicutia curta", "sprite": "sp-anchoviella_juruasanga.png", "group": "other", "rarity": 1}, {"lat": 11.3956, "lng": 66.9973, "id": "415082", "name": "Ascampbelliella", "sprite": "sp-anchoviella_juruasanga.png", "group": "other", "rarity": 1}, {"lat": 12.0517, "lng": 65.0889, "id": "148898", "name": "Bacillariophyta", "sprite": "sp-anchoviella_juruasanga.png", "group": "other", "rarity": 1}, {"lat": 12.31, "lng": 65.4743, "id": "1248", "name": "Ctenophora", "sprite": "sp-anchoviella_juruasanga.png", "group": "other", "rarity": 1}, {"lat": 11.3956, "lng": 66.9973, "id": "101185", "name": "Strobilidium", "sprite": "sp-anchoviella_juruasanga.png", "group": "other", "rarity": 1}, {"lat": 13.6, "lng": 65.05, "id": "104402", "name": "Euaugaptilus magnus", "sprite": "sp-anchoviella_juruasanga.png", "group": "other", "rarity": 1}, {"lat": 11.9761, "lng": 67.0001, "id": "341566", "name": "Nitzschia bicapitata", "sprite": "sp-anchoviella_juruasanga.png", "group": "other", "rarity": 1}, {"lat": 13.6, "lng": 65.05, "id": "104383", "name": "Euaugaptilus bullifer", "sprite": "sp-anchoviella_juruasanga.png", "group": "other", "rarity": 1}, {"lat": 11.9761, "lng": 67.0001, "id": "837234", "name": "Tripos ranipes", "sprite": "sp-anchoviella_juruasanga.png", "group": "other", "rarity": 1}, {"lat": 13.6, "lng": 65.05, "id": "104601", "name": "Lucicutia intermedia", "sprite": "sp-anchoviella_juruasanga.png", "group": "other", "rarity": 1}, {"lat": 12.09, "lng": 65.03, "id": "175693", "name": "Archiconchoecissa cucullata", "sprite": "sp-anchoviella_juruasanga.png", "group": "other", "rarity": 1}, {"lat": 11.3956, "lng": 66.9973, "id": "110300", "name": "Prorocentrum gracile", "sprite": "sp-anchoviella_juruasanga.png", "group": "other", "rarity": 1}, {"lat": 12.2725, "lng": 65.5433, "id": "1806", "name": "Echinodermata", "sprite": "sp-sea_cucumber.png", "group": "starfish", "rarity": 1}, {"lat": 11.3956, "lng": 66.9973, "id": "231793", "name": "Erythropsidinium", "sprite": "sp-anchoviella_juruasanga.png", "group": "other", "rarity": 1}, {"lat": 11.3956, "lng": 66.9973, "id": "183546", "name": "Steenstrupiella steenstrupii", "sprite": "sp-anchoviella_juruasanga.png", "group": "other", "rarity": 1}, {"lat": 12.5, "lng": 66.3636, "id": "138007", "name": "Fiona", "sprite": "sp-cowrie_shell.png", "group": "sea_snail", "rarity": 1}, {"lat": 11.9761, "lng": 67.0001, "id": "163249", "name": "Hemiaulus hauckii", "sprite": "sp-anchoviella_juruasanga.png", "group": "other", "rarity": 1}, {"lat": 11.9761, "lng": 67.0001, "id": "115104", "name": "Emiliania huxleyi", "sprite": "sp-anchoviella_juruasanga.png", "group": "other", "rarity": 1}, {"lat": 11.875, "lng": 65.775, "id": "146142", "name": "Bryozoa", "sprite": "sp-anchoviella_juruasanga.png", "group": "other", "rarity": 1}, {"lat": 13.6, "lng": 65.05, "id": "214452", "name": "Rhinomaxillaris bathybia", "sprite": "sp-anchoviella_juruasanga.png", "group": "other", "rarity": 1}, {"lat": 12.535, "lng": 65.06, "id": "127839", "name": "Paraconchoecia echinata", "sprite": "sp-anchoviella_juruasanga.png", "group": "other", "rarity": 1}, {"lat": 13.6, "lng": 65.05, "id": "254603", "name": "Paraheterorhabdus compactus", "sprite": "sp-anchoviella_juruasanga.png", "group": "other", "rarity": 1}, {"lat": 12.31, "lng": 65.4743, "id": "14355", "name": "Stomatopoda", "sprite": "sp-american_lobster.png", "group": "crab_lobster", "rarity": 1}, {"lat": 12.31, "lng": 65.4743, "id": "164", "name": "Gymnosomata", "sprite": "sp-cowrie_shell.png", "group": "sea_snail", "rarity": 1}, {"lat": 12.0767, "lng": 65.0067, "id": "127781", "name": "Discoconchoecia discophora", "sprite": "sp-anchoviella_juruasanga.png", "group": "other", "rarity": 1}, {"lat": 12.3248, "lng": 65.9168, "id": "1371", "name": "Siphonophorae", "sprite": "sp-anchoviella_juruasanga.png", "group": "other", "rarity": 1}, {"lat": 11.3956, "lng": 66.9973, "id": "101196", "name": "Tontonia", "sprite": "sp-anchoviella_juruasanga.png", "group": "other", "rarity": 1}, {"lat": 12.31, "lng": 65.4743, "id": "149668", "name": "Mysida", "sprite": "sp-american_lobster.png", "group": "crab_lobster", "rarity": 1}, {"lat": 12.31, "lng": 65.4743, "id": "1137", "name": "Cumacea", "sprite": "sp-american_lobster.png", "group": "crab_lobster", "rarity": 1}, {"lat": 13.6, "lng": 65.05, "id": "104629", "name": "Metridia discreta", "sprite": "sp-anchoviella_juruasanga.png", "group": "other", "rarity": 1}, {"lat": 12.07, "lng": 65.0067, "id": "127854", "name": "Porroecia porrecta", "sprite": "sp-anchoviella_juruasanga.png", "group": "other", "rarity": 1}, {"lat": 13.0, "lng": 66.6667, "id": "354637", "name": "Parvocalanus latus", "sprite": "sp-anchoviella_juruasanga.png", "group": "other", "rarity": 1}, {"lat": 12.5, "lng": 66.1666, "id": "104645", "name": "Acrocalanus gibber", "sprite": "sp-anchoviella_juruasanga.png", "group": "other", "rarity": 1}, {"lat": 11.9761, "lng": 67.0001, "id": "149106", "name": "Leptocylindrus danicus", "sprite": "sp-anchoviella_juruasanga.png", "group": "other", "rarity": 1}, {"lat": 13.6, "lng": 65.05, "id": "104393", "name": "Euaugaptilus grandicornis", "sprite": "sp-anchoviella_juruasanga.png", "group": "other", "rarity": 1}, {"lat": 11.9761, "lng": 67.0001, "id": "235952", "name": "Florisphaera profunda", "sprite": "sp-anchoviella_juruasanga.png", "group": "other", "rarity": 1}, {"lat": 11.3956, "lng": 66.9973, "id": "109553", "name": "Protoperidinium", "sprite": "sp-anchoviella_juruasanga.png", "group": "other", "rarity": 1}, {"lat": 11.3956, "lng": 66.9973, "id": "586732", "name": "Acantharia", "sprite": "sp-anchoviella_juruasanga.png", "group": "other", "rarity": 1}, {"lat": 11.9761, "lng": 67.0001, "id": "196811", "name": "Rhizosolenia bergonii", "sprite": "sp-anchoviella_juruasanga.png", "group": "other", "rarity": 1}, {"lat": 12.072, "lng": 65.002, "id": "127746", "name": "Archiconchoecia striata", "sprite": "sp-anchoviella_juruasanga.png", "group": "other", "rarity": 1}, {"lat": 12.31, "lng": 65.4743, "id": "1100", "name": "Calanoida", "sprite": "sp-anchoviella_juruasanga.png", "group": "other", "rarity": 1}, {"lat": 11.9761, "lng": 67.0001, "id": "115059", "name": "Coccosphaerales", "sprite": "sp-anchoviella_juruasanga.png", "group": "other", "rarity": 1}, {"lat": 12.535, "lng": 65.06, "id": "1268", "name": "Sipuncula", "sprite": "sp-anchoviella_juruasanga.png", "group": "other", "rarity": 1}, {"lat": 12.535, "lng": 65.06, "id": "450886", "name": "Cypridina dentata", "sprite": "sp-anchoviella_juruasanga.png", "group": "other", "rarity": 1}, {"lat": 11.3956, "lng": 66.9973, "id": "109624", "name": "Dinophysis fortii", "sprite": "sp-anchoviella_juruasanga.png", "group": "other", "rarity": 1}, {"lat": 12.2725, "lng": 65.5433, "id": "5", "name": "Protozoa", "sprite": "sp-anchoviella_juruasanga.png", "group": "other", "rarity": 1}, {"lat": 12.6667, "lng": 66.2222, "id": "104469", "name": "Nannocalanus minor", "sprite": "sp-anchoviella_juruasanga.png", "group": "other", "rarity": 1}, {"lat": 12.4448, "lng": 66.315, "id": "1461626", "name": "Clausocalanus arcuicornis arcuicornis", "sprite": "sp-anchoviella_juruasanga.png", "group": "other", "rarity": 1}, {"lat": 12.6552, "lng": 66.4598, "id": "103367", "name": "Oikopleura", "sprite": "sp-anchoviella_juruasanga.png", "group": "other", "rarity": 1}, {"lat": 12.3867, "lng": 65.05, "id": "127773", "name": "Conchoecia magna", "sprite": "sp-anchoviella_juruasanga.png", "group": "other", "rarity": 1}, {"lat": 12.446, "lng": 65.054, "id": "127862", "name": "Pseudoconchoecia concentrica", "sprite": "sp-anchoviella_juruasanga.png", "group": "other", "rarity": 1}, {"lat": 12.31, "lng": 65.4743, "id": "958", "name": "Tomopteridae", "sprite": "sp-anchoviella_juruasanga.png", "group": "other", "rarity": 1}, {"lat": 11.3956, "lng": 66.9973, "id": "109487", "name": "Pronoctiluca", "sprite": "sp-anchoviella_juruasanga.png", "group": "other", "rarity": 1}, {"lat": 11.9761, "lng": 67.0001, "id": "235802", "name": "Acanthoica quattrospina", "sprite": "sp-anchoviella_juruasanga.png", "group": "other", "rarity": 1}, {"lat": 11.3956, "lng": 66.9973, "id": "149152", "name": "Pseudo-nitzschia seriata", "sprite": "sp-anchoviella_juruasanga.png", "group": "other", "rarity": 1}, {"lat": 12.4247, "lng": 65.0771, "id": "160572", "name": "Synechococcus", "sprite": "sp-anchoviella_juruasanga.png", "group": "other", "rarity": 1}, {"lat": 11.9761, "lng": 67.0001, "id": "555889", "name": "Calciosolenia brasiliensis", "sprite": "sp-anchoviella_juruasanga.png", "group": "other", "rarity": 1}, {"lat": 12.2778, "lng": 65.0278, "id": "127769", "name": "Conchoecetta giesbrechti", "sprite": "sp-anchoviella_juruasanga.png", "group": "other", "rarity": 1}, {"lat": 11.3956, "lng": 66.9973, "id": "109476", "name": "Gyrodinium", "sprite": "sp-anchoviella_juruasanga.png", "group": "other", "rarity": 1}, {"lat": 11.9761, "lng": 67.0001, "id": "178221", "name": "Chaetoceros atlanticus var. neapolitanus", "sprite": "sp-anchoviella_juruasanga.png", "group": "other", "rarity": 1}, {"lat": 11.9761, "lng": 67.0001, "id": "235923", "name": "Calcidiscus leptoporus", "sprite": "sp-anchoviella_juruasanga.png", "group": "other", "rarity": 1}, {"lat": 12.4713, "lng": 65.4275, "id": "11707", "name": "Cephalopoda", "sprite": "sp-giant_pacific_octopus.png", "group": "octopus_squid", "rarity": 1}, {"lat": 12.535, "lng": 65.06, "id": "127845", "name": "Paraconchoecia oblonga", "sprite": "sp-anchoviella_juruasanga.png", "group": "other", "rarity": 1}, {"lat": 12.4286, "lng": 66.2857, "id": "1410", "name": "Foraminifera", "sprite": "sp-anchoviella_juruasanga.png", "group": "other", "rarity": 1}, {"lat": 13.6, "lng": 65.05, "id": "104602", "name": "Lucicutia longicornis", "sprite": "sp-anchoviella_juruasanga.png", "group": "other", "rarity": 1}, {"lat": 11.9761, "lng": 67.0001, "id": "149241", "name": "Chaetoceros affinis", "sprite": "sp-anchoviella_juruasanga.png", "group": "other", "rarity": 1}, {"lat": 11.6858, "lng": 66.9987, "id": "109474", "name": "Cochlodinium", "sprite": "sp-anchoviella_juruasanga.png", "group": "other", "rarity": 1}, {"lat": 13.0, "lng": 66.0, "id": "347746", "name": "Parvocalanus", "sprite": "sp-anchoviella_juruasanga.png", "group": "other", "rarity": 1}, {"lat": 12.22, "lng": 65.64, "id": "799", "name": "Nematoda", "sprite": "sp-anchoviella_juruasanga.png", "group": "other", "rarity": 1}, {"lat": 12.535, "lng": 65.06, "id": "105429", "name": "Krohnitta subtilis", "sprite": "sp-anchoviella_juruasanga.png", "group": "other", "rarity": 1}, {"lat": 12.22, "lng": 65.64, "id": "1051", "name": "Cestoda", "sprite": "sp-anchoviella_juruasanga.png", "group": "other", "rarity": 1}, {"lat": 13.6, "lng": 65.05, "id": "104576", "name": "Heterorhabdus abyssalis", "sprite": "sp-anchoviella_juruasanga.png", "group": "other", "rarity": 1}, {"lat": 11.9761, "lng": 67.0001, "id": "149181", "name": "Pleurosigma", "sprite": "sp-anchoviella_juruasanga.png", "group": "other", "rarity": 1}, {"lat": 12.22, "lng": 65.64, "id": "1109", "name": "Rhizocephala", "sprite": "sp-anchoviella_juruasanga.png", "group": "other", "rarity": 1}, {"lat": 12.535, "lng": 65.06, "id": "266884", "name": "Zonosagitta bedoti", "sprite": "sp-anchoviella_juruasanga.png", "group": "other", "rarity": 1}, {"lat": 12.535, "lng": 65.06, "id": "127813", "name": "Metaconchoecia rotundata", "sprite": "sp-anchoviella_juruasanga.png", "group": "other", "rarity": 1}, {"lat": 12.31, "lng": 65.4743, "id": "387338", "name": "Pterotracheoidea", "sprite": "sp-cowrie_shell.png", "group": "sea_snail", "rarity": 1}, {"lat": 12.4713, "lng": 65.4275, "id": "2081", "name": "Chaetognatha", "sprite": "sp-anchoviella_juruasanga.png", "group": "other", "rarity": 1}, {"lat": 11.3956, "lng": 66.9973, "id": "232425", "name": "Ornithocercus formosus", "sprite": "sp-anchoviella_juruasanga.png", "group": "other", "rarity": 1}, {"lat": 12.0, "lng": 67.3333, "id": "104879", "name": "Temora stylifera", "sprite": "sp-anchoviella_juruasanga.png", "group": "other", "rarity": 1}, {"lat": 11.9761, "lng": 67.0001, "id": "232716", "name": "Gymnodinium aureolum", "sprite": "sp-anchoviella_juruasanga.png", "group": "other", "rarity": 1}, {"lat": 12.09, "lng": 65.03, "id": "127823", "name": "Mikroconchoecia stigmatica", "sprite": "sp-anchoviella_juruasanga.png", "group": "other", "rarity": 1}, {"lat": 11.9761, "lng": 67.0001, "id": "562574", "name": "Bodonida", "sprite": "sp-anchoviella_juruasanga.png", "group": "other", "rarity": 1}, {"lat": 12.3788, "lng": 65.9541, "id": "1080", "name": "Copepoda", "sprite": "sp-anchoviella_juruasanga.png", "group": "other", "rarity": 1}, {"lat": 11.9761, "lng": 67.0001, "id": "149292", "name": "Chaetoceros anastomosans", "sprite": "sp-anchoviella_juruasanga.png", "group": "other", "rarity": 1}]}