{"zoom": 7, "x": 87, "y": 77, "points": [{"lat": -35.5297, "lng": 66.0484, "id": "343995", "name": "Thalassarche melanophris", "sprite": "sp-anchoviella_juruasanga.png", "group": "other", "rarity": 1}, {"lat": -35.1389, "lng": 67.2167, "id": "212651", "name": "Procellaria aequinoctialis", "sprite": "sp-anchoviella_juruasanga.png", "group": "other", "rarity": 1}, {"lat": -35.3363, "lng": 65.6352, "id": "220222", "name": "Eubalaena australis", "sprite": "sp-blue_whale.png", "group": "whale", "rarity": 1}, {"lat": -35.3583, "lng": 66.375, "id": "135485", "name": "Agalma okenii", "sprite": "sp-anchoviella_juruasanga.png", "group": "other", "rarity": 1}, {"lat": -35.4473, "lng": 66.2301, "id": "212632", "name": "Phoebetria fusca", "sprite": "sp-anchoviella_juruasanga.png", "group": "other", "rarity": 1}, {"lat": -34.3083, "lng": 66.81, "id": "344701", "name": "Neocalanus tonsus", "sprite": "sp-anchoviella_juruasanga.png", "group": "other", "rarity": 1}, {"lat": -34.3083, "lng": 66.81, "id": "120216", "name": "Siriella thompsonii", "sprite": "sp-american_lobster.png", "group": "crab_lobster", "rarity": 1}, {"lat": -34.3083, "lng": 66.81, "id": "131581", "name": "Travisiopsis lobifera", "sprite": "sp-anchoviella_juruasanga.png", "group": "other", "rarity": 1}, {"lat": -34.3083, "lng": 66.81, "id": "209715", "name": "Vanadis minuta", "sprite": "sp-anchoviella_juruasanga.png", "group": "other", "rarity": 1}, {"lat": -35.3829, "lng": 66.3781, "id": "137119", "name": "Physeter macrocephalus", "sprite": "sp-blue_whale.png", "group": "whale", "rarity": 1}, {"lat": -35.6182, "lng": 66.0954, "id": "212583", "name": "Diomedea exulans", "sprite": "sp-anchoviella_juruasanga.png", "group": "other", "rarity": 1}, {"lat": -34.3083, "lng": 66.81, "id": "131562", "name": "Tomopteris nisseni", "sprite": "sp-anchoviella_juruasanga.png", "group": "other", "rarity": 1}, {"lat": -34.3083, "lng": 66.81, "id": "131582", "name": "Typhloscolex muelleri", "sprite": "sp-anchoviella_juruasanga.png", "group": "other", "rarity": 1}, {"lat": -34.3083, "lng": 66.81, "id": "129749", "name": "Alciopa reynaudii", "sprite": "sp-anchoviella_juruasanga.png", "group": "other", "rarity": 1}]}