{"zoom": 7, "x": 87, "y": 79, "points": [{"lat": -39.9613, "lng": 66.0257, "id": "212583", "name": "Diomedea exulans", "sprite": "sp-anchoviella_juruasanga.png", "group": "other", "rarity": 1}, {"lat": -40.8, "lng": 65.05, "id": "345828", "name": "Lucicutia bradyana", "sprite": "sp-anchoviella_juruasanga.png", "group": "other", "rarity": 1}, {"lat": -40.8, "lng": 65.05, "id": "221297", "name": "Pseudochirella hirsuta", "sprite": "sp-anchoviella_juruasanga.png", "group": "other", "rarity": 1}, {"lat": -40.8, "lng": 65.05, "id": "104335", "name": "Pseudochirella obtusa", "sprite": "sp-anchoviella_juruasanga.png", "group": "other", "rarity": 1}, {"lat": -40.825, "lng": 64.933, "id": "119931", "name": "Neognathophausia gigas", "sprite": "sp-american_lobster.png", "group": "crab_lobster", "rarity": 1}, {"lat": -40.8, "lng": 65.05, "id": "359879", "name": "Paraeuchaeta tonsa", "sprite": "sp-anchoviella_juruasanga.png", "group": "other", "rarity": 1}, {"lat": -40.8, "lng": 65.05, "id": "221290", "name": "Gaetanus kruppii", "sprite": "sp-anchoviella_juruasanga.png", "group": "other", "rarity": 1}, {"lat": -40.8, "lng": 65.05, "id": "341870", "name": "Histioteuthis macrohista", "sprite": "sp-giant_pacific_octopus.png", "group": "octopus_squid", "rarity": 1}, {"lat": -40.8, "lng": 65.05, "id": "345865", "name": "Paraeuchaeta malayensis", "sprite": "sp-anchoviella_juruasanga.png", "group": "other", "rarity": 1}, {"lat": -40.8, "lng": 65.05, "id": "104615", "name": "Lucicutia wolfendeni", "sprite": "sp-anchoviella_juruasanga.png", "group": "other", "rarity": 1}, {"lat": -40.825, "lng": 64.933, "id": "220999", "name": "Neognathophausia ingens", "sprite": "sp-american_lobster.png", "group": "crab_lobster", "rarity": 1}, {"lat": -40.9, "lng": 64.8, "id": "125514", "name": "Platytroctidae", "sprite": "sp-anchoviella_juruasanga.png", "group": "other", "rarity": 1}, {"lat": -40.9, "lng": 64.8, "id": "281925", "name": "Obese dragonfish", "thumb": "tn_Opmic_u0.gif", "sprite": "sp-anchoviella_juruasanga.png", "group": "other", "rarity": 1, "waterType": "Saltwater"}, {"lat": -40.9227, "lng": 65.6628, "id": "137199", "name": "Pterodroma mollis", "sprite": "sp-anchoviella_juruasanga.png", "group": "other", "rarity": 1}, {"lat": -40.8, "lng": 65.05, "id": "220837", "name": "Rhincalanus gigas", "sprite": "sp-anchoviella_juruasanga.png", "group": "other", "rarity": 1}, {"lat": -40.8, "lng": 65.05, "id": "104635", "name": "Metridia princeps", "sprite": "sp-anchoviella_juruasanga.png", "group": "other", "rarity": 1}, {"lat": -40.9, "lng": 64.8, "id": "127338", "name": "Sloane's viperfish", "thumb": "tn_Chslo_u5.jpg", "sprite": "sp-anchoviella_juruasanga.png", "group": "other", "rarity": 1, "waterType": "Saltwater"}, {"lat": -40.5996, "lng": 65.2489, "id": "225760", "name": "Thalassarche chrysostoma", "sprite": "sp-anchoviella_juruasanga.png", "group": "other", "rarity": 1}, {"lat": -40.8, "lng": 65.05, "id": "359846", "name": "Paraeuchaeta californica", "sprite": "sp-anchoviella_juruasanga.png", "group": "other", "rarity": 1}, {"lat": -40.8375, "lng": 64.9293, "id": "137222", "name": "Doliolum", "sprite": "sp-anchoviella_juruasanga.png", "group": "other", "rarity": 1}, {"lat": -40.8, "lng": 65.1, "id": "274941", "name": "Southern bigscale", "sprite": "sp-anchoviella_juruasanga.png", "group": "other", "rarity": 1, "waterType": "Saltwater"}, {"lat": -40.8, "lng": 65.1, "id": "282630", "name": "Stout cardinalfish", "thumb": "tn_Rorob_u0.jpg", "sprite": "sp-anchoviella_juruasanga.png", "group": "other", "rarity": 1, "waterType": "Saltwater"}, {"lat": -40.8642, "lng": 65.6006, "id": "212651", "name": "Procellaria aequinoctialis", "sprite": "sp-anchoviella_juruasanga.png", "group": "other", "rarity": 1}, {"lat": -40.8, "lng": 65.05, "id": "104344", "name": "Valdiviella insignis", "sprite": "sp-anchoviella_juruasanga.png", "group": "other", "rarity": 1}, {"lat": -40.2997, "lng": 66.4253, "id": "212631", "name": "Phoebetria palpebrata", "sprite": "sp-anchoviella_juruasanga.png", "group": "other", "rarity": 1}, {"lat": -40.825, "lng": 64.9334, "id": "126187", "name": "Cyclothone", "sprite": "sp-anchoviella_juruasanga.png", "group": "other", "rarity": 1}, {"lat": -40.86, "lng": 65.5965, "id": "159069", "name": "Thalassarche chlororhynchos", "sprite": "sp-anchoviella_juruasanga.png", "group": "other", "rarity": 1}, {"lat": -40.025, "lng": 66.1059, "id": "212632", "name": "Phoebetria fusca", "sprite": "sp-anchoviella_juruasanga.png", "group": "other", "rarity": 1}, {"lat": -40.8, "lng": 65.05, "id": "104831", "name": "Scottocalanus helenae", "sprite": "sp-anchoviella_juruasanga.png", "group": "other", "rarity": 1}, {"lat": -40.8, "lng": 65.05, "id": "346280", "name": "Chirundinella magna", "sprite": "sp-anchoviella_juruasanga.png", "group": "other", "rarity": 1}, {"lat": -40.9, "lng": 64.8, "id": "127374", "name": "Boa dragonfish", "thumb": "tn_Stboa_u1.jpg", "sprite": "sp-anchoviella_juruasanga.png", "group": "other", "rarity": 1, "waterType": "Saltwater"}, {"lat": -40.9, "lng": 64.8, "id": "127334", "name": "Snaggletooth", "thumb": "tn_Boant_u3.jpg", "sprite": "sp-anchoviella_juruasanga.png", "group": "other", "rarity": 1, "waterType": "Saltwater"}, {"lat": -40.0025, "lng": 66.181, "id": "212642", "name": "Pterodroma lessonii", "sprite": "sp-anchoviella_juruasanga.png", "group": "other", "rarity": 1}, {"lat": -40.8, "lng": 65.05, "id": "104406", "name": "Euaugaptilus nodifrons", "sprite": "sp-anchoviella_juruasanga.png", "group": "other", "rarity": 1}, {"lat": -40.8, "lng": 65.05, "id": "345860", "name": "Paraeuchaeta calva", "sprite": "sp-anchoviella_juruasanga.png", "group": "other", "rarity": 1}, {"lat": -40.8, "lng": 65.05, "id": "1507271", "name": "Paraeuchaeta barbata barbata", "sprite": "sp-anchoviella_juruasanga.png", "group": "other", "rarity": 1}, {"lat": -40.825, "lng": 64.933, "id": "119921", "name": "Eucopia unguiculata", "sprite": "sp-american_lobster.png", "group": "crab_lobster", "rarity": 1}, {"lat": -39.4238, "lng": 65.5252, "id": "220222", "name": "Eubalaena australis", "sprite": "sp-blue_whale.png", "group": "whale", "rarity": 1}, {"lat": -40.825, "lng": 64.933, "id": "104353", "name": "Arietellus simplex", "sprite": "sp-anchoviella_juruasanga.png", "group": "other", "rarity": 1}, {"lat": -39.8759, "lng": 66.1009, "id": "343995", "name": "Thalassarche melanophris", "sprite": "sp-anchoviella_juruasanga.png", "group": "other", "rarity": 1}, {"lat": -40.8, "lng": 65.0, "id": "126740", "name": "Bigeye searsid", "thumb": "tn_Homac_u0.gif", "sprite": "sp-anchoviella_juruasanga.png", "group": "other", "rarity": 1, "waterType": "Saltwater"}]}