{"zoom": 7, "x": 87, "y": 81, "points": [{"lat": -44.4773, "lng": 66.4985, "id": "212637", "name": "Macronectes halli", "sprite": "sp-anchoviella_juruasanga.png", "group": "other", "rarity": 1}, {"lat": -44.4013, "lng": 65.1338, "id": "412912", "name": "Anomalacantha dentata", "sprite": "sp-anchoviella_juruasanga.png", "group": "other", "rarity": 1}, {"lat": -44.4013, "lng": 65.1338, "id": "413064", "name": "Siphonosphaera socialis", "sprite": "sp-anchoviella_juruasanga.png", "group": "other", "rarity": 1}, {"lat": -44.4013, "lng": 65.1338, "id": "412949", "name": "Spongotrochus glacialis", "sprite": "sp-anchoviella_juruasanga.png", "group": "other", "rarity": 1}, {"lat": -43.2977, "lng": 66.9237, "id": "204680", "name": "Pachyptila", "sprite": "sp-anchoviella_juruasanga.png", "group": "other", "rarity": 1}, {"lat": -44.4013, "lng": 65.1338, "id": "549437", "name": "Acrosphaera arktios", "sprite": "sp-anchoviella_juruasanga.png", "group": "other", "rarity": 1}, {"lat": -44.4013, "lng": 65.1338, "id": "493630", "name": "Cycladophora bicornis", "sprite": "sp-anchoviella_juruasanga.png", "group": "other", "rarity": 1}, {"lat": -44.4013, "lng": 65.1338, "id": "409638", "name": "Siphocampe arachnea", "sprite": "sp-anchoviella_juruasanga.png", "group": "other", "rarity": 1}, {"lat": -44.4013, "lng": 65.1338, "id": "493453", "name": "Saccospyris antarctica", "sprite": "sp-anchoviella_juruasanga.png", "group": "other", "rarity": 1}, {"lat": -44.4013, "lng": 65.1338, "id": "549586", "name": "Dictyocoryne euclidis", "sprite": "sp-anchoviella_juruasanga.png", "group": "other", "rarity": 1}, {"lat": -44.4013, "lng": 65.1338, "id": "493595", "name": "Phorticium clevei", "sprite": "sp-anchoviella_juruasanga.png", "group": "other", "rarity": 1}, {"lat": -44.4013, "lng": 65.1338, "id": "413068", "name": "Stylodictya tenuispina", "sprite": "sp-anchoviella_juruasanga.png", "group": "other", "rarity": 1}, {"lat": -44.2258, "lng": 66.7326, "id": "137199", "name": "Pterodroma mollis", "sprite": "sp-anchoviella_juruasanga.png", "group": "other", "rarity": 1}, {"lat": -44.4013, "lng": 65.1338, "id": "412909", "name": "Actinomma medianum", "sprite": "sp-anchoviella_juruasanga.png", "group": "other", "rarity": 1}, {"lat": -44.4013, "lng": 65.1338, "id": "412907", "name": "Actinomma antarcticum", "sprite": "sp-anchoviella_juruasanga.png", "group": "other", "rarity": 1}, {"lat": -44.111, "lng": 66.1621, "id": "212583", "name": "Diomedea exulans", "sprite": "sp-anchoviella_juruasanga.png", "group": "other", "rarity": 1}, {"lat": -44.1606, "lng": 66.5364, "id": "231413", "name": "Mirounga leonina", "sprite": "sp-elephant_seal.png", "group": "seal", "rarity": 1}, {"lat": -43.875, "lng": 67.2377, "id": "136998", "name": "Procellariidae", "sprite": "sp-anchoviella_juruasanga.png", "group": "other", "rarity": 1}, {"lat": -44.4013, "lng": 65.1338, "id": "493475", "name": "Acrosphaera spinosa", "sprite": "sp-anchoviella_juruasanga.png", "group": "other", "rarity": 1}, {"lat": -44.4013, "lng": 65.1338, "id": "549594", "name": "Pterocanium charybdeum", "sprite": "sp-anchoviella_juruasanga.png", "group": "other", "rarity": 1}, {"lat": -44.4013, "lng": 65.1338, "id": "413063", "name": "Hexapyle dodecantha", "sprite": "sp-anchoviella_juruasanga.png", "group": "other", "rarity": 1}, {"lat": -44.4013, "lng": 65.1338, "id": "493358", "name": "Hexastylus", "sprite": "sp-anchoviella_juruasanga.png", "group": "other", "rarity": 1}, {"lat": -44.4013, "lng": 65.1338, "id": "413029", "name": "Theocorythium trachelium", "sprite": "sp-anchoviella_juruasanga.png", "group": "other", "rarity": 1}, {"lat": -43.8648, "lng": 65.577, "id": "212632", "name": "Phoebetria fusca", "sprite": "sp-anchoviella_juruasanga.png", "group": "other", "rarity": 1}, {"lat": -44.7917, "lng": 66.2083, "id": "212640", "name": "Daption capense", "sprite": "sp-anchoviella_juruasanga.png", "group": "other", "rarity": 1}, {"lat": -44.4013, "lng": 65.1338, "id": "413098", "name": "Actinomma trinacria", "sprite": "sp-anchoviella_juruasanga.png", "group": "other", "rarity": 1}, {"lat": -44.4013, "lng": 65.1338, "id": "393203", "name": "Actinomma", "sprite": "sp-anchoviella_juruasanga.png", "group": "other", "rarity": 1}, {"lat": -44.4013, "lng": 65.1338, "id": "413058", "name": "Actinomma sol", "sprite": "sp-anchoviella_juruasanga.png", "group": "other", "rarity": 1}, {"lat": -43.905, "lng": 64.838, "id": "344007", "name": "Pelecanoides urinatrix", "sprite": "sp-anchoviella_juruasanga.png", "group": "other", "rarity": 1}, {"lat": -44.8467, "lng": 66.1567, "id": "212696", "name": "Fregetta tropica", "sprite": "sp-anchoviella_juruasanga.png", "group": "other", "rarity": 1}, {"lat": -44.4013, "lng": 65.1338, "id": "413007", "name": "Eucyrtidium acuminatum", "sprite": "sp-anchoviella_juruasanga.png", "group": "other", "rarity": 1}, {"lat": -44.4013, "lng": 65.1338, "id": "412968", "name": "Antarctissa denticulata", "sprite": "sp-anchoviella_juruasanga.png", "group": "other", "rarity": 1}, {"lat": -44.4013, "lng": 65.1338, "id": "413057", "name": "Actinomma delicatulum", "sprite": "sp-anchoviella_juruasanga.png", "group": "other", "rarity": 1}, {"lat": -44.0461, "lng": 66.3293, "id": "225760", "name": "Thalassarche chrysostoma", "sprite": "sp-anchoviella_juruasanga.png", "group": "other", "rarity": 1}, {"lat": -44.4013, "lng": 65.1338, "id": "412969", "name": "Antarctissa strelkovi", "sprite": "sp-anchoviella_juruasanga.png", "group": "other", "rarity": 1}, {"lat": -44.4013, "lng": 65.1338, "id": "493446", "name": "Botryocephalina armata", "sprite": "sp-anchoviella_juruasanga.png", "group": "other", "rarity": 1}, {"lat": -44.6402, "lng": 66.7174, "id": "212642", "name": "Pterodroma lessonii", "sprite": "sp-anchoviella_juruasanga.png", "group": "other", "rarity": 1}, {"lat": -44.4013, "lng": 65.1338, "id": "412928", "name": "Heliodiscus asteriscus", "sprite": "sp-anchoviella_juruasanga.png", "group": "other", "rarity": 1}, {"lat": -44.4013, "lng": 65.1338, "id": "385312", "name": "Lithelius minor", "sprite": "sp-anchoviella_juruasanga.png", "group": "other", "rarity": 1}, {"lat": -44.4013, "lng": 65.1338, "id": "493648", "name": "Gondwanaria dogieli", "sprite": "sp-anchoviella_juruasanga.png", "group": "other", "rarity": 1}, {"lat": -44.9071, "lng": 66.1595, "id": "212652", "name": "Procellaria cinerea", "sprite": "sp-anchoviella_juruasanga.png", "group": "other", "rarity": 1}, {"lat": -44.4013, "lng": 65.1338, "id": "412947", "name": "Spongopyle osculosa", "sprite": "sp-anchoviella_juruasanga.png", "group": "other", "rarity": 1}, {"lat": -44.4013, "lng": 65.1338, "id": "413047", "name": "Actinomma boreale", "sprite": "sp-anchoviella_juruasanga.png", "group": "other", "rarity": 1}, {"lat": -44.4013, "lng": 65.1338, "id": "493586", "name": "Lamprocyclas hannai", "sprite": "sp-anchoviella_juruasanga.png", "group": "other", "rarity": 1}, {"lat": -44.4013, "lng": 65.1338, "id": "412913", "name": "Cenosphaera", "sprite": "sp-anchoviella_juruasanga.png", "group": "other", "rarity": 1}, {"lat": -44.4013, "lng": 65.1338, "id": "493444", "name": "Botryocampe inflata", "sprite": "sp-anchoviella_juruasanga.png", "group": "other", "rarity": 1}, {"lat": -44.4013, "lng": 65.1338, "id": "412959", "name": "Larcopyle buetschlii", "sprite": "sp-anchoviella_juruasanga.png", "group": "other", "rarity": 1}, {"lat": -44.4013, "lng": 65.1338, "id": "493468", "name": "Didymocyrtis tetrathalamus", "sprite": "sp-anchoviella_juruasanga.png", "group": "other", "rarity": 1}, {"lat": -44.4013, "lng": 65.1338, "id": "413067", "name": "Stylochlamydium venustum", "sprite": "sp-anchoviella_juruasanga.png", "group": "other", "rarity": 1}, {"lat": -44.4013, "lng": 65.1338, "id": "367325", "name": "Spongurus pylomaticus", "sprite": "sp-anchoviella_juruasanga.png", "group": "other", "rarity": 1}, {"lat": -44.8722, "lng": 66.3556, "id": "212636", "name": "Macronectes giganteus", "sprite": "sp-anchoviella_juruasanga.png", "group": "other", "rarity": 1}, {"lat": -44.9333, "lng": 65.8333, "id": "344020", "name": "Aphrodroma brevirostris", "sprite": "sp-anchoviella_juruasanga.png", "group": "other", "rarity": 1}, {"lat": -43.9378, "lng": 65.5812, "id": "212631", "name": "Phoebetria palpebrata", "sprite": "sp-anchoviella_juruasanga.png", "group": "other", "rarity": 1}, {"lat": -44.4013, "lng": 65.1338, "id": "493523", "name": "Ceratocyrtis histricosa", "sprite": "sp-anchoviella_juruasanga.png", "group": "other", "rarity": 1}, {"lat": -43.758, "lng": 67.175, "id": "159069", "name": "Thalassarche chlororhynchos", "sprite": "sp-anchoviella_juruasanga.png", "group": "other", "rarity": 1}, {"lat": -44.1571, "lng": 66.2052, "id": "343995", "name": "Thalassarche melanophris", "sprite": "sp-anchoviella_juruasanga.png", "group": "other", "rarity": 1}, {"lat": -43.8205, "lng": 67.2085, "id": "212700", "name": "Pelagodroma marina", "sprite": "sp-anchoviella_juruasanga.png", "group": "other", "rarity": 1}, {"lat": -44.4013, "lng": 65.1338, "id": "391896", "name": "Dictyophimus", "sprite": "sp-anchoviella_juruasanga.png", "group": "other", "rarity": 1}, {"lat": -44.4013, "lng": 65.1338, "id": "412985", "name": "Carpocanistrum", "sprite": "sp-anchoviella_juruasanga.png", "group": "other", "rarity": 1}, {"lat": -44.4013, "lng": 65.1338, "id": "235746", "name": "Lithomelissa thoracites", "sprite": "sp-anchoviella_juruasanga.png", "group": "other", "rarity": 1}, {"lat": -44.4013, "lng": 65.1338, "id": "367329", "name": "Styptosphaera spumacea", "sprite": "sp-anchoviella_juruasanga.png", "group": "other", "rarity": 1}, {"lat": -44.5205, "lng": 66.5079, "id": "212651", "name": "Procellaria aequinoctialis", "sprite": "sp-anchoviella_juruasanga.png", "group": "other", "rarity": 1}]}