{"zoom": 7, "x": 87, "y": 85, "points": [{"lat": -51.4917, "lng": 66.4667, "id": "212636", "name": "Macronectes giganteus", "sprite": "sp-anchoviella_juruasanga.png", "group": "other", "rarity": 1}, {"lat": -50.75, "lng": 66.9833, "id": "104112", "name": "Aetideus", "sprite": "sp-anchoviella_juruasanga.png", "group": "other", "rarity": 1}, {"lat": -50.8183, "lng": 65.665, "id": "197035", "name": "Amauropsis prasina", "sprite": "sp-cowrie_shell.png", "group": "sea_snail", "rarity": 1}, {"lat": -51.1667, "lng": 65.0, "id": "342443", "name": "Clausocalanus brevipes", "sprite": "sp-anchoviella_juruasanga.png", "group": "other", "rarity": 1}, {"lat": -50.9167, "lng": 65.9667, "id": "344020", "name": "Aphrodroma brevirostris", "sprite": "sp-anchoviella_juruasanga.png", "group": "other", "rarity": 1}, {"lat": -50.75, "lng": 66.9909, "id": "105410", "name": "Sagitta", "sprite": "sp-anchoviella_juruasanga.png", "group": "other", "rarity": 1}, {"lat": -51.0696, "lng": 65.3353, "id": "104513", "name": "Microcalanus pygmaeus", "sprite": "sp-anchoviella_juruasanga.png", "group": "other", "rarity": 1}, {"lat": -51.4083, "lng": 66.625, "id": "212640", "name": "Daption capense", "sprite": "sp-anchoviella_juruasanga.png", "group": "other", "rarity": 1}, {"lat": -51.1461, "lng": 64.9863, "id": "106656", "name": "Oithona similis", "sprite": "sp-anchoviella_juruasanga.png", "group": "other", "rarity": 1}, {"lat": -50.75, "lng": 67.0, "id": "104228", "name": "Scaphocalanus", "sprite": "sp-anchoviella_juruasanga.png", "group": "other", "rarity": 1}, {"lat": -52.0185, "lng": 66.5713, "id": "344007", "name": "Pelecanoides urinatrix", "sprite": "sp-anchoviella_juruasanga.png", "group": "other", "rarity": 1}, {"lat": -50.8611, "lng": 65.6793, "id": "127715", "name": "Gigantocypris muelleri", "sprite": "sp-anchoviella_juruasanga.png", "group": "other", "rarity": 1}, {"lat": -51.1667, "lng": 65.0, "id": "13703", "name": "Thecosomata", "sprite": "sp-cowrie_shell.png", "group": "sea_snail", "rarity": 1}, {"lat": -50.75, "lng": 66.9881, "id": "603038", "name": "Heterorhabdus", "sprite": "sp-anchoviella_juruasanga.png", "group": "other", "rarity": 1}, {"lat": -50.75, "lng": 66.9958, "id": "104174", "name": "Euchaeta", "sprite": "sp-anchoviella_juruasanga.png", "group": "other", "rarity": 1}, {"lat": -50.75, "lng": 67.0, "id": "104120", "name": "Euchirella", "sprite": "sp-anchoviella_juruasanga.png", "group": "other", "rarity": 1}, {"lat": -50.9908, "lng": 65.7685, "id": "342444", "name": "Clausocalanus laticeps", "sprite": "sp-anchoviella_juruasanga.png", "group": "other", "rarity": 1}, {"lat": -51.9834, "lng": 67.125, "id": "212651", "name": "Procellaria aequinoctialis", "sprite": "sp-anchoviella_juruasanga.png", "group": "other", "rarity": 1}, {"lat": -51.1667, "lng": 65.0, "id": "106651", "name": "Oithona nana", "sprite": "sp-anchoviella_juruasanga.png", "group": "other", "rarity": 1}, {"lat": -50.75, "lng": 66.9833, "id": "104784", "name": "Racovitzanus antarcticus", "sprite": "sp-anchoviella_juruasanga.png", "group": "other", "rarity": 1}, {"lat": -51.04, "lng": 67.44, "id": "113434", "name": "Globigerina bulloides", "sprite": "sp-anchoviella_juruasanga.png", "group": "other", "rarity": 1}, {"lat": -51.1491, "lng": 64.9882, "id": "344712", "name": "Oithona frigida", "sprite": "sp-anchoviella_juruasanga.png", "group": "other", "rarity": 1}, {"lat": -50.75, "lng": 67.0, "id": "104140", "name": "Haloptilus", "sprite": "sp-anchoviella_juruasanga.png", "group": "other", "rarity": 1}, {"lat": -51.1667, "lng": 65.0, "id": "110673", "name": "Euphausia", "sprite": "sp-antarctic_krill.png", "group": "shrimp", "rarity": 1}, {"lat": -50.8167, "lng": 65.6667, "id": "234859", "name": "Abyssaster planus", "sprite": "sp-sea_cucumber.png", "group": "starfish", "rarity": 1}, {"lat": -51.9385, "lng": 66.4186, "id": "212631", "name": "Phoebetria palpebrata", "sprite": "sp-anchoviella_juruasanga.png", "group": "other", "rarity": 1}, {"lat": -50.817, "lng": 65.664, "id": "160784", "name": "Aporocidaris milleri", "sprite": "sp-sea_cucumber.png", "group": "starfish", "rarity": 1}, {"lat": -51.1667, "lng": 65.0, "id": "236218", "name": "Euphausia frigida", "sprite": "sp-antarctic_krill.png", "group": "shrimp", "rarity": 1}, {"lat": -51.4773, "lng": 66.3539, "id": "343995", "name": "Thalassarche melanophris", "sprite": "sp-anchoviella_juruasanga.png", "group": "other", "rarity": 1}, {"lat": -51.1667, "lng": 65.0, "id": "221054", "name": "Euphausia vallentini", "sprite": "sp-antarctic_krill.png", "group": "shrimp", "rarity": 1}, {"lat": -51.1667, "lng": 65.0, "id": "105445", "name": "Pseudosagitta maxima", "sprite": "sp-anchoviella_juruasanga.png", "group": "other", "rarity": 1}, {"lat": -51.0052, "lng": 65.7413, "id": "1135", "name": "Amphipoda", "sprite": "sp-american_lobster.png", "group": "crab_lobster", "rarity": 1}, {"lat": -51.0397, "lng": 65.5414, "id": "1078", "name": "Ostracoda", "sprite": "sp-anchoviella_juruasanga.png", "group": "other", "rarity": 1}, {"lat": -51.1667, "lng": 65.0, "id": "104802", "name": "Scaphocalanus subbrevicornis", "sprite": "sp-anchoviella_juruasanga.png", "group": "other", "rarity": 1}, {"lat": -51.0682, "lng": 65.3485, "id": "883", "name": "Polychaeta", "sprite": "sp-anchoviella_juruasanga.png", "group": "other", "rarity": 1}, {"lat": -51.144, "lng": 64.9849, "id": "128957", "name": "Triconia conifera", "sprite": "sp-anchoviella_juruasanga.png", "group": "other", "rarity": 1}, {"lat": -50.75, "lng": 67.0, "id": "104121", "name": "Gaetanus", "sprite": "sp-anchoviella_juruasanga.png", "group": "other", "rarity": 1}, {"lat": -50.9826, "lng": 65.8134, "id": "342436", "name": "Calanus simillimus", "sprite": "sp-anchoviella_juruasanga.png", "group": "other", "rarity": 1}, {"lat": -51.144, "lng": 64.9849, "id": "1100", "name": "Calanoida", "sprite": "sp-anchoviella_juruasanga.png", "group": "other", "rarity": 1}, {"lat": -50.8167, "lng": 65.6667, "id": "160821", "name": "Pourtalesia hispida", "sprite": "sp-sea_cucumber.png", "group": "starfish", "rarity": 1}, {"lat": -52.0667, "lng": 66.9667, "id": "137190", "name": "Oceanites oceanicus", "sprite": "sp-anchoviella_juruasanga.png", "group": "other", "rarity": 1}, {"lat": -50.8462, "lng": 66.5385, "id": "104275", "name": "Aetideus armatus", "sprite": "sp-anchoviella_juruasanga.png", "group": "other", "rarity": 1}, {"lat": -50.9595, "lng": 65.8333, "id": "342453", "name": "Drepanopus pectinatus", "sprite": "sp-anchoviella_juruasanga.png", "group": "other", "rarity": 1}, {"lat": -50.75, "lng": 66.9929, "id": "104190", "name": "Metridia", "sprite": "sp-anchoviella_juruasanga.png", "group": "other", "rarity": 1}, {"lat": -51.04, "lng": 67.44, "id": "113458", "name": "Neogloboquadrina pachyderma", "sprite": "sp-anchoviella_juruasanga.png", "group": "other", "rarity": 1}, {"lat": -51.1542, "lng": 64.9917, "id": "116115", "name": "Microsetella norvegica", "sprite": "sp-anchoviella_juruasanga.png", "group": "other", "rarity": 1}, {"lat": -50.95, "lng": 65.7, "id": "217697", "name": "Electrona antarctica", "thumb": "tn_Elant_u0.gif", "sprite": "sp-anchoviella_juruasanga.png", "group": "other", "rarity": 1, "waterType": "Saltwater"}, {"lat": -51.1154, "lng": 65.1398, "id": "103367", "name": "Oikopleura", "sprite": "sp-anchoviella_juruasanga.png", "group": "other", "rarity": 1}, {"lat": -50.897, "lng": 66.2803, "id": "746007", "name": "Pleuromamma robusta robusta", "sprite": "sp-anchoviella_juruasanga.png", "group": "other", "rarity": 1}, {"lat": -50.9945, "lng": 65.6445, "id": "344719", "name": "Oncaea curvata", "sprite": "sp-anchoviella_juruasanga.png", "group": "other", "rarity": 1}, {"lat": -50.8183, "lng": 65.665, "id": "759251", "name": "Provocator pulcher", "sprite": "sp-cowrie_shell.png", "group": "sea_snail", "rarity": 1}, {"lat": -51.0584, "lng": 65.4439, "id": "138122", "name": "Limacina", "sprite": "sp-cowrie_shell.png", "group": "sea_snail", "rarity": 1}, {"lat": -51.04, "lng": 67.44, "id": "113462", "name": "Turborotalita quinqueloba", "sprite": "sp-anchoviella_juruasanga.png", "group": "other", "rarity": 1}, {"lat": -51.751, "lng": 66.1174, "id": "212583", "name": "Diomedea exulans", "sprite": "sp-anchoviella_juruasanga.png", "group": "other", "rarity": 1}, {"lat": -51.1276, "lng": 64.9739, "id": "1128", "name": "Euphausiacea", "sprite": "sp-antarctic_krill.png", "group": "shrimp", "rarity": 1}, {"lat": -51.0417, "lng": 65.4833, "id": "1080", "name": "Copepoda", "sprite": "sp-anchoviella_juruasanga.png", "group": "other", "rarity": 1}, {"lat": -51.1667, "lng": 65.0, "id": "104846", "name": "Spinocalanus abyssalis", "sprite": "sp-anchoviella_juruasanga.png", "group": "other", "rarity": 1}, {"lat": -50.9, "lng": 65.7, "id": "123082", "name": "Echinoidea", "sprite": "sp-sea_cucumber.png", "group": "starfish", "rarity": 1}, {"lat": -51.0, "lng": 67.0, "id": "328239", "name": "Harmothoe ernesti", "sprite": "sp-anchoviella_juruasanga.png", "group": "other", "rarity": 1}, {"lat": -51.045, "lng": 65.5043, "id": "220837", "name": "Rhincalanus gigas", "sprite": "sp-anchoviella_juruasanga.png", "group": "other", "rarity": 1}, {"lat": -50.9167, "lng": 65.9667, "id": "212639", "name": "Thalassoica antarctica", "sprite": "sp-anchoviella_juruasanga.png", "group": "other", "rarity": 1}, {"lat": -51.1358, "lng": 64.9794, "id": "105416", "name": "Eukrohnia hamata", "sprite": "sp-anchoviella_juruasanga.png", "group": "other", "rarity": 1}, {"lat": -50.9989, "lng": 65.7492, "id": "104510", "name": "Ctenocalanus vanus", "sprite": "sp-anchoviella_juruasanga.png", "group": "other", "rarity": 1}, {"lat": -51.9556, "lng": 67.1778, "id": "204680", "name": "Pachyptila", "sprite": "sp-anchoviella_juruasanga.png", "group": "other", "rarity": 1}, {"lat": -51.1167, "lng": 64.9667, "id": "344996", "name": "Paraeuchaeta biloba", "sprite": "sp-anchoviella_juruasanga.png", "group": "other", "rarity": 1}, {"lat": -51.1533, "lng": 64.9911, "id": "850801", "name": "Metridia lucens lucens", "sprite": "sp-anchoviella_juruasanga.png", "group": "other", "rarity": 1}, {"lat": -50.95, "lng": 65.7, "id": "234673", "name": "Bathylagus tenuis", "sprite": "sp-anchoviella_juruasanga.png", "group": "other", "rarity": 1, "waterType": "Saltwater"}, {"lat": -50.75, "lng": 66.9833, "id": "116116", "name": "Microsetella rosea", "sprite": "sp-anchoviella_juruasanga.png", "group": "other", "rarity": 1}, {"lat": -50.8889, "lng": 66.3278, "id": "236219", "name": "Thysanoessa macrura", "sprite": "sp-antarctic_krill.png", "group": "shrimp", "rarity": 1}, {"lat": -51.0, "lng": 65.7209, "id": "1509944", "name": "Scolecithricella minor minor", "sprite": "sp-anchoviella_juruasanga.png", "group": "other", "rarity": 1}, {"lat": -51.0904, "lng": 65.307, "id": "128690", "name": "Oncaea", "sprite": "sp-anchoviella_juruasanga.png", "group": "other", "rarity": 1}, {"lat": -51.7575, "lng": 66.0774, "id": "231413", "name": "Mirounga leonina", "sprite": "sp-elephant_seal.png", "group": "seal", "rarity": 1}, {"lat": -50.75, "lng": 66.9944, "id": "1410", "name": "Foraminifera", "sprite": "sp-anchoviella_juruasanga.png", "group": "other", "rarity": 1}, {"lat": -51.1542, "lng": 64.9917, "id": "343728", "name": "Heterorhabdus austrinus", "sprite": "sp-anchoviella_juruasanga.png", "group": "other", "rarity": 1}, {"lat": -51.1667, "lng": 65.0, "id": "101796", "name": "Hyperia", "sprite": "sp-american_lobster.png", "group": "crab_lobster", "rarity": 1}, {"lat": -50.75, "lng": 66.9919, "id": "138007", "name": "Fiona", "sprite": "sp-cowrie_shell.png", "group": "sea_snail", "rarity": 1}]}