{"zoom": 7, "x": 89, "y": 59, "points": [{"lat": 13.7167, "lng": 71.2044, "id": "152391", "name": "Nemertea", "sprite": "sp-anchoviella_juruasanga.png", "group": "other", "rarity": 1}, {"lat": 11.445, "lng": 72.745, "id": "1063207", "name": "Nebularia ferruginea", "sprite": "sp-cowrie_shell.png", "group": "sea_snail", "rarity": 1}, {"lat": 13.4389, "lng": 71.6333, "id": "104174", "name": "Euchaeta", "sprite": "sp-anchoviella_juruasanga.png", "group": "other", "rarity": 1}, {"lat": 11.21, "lng": 72.79, "id": "219632", "name": "Doubleband surgeonfish", "thumb": "tn_Acten_u0.jpg", "sprite": "sp-acanthurus_albimento.png", "group": "surgeonfish", "rarity": 1, "waterType": "Saltwater"}, {"lat": 13.7889, "lng": 71.3444, "id": "430412", "name": "Atlanta turriculata", "sprite": "sp-cowrie_shell.png", "group": "sea_snail", "rarity": 1}, {"lat": 11.68, "lng": 72.7, "id": "445340", "name": "Haliotis ovina", "sprite": "sp-cowrie_shell.png", "group": "sea_snail", "rarity": 1}, {"lat": 13.8333, "lng": 71.2167, "id": "220914", "name": "Candacia simplex", "sprite": "sp-anchoviella_juruasanga.png", "group": "other", "rarity": 1}, {"lat": 13.7167, "lng": 71.1933, "id": "266249", "name": "Ferosagitta robusta", "sprite": "sp-anchoviella_juruasanga.png", "group": "other", "rarity": 1}, {"lat": 13.7096, "lng": 71.1729, "id": "106731", "name": "Sergestidae", "sprite": "sp-american_lobster.png", "group": "crab_lobster", "rarity": 1}, {"lat": 11.6679, "lng": 72.3841, "id": "492941", "name": "Quinqueloculina sulcata", "sprite": "sp-anchoviella_juruasanga.png", "group": "other", "rarity": 1}, {"lat": 11.345, "lng": 72.9, "id": "219961", "name": "Orange-spotted toadfish", "thumb": "tn_Tohyp_u0.jpg", "sprite": "sp-fahaka_pufferfish.png", "group": "pufferfish", "rarity": 1, "waterType": "Brackish"}, {"lat": 13.6101, "lng": 71.2847, "id": "107046", "name": "Plesionika", "sprite": "sp-american_lobster.png", "group": "crab_lobster", "rarity": 1}, {"lat": 11.21, "lng": 72.79, "id": "218754", "name": "Vagabond butterflyfish", "thumb": "tn_Chvag_u4.jpg", "sprite": "sp-chaetodon.png", "group": "butterflyfish", "rarity": 1, "waterType": "Saltwater"}, {"lat": 11.21, "lng": 72.79, "id": "218017", "name": "Blue-spotted pipefish", "thumb": "tn_Hicya_u2.jpg", "sprite": "sp-cosmocampus_coccineus.png", "group": "seahorse", "rarity": 1, "waterType": "Brackish"}, {"lat": 13.5187, "lng": 71.5708, "id": "354637", "name": "Parvocalanus latus", "sprite": "sp-anchoviella_juruasanga.png", "group": "other", "rarity": 1}, {"lat": 12.743, "lng": 72.213, "id": "137098", "name": "Grampus griseus", "sprite": "sp-bottlenose_dolphin.png", "group": "dolphin", "rarity": 1}, {"lat": 13.7915, "lng": 73.1185, "id": "213357", "name": "Oligometra serripinna", "sprite": "sp-sea_cucumber.png", "group": "starfish", "rarity": 1}, {"lat": 11.6679, "lng": 72.3841, "id": "113734", "name": "Spirillina limbata", "sprite": "sp-anchoviella_juruasanga.png", "group": "other", "rarity": 1}, {"lat": 13.2333, "lng": 71.8333, "id": "137687", "name": "Atlanta", "sprite": "sp-cowrie_shell.png", "group": "sea_snail", "rarity": 1}, {"lat": 13.8833, "lng": 71.6, "id": "430418", "name": "Atlanta gaudichaudi", "sprite": "sp-cowrie_shell.png", "group": "sea_snail", "rarity": 1}, {"lat": 11.21, "lng": 72.79, "id": "219890", "name": "White-banded triggerfish", "thumb": "tn_Rhacu_ui.jpg", "sprite": "sp-balistidae.png", "group": "triggerfish", "rarity": 1, "waterType": "Saltwater"}, {"lat": 11.445, "lng": 72.745, "id": "207675", "name": "Tridacna maxima", "sprite": "sp-blue_mussel.png", "group": "clam_mussel", "rarity": 1}, {"lat": 13.4583, "lng": 71.8667, "id": "220900", "name": "Pleuromamma indica", "sprite": "sp-anchoviella_juruasanga.png", "group": "other", "rarity": 1}, {"lat": 13.2333, "lng": 71.8333, "id": "106802", "name": "Laomediidae", "sprite": "sp-american_lobster.png", "group": "crab_lobster", "rarity": 1}, {"lat": 13.7167, "lng": 71.21, "id": "135382", "name": "Physalia", "sprite": "sp-anchoviella_juruasanga.png", "group": "other", "rarity": 1}, {"lat": 13.8833, "lng": 71.6, "id": "430420", "name": "Atlanta echinogyra", "sprite": "sp-cowrie_shell.png", "group": "sea_snail", "rarity": 1}, {"lat": 11.6679, "lng": 72.3841, "id": "113681", "name": "Reussella spinulosa", "sprite": "sp-anchoviella_juruasanga.png", "group": "other", "rarity": 1}, {"lat": 13.6101, "lng": 71.2847, "id": "107044", "name": "Pandalus", "sprite": "sp-american_lobster.png", "group": "crab_lobster", "rarity": 1}, {"lat": 11.6679, "lng": 72.3841, "id": "112886", "name": "Cibicidoides pseudoungerianus", "sprite": "sp-anchoviella_juruasanga.png", "group": "other", "rarity": 1}, {"lat": 11.445, "lng": 72.745, "id": "149789", "name": "Stichopus chloronotus", "sprite": "sp-sea_cucumber.png", "group": "starfish", "rarity": 1}, {"lat": 11.21, "lng": 72.79, "id": "212213", "name": "Surge wrasse", "thumb": "tn_Thlox_m1.jpg", "sprite": "sp-cleaner_wrasse.png", "group": "wrasse", "rarity": 1, "waterType": "Saltwater"}, {"lat": 11.445, "lng": 72.745, "id": "141914", "name": "Gafrarium pectinatum", "sprite": "sp-blue_mussel.png", "group": "clam_mussel", "rarity": 1}, {"lat": 11.6679, "lng": 72.3841, "id": "112578", "name": "Pseudotriloculina rotunda", "sprite": "sp-anchoviella_juruasanga.png", "group": "other", "rarity": 1}, {"lat": 11.68, "lng": 72.7, "id": "216349", "name": "Trochus maculatus", "sprite": "sp-cowrie_shell.png", "group": "sea_snail", "rarity": 1}, {"lat": 11.445, "lng": 72.745, "id": "446917", "name": "Littoraria zebra", "sprite": "sp-cowrie_shell.png", "group": "sea_snail", "rarity": 1}, {"lat": 13.2333, "lng": 71.8333, "id": "117865", "name": "Rhopalonema velatum", "sprite": "sp-anchoviella_juruasanga.png", "group": "other", "rarity": 1}, {"lat": 11.445, "lng": 72.745, "id": "215541", "name": "Conus lividus", "sprite": "sp-cowrie_shell.png", "group": "sea_snail", "rarity": 1}, {"lat": 11.21, "lng": 72.79, "id": "489062", "name": "Turrilatirus craticulatus", "sprite": "sp-cowrie_shell.png", "group": "sea_snail", "rarity": 1}, {"lat": 11.345, "lng": 72.9, "id": "218721", "name": "Yellowhead butterflyfish", "thumb": "tn_Chxan_uj.jpg", "sprite": "sp-chaetodon.png", "group": "butterflyfish", "rarity": 1, "waterType": "Saltwater"}, {"lat": 11.48, "lng": 73.01, "id": "218765", "name": "Pennant coralfish", "thumb": "tn_Heacu_u3.jpg", "sprite": "sp-chaetodon.png", "group": "butterflyfish", "rarity": 1, "waterType": "Brackish"}, {"lat": 11.6679, "lng": 72.3841, "id": "1255426", "name": "Peneroplis arietinus", "sprite": "sp-anchoviella_juruasanga.png", "group": "other", "rarity": 1}, {"lat": 13.2333, "lng": 71.8333, "id": "104106", "name": "Temoridae", "sprite": "sp-anchoviella_juruasanga.png", "group": "other", "rarity": 1}, {"lat": 11.21, "lng": 72.79, "id": "218205", "name": "Greasy grouper", "thumb": "tn_Eptau_u0.jpg", "sprite": "sp-chelidoperca_santosi.png", "group": "grouper", "rarity": 1, "waterType": "Saltwater"}, {"lat": 13.2333, "lng": 71.8333, "id": "109444", "name": "Pyrocystaceae", "sprite": "sp-anchoviella_juruasanga.png", "group": "other", "rarity": 1}, {"lat": 11.55, "lng": 72.15, "id": "213190", "name": "Macrophiothrix nereidina", "sprite": "sp-sea_cucumber.png", "group": "starfish", "rarity": 1}, {"lat": 11.6679, "lng": 72.3841, "id": "112772", "name": "Triloculina trigonula", "sprite": "sp-anchoviella_juruasanga.png", "group": "other", "rarity": 1}, {"lat": 13.883, "lng": 71.617, "id": "235952", "name": "Florisphaera profunda", "sprite": "sp-anchoviella_juruasanga.png", "group": "other", "rarity": 1}, {"lat": 11.68, "lng": 72.7, "id": "398505", "name": "Ghost cardinalfish", "thumb": "tn_Apspo_u2.jpg", "sprite": "sp-anchoviella_juruasanga.png", "group": "other", "rarity": 1, "waterType": "Saltwater"}, {"lat": 11.6679, "lng": 72.3841, "id": "112621", "name": "Quinqueloculina bradyana", "sprite": "sp-anchoviella_juruasanga.png", "group": "other", "rarity": 1}, {"lat": 13.8833, "lng": 71.6, "id": "584853", "name": "Atlanta frontieri", "sprite": "sp-cowrie_shell.png", "group": "sea_snail", "rarity": 1}, {"lat": 13.883, "lng": 71.617, "id": "113440", "name": "Globigerinella siphonifera", "sprite": "sp-anchoviella_juruasanga.png", "group": "other", "rarity": 1}, {"lat": 13.7167, "lng": 71.1933, "id": "266247", "name": "Ferosagitta ferox", "sprite": "sp-anchoviella_juruasanga.png", "group": "other", "rarity": 1}, {"lat": 13.7167, "lng": 71.2044, "id": "104902", "name": "Branchiostoma", "sprite": "sp-anchoviella_juruasanga.png", "group": "other", "rarity": 1}, {"lat": 11.68, "lng": 72.7, "id": "217219", "name": "Strigatella litterata", "sprite": "sp-cowrie_shell.png", "group": "sea_snail", "rarity": 1}, {"lat": 11.21, "lng": 72.79, "id": "732841", "name": "Thylacodes xenophorus", "sprite": "sp-cowrie_shell.png", "group": "sea_snail", "rarity": 1}, {"lat": 13.1381, "lng": 71.2364, "id": "2", "name": "Animalia", "sprite": "sp-anchoviella_juruasanga.png", "group": "other", "rarity": 1}, {"lat": 12.0311, "lng": 72.6424, "id": "205324", "name": "Scleronephthya", "sprite": "sp-actiniidae.png", "group": "coral", "rarity": 1}, {"lat": 11.68, "lng": 72.7, "id": "218990", "name": "Zigzag wrasse", "thumb": "tn_Hasca_m3.jpg", "sprite": "sp-cleaner_wrasse.png", "group": "wrasse", "rarity": 1, "waterType": "Saltwater"}, {"lat": 13.5417, "lng": 71.6312, "id": "745865", "name": "Paracalanus parvus parvus", "sprite": "sp-anchoviella_juruasanga.png", "group": "other", "rarity": 1}, {"lat": 13.7167, "lng": 71.21, "id": "178738", "name": "[unassigned] Enteropneusta", "sprite": "sp-anchoviella_juruasanga.png", "group": "other", "rarity": 1}, {"lat": 11.4633, "lng": 72.6083, "id": "212810", "name": "Ternate chromis", "thumb": "tn_Chter_u5.jpg", "sprite": "sp-chrysiptera_caesifrons.png", "group": "clownfish", "rarity": 1, "waterType": "Saltwater"}, {"lat": 13.6101, "lng": 71.2847, "id": "106822", "name": "Penaeus", "sprite": "sp-american_lobster.png", "group": "crab_lobster", "rarity": 1}, {"lat": 13.8833, "lng": 71.6, "id": "430419", "name": "Atlanta plana", "sprite": "sp-cowrie_shell.png", "group": "sea_snail", "rarity": 1}, {"lat": 13.6476, "lng": 71.2919, "id": "128595", "name": "Sapphirinidae", "sprite": "sp-anchoviella_juruasanga.png", "group": "other", "rarity": 1}, {"lat": 13.1083, "lng": 72.4028, "id": "104140", "name": "Haloptilus", "sprite": "sp-anchoviella_juruasanga.png", "group": "other", "rarity": 1}, {"lat": 11.355, "lng": 72.881, "id": "145123", "name": "Jania adhaerens", "sprite": "sp-anchoviella_juruasanga.png", "group": "other", "rarity": 1}, {"lat": 11.21, "lng": 72.79, "id": "211418", "name": "Polyphyllia talpina", "sprite": "sp-actiniidae.png", "group": "coral", "rarity": 1}, {"lat": 11.21, "lng": 72.79, "id": "218752", "name": "Scrawled butterflyfish", "thumb": "tn_Chmey_u3.jpg", "sprite": "sp-chaetodon.png", "group": "butterflyfish", "rarity": 1, "waterType": "Saltwater"}, {"lat": 11.21, "lng": 72.79, "id": "219090", "name": "Candelamoa parrotfish", "thumb": "tn_Hihar_u0.jpg", "sprite": "sp-rainbow_parrotfish.png", "group": "parrotfish", "rarity": 1, "waterType": "Saltwater"}, {"lat": 13.2333, "lng": 71.8333, "id": "104074", "name": "Acartiidae", "sprite": "sp-anchoviella_juruasanga.png", "group": "other", "rarity": 1}, {"lat": 13.2333, "lng": 71.8333, "id": "146421", "name": "Appendicularia", "sprite": "sp-anchoviella_juruasanga.png", "group": "other", "rarity": 1}, {"lat": 13.4287, "lng": 71.7887, "id": "103367", "name": "Oikopleura", "sprite": "sp-anchoviella_juruasanga.png", "group": "other", "rarity": 1}, {"lat": 11.6679, "lng": 72.3841, "id": "417687", "name": "Miliolinella fichteliana", "sprite": "sp-anchoviella_juruasanga.png", "group": "other", "rarity": 1}, {"lat": 11.445, "lng": 72.745, "id": "420788", "name": "Ctena orbiculata", "sprite": "sp-blue_mussel.png", "group": "clam_mussel", "rarity": 1}, {"lat": 13.7167, "lng": 71.1933, "id": "105428", "name": "Krohnitta pacifica", "sprite": "sp-anchoviella_juruasanga.png", "group": "other", "rarity": 1}, {"lat": 11.4967, "lng": 72.5567, "id": "218342", "name": "Crimsontip longfin", "thumb": "tn_Plcoe_u8.jpg", "sprite": "sp-anchoviella_juruasanga.png", "group": "other", "rarity": 1, "waterType": "Saltwater"}, {"lat": 11.445, "lng": 72.745, "id": "207231", "name": "Porites rus", "sprite": "sp-actiniidae.png", "group": "coral", "rarity": 1}, {"lat": 11.345, "lng": 72.9, "id": "218733", "name": "Raccoon butterflyfish", "thumb": "tn_Chlun_u0.jpg", "sprite": "sp-chaetodon.png", "group": "butterflyfish", "rarity": 1, "waterType": "Saltwater"}, {"lat": 13.2684, "lng": 71.9368, "id": "158812", "name": "Indo-Pacific sailfish", "thumb": "tn_Ispla_ub.jpg", "sprite": "sp-istiophorus.png", "group": "swordfish", "rarity": 1, "waterType": "Saltwater"}, {"lat": 13.7167, "lng": 71.1933, "id": "266712", "name": "Aidanosagitta regularis", "sprite": "sp-anchoviella_juruasanga.png", "group": "other", "rarity": 1}, {"lat": 11.445, "lng": 72.745, "id": "209498", "name": "Calappa calappa", "sprite": "sp-american_lobster.png", "group": "crab_lobster", "rarity": 1}, {"lat": 11.445, "lng": 72.745, "id": "216888", "name": "Pustularia globulus", "sprite": "sp-cowrie_shell.png", "group": "sea_snail", "rarity": 1}, {"lat": 11.355, "lng": 72.881, "id": "145634", "name": "Hypnea musciformis", "sprite": "sp-anchoviella_juruasanga.png", "group": "other", "rarity": 1}, {"lat": 11.21, "lng": 72.79, "id": "275749", "name": "Argus wrasse", "thumb": "tn_Haarg_m0.jpg", "sprite": "sp-cleaner_wrasse.png", "group": "wrasse", "rarity": 1, "waterType": "Saltwater"}, {"lat": 12.35, "lng": 71.929, "id": "764825", "name": "Eualus oreios", "sprite": "sp-american_lobster.png", "group": "crab_lobster", "rarity": 1}, {"lat": 11.3667, "lng": 72.76, "id": "211096", "name": "Lambis lambis", "sprite": "sp-cowrie_shell.png", "group": "sea_snail", "rarity": 1}, {"lat": 13.2399, "lng": 71.4597, "id": "127027", "name": "Yellowfin tuna", "thumb": "tn_Thalb_u0.jpg", "sprite": "sp-bluefin_tuna.png", "group": "tuna_mackerel", "rarity": 1, "waterType": "Brackish"}, {"lat": 11.6679, "lng": 72.3841, "id": "112612", "name": "Quinqueloculina annectens", "sprite": "sp-anchoviella_juruasanga.png", "group": "other", "rarity": 1}, {"lat": 13.7854, "lng": 73.1174, "id": "413233", "name": "Heterometra compta", "sprite": "sp-sea_cucumber.png", "group": "starfish", "rarity": 1}, {"lat": 11.2281, "lng": 72.7803, "id": "1353946", "name": "Pseudoceros duplicinctus", "sprite": "sp-anchoviella_juruasanga.png", "group": "other", "rarity": 1}, {"lat": 11.445, "lng": 72.745, "id": "569972", "name": "Mammilla melanostoma", "sprite": "sp-cowrie_shell.png", "group": "sea_snail", "rarity": 1}, {"lat": 11.68, "lng": 72.7, "id": "219886", "name": "Wedge-tail triggerfish", "thumb": "tn_Rhrec_u1.jpg", "sprite": "sp-balistidae.png", "group": "triggerfish", "rarity": 1, "waterType": "Saltwater"}, {"lat": 11.445, "lng": 72.745, "id": "1428157", "name": "Trochus venetus", "sprite": "sp-cowrie_shell.png", "group": "sea_snail", "rarity": 1}, {"lat": 13.8333, "lng": 71.2167, "id": "115186", "name": "Aegisthus", "sprite": "sp-anchoviella_juruasanga.png", "group": "other", "rarity": 1}, {"lat": 11.6679, "lng": 72.3841, "id": "466082", "name": "Triloculina insignis", "sprite": "sp-anchoviella_juruasanga.png", "group": "other", "rarity": 1}, {"lat": 13.375, "lng": 71.9383, "id": "116382", "name": "Macrosetella gracilis", "sprite": "sp-anchoviella_juruasanga.png", "group": "other", "rarity": 1}, {"lat": 13.2333, "lng": 71.8333, "id": "23000", "name": "Cavoliniidae", "sprite": "sp-cowrie_shell.png", "group": "sea_snail", "rarity": 1}, {"lat": 13.3052, "lng": 71.7448, "id": "101", "name": "Gastropoda", "sprite": "sp-cowrie_shell.png", "group": "sea_snail", "rarity": 1}, {"lat": 13.4181, "lng": 71.9, "id": "138007", "name": "Fiona", "sprite": "sp-cowrie_shell.png", "group": "sea_snail", "rarity": 1}, {"lat": 11.445, "lng": 72.745, "id": "125185", "name": "Holothuria (Thymiosycia) impatiens", "sprite": "sp-sea_cucumber.png", "group": "starfish", "rarity": 1}, {"lat": 13.4748, "lng": 71.9763, "id": "104503", "name": "Clausocalanus furcatus", "sprite": "sp-anchoviella_juruasanga.png", "group": "other", "rarity": 1}, {"lat": 11.34, "lng": 72.5867, "id": "218994", "name": "Timor wrasse", "thumb": "tn_Hatim_m0.jpg", "sprite": "sp-cleaner_wrasse.png", "group": "wrasse", "rarity": 1, "waterType": "Saltwater"}, {"lat": 11.6, "lng": 72.18, "id": "713323", "name": "Zoramia leptacanthus", "sprite": "sp-anchoviella_juruasanga.png", "group": "other", "rarity": 1}, {"lat": 11.4225, "lng": 72.5975, "id": "207607", "name": "Linckia multifora", "sprite": "sp-sea_cucumber.png", "group": "starfish", "rarity": 1}, {"lat": 11.68, "lng": 72.7, "id": "208048", "name": "Peristernia nassatula", "sprite": "sp-cowrie_shell.png", "group": "sea_snail", "rarity": 1}, {"lat": 12.7043, "lng": 71.2563, "id": "103357", "name": "Appendicularia", "sprite": "sp-anchoviella_juruasanga.png", "group": "other", "rarity": 1}, {"lat": 11.68, "lng": 72.7, "id": "215520", "name": "Conus generalis", "sprite": "sp-cowrie_shell.png", "group": "sea_snail", "rarity": 1}, {"lat": 12.763, "lng": 71.3204, "id": "1066", "name": "Crustacea", "sprite": "sp-anchoviella_juruasanga.png", "group": "other", "rarity": 1}, {"lat": 11.6679, "lng": 72.3841, "id": "526518", "name": "Tortoplectella rhomboidalis", "sprite": "sp-anchoviella_juruasanga.png", "group": "other", "rarity": 1}, {"lat": 11.6679, "lng": 72.3841, "id": "112822", "name": "Amphisorus hemprichii", "sprite": "sp-anchoviella_juruasanga.png", "group": "other", "rarity": 1}, {"lat": 11.445, "lng": 72.745, "id": "570811", "name": "Monetaria caputserpentis", "sprite": "sp-cowrie_shell.png", "group": "sea_snail", "rarity": 1}, {"lat": 11.21, "lng": 72.79, "id": "207489", "name": "Platygyra daedalea", "sprite": "sp-actiniidae.png", "group": "coral", "rarity": 1}, {"lat": 12.075, "lng": 71.2625, "id": "106827", "name": "Lucifer", "sprite": "sp-american_lobster.png", "group": "crab_lobster", "rarity": 1}, {"lat": 11.405, "lng": 72.485, "id": "217467", "name": "Barred moray", "thumb": "tn_Ecpol_u5.jpg", "sprite": "sp-anarchias.png", "group": "moray", "rarity": 1, "waterType": "Saltwater"}, {"lat": 12.8552, "lng": 71.5198, "id": "126333", "name": "Long snouted lancetfish", "thumb": "tn_Alfer_u0.jpg", "sprite": "sp-anchoviella_juruasanga.png", "group": "other", "rarity": 1, "waterType": "Saltwater"}, {"lat": 11.68, "lng": 72.7, "id": "210814", "name": "Holothuria (Thymiosycia) arenicola", "sprite": "sp-sea_cucumber.png", "group": "starfish", "rarity": 1}, {"lat": 11.21, "lng": 72.79, "id": "712137", "name": "Vexillum exasperatum", "sprite": "sp-cowrie_shell.png", "group": "sea_snail", "rarity": 1}, {"lat": 11.21, "lng": 72.79, "id": "277817", "name": "Long-barbel goatfish", "thumb": "tn_Pamac_u2.jpg", "sprite": "sp-anchoviella_juruasanga.png", "group": "other", "rarity": 1, "waterType": "Saltwater"}, {"lat": 13.2333, "lng": 71.8333, "id": "109500", "name": "Noctiluca", "sprite": "sp-anchoviella_juruasanga.png", "group": "other", "rarity": 1}, {"lat": 11.445, "lng": 72.745, "id": "181316", "name": "Saccostrea cuccullata", "sprite": "sp-blue_mussel.png", "group": "clam_mussel", "rarity": 1}]}