{"zoom": 7, "x": 8, "y": 81, "points": [{"lat": -43.22, "lng": -157.43, "id": "1248", "name": "Ctenophora", "sprite": "sp-anchoviella_juruasanga.png", "group": "other", "rarity": 1}, {"lat": -43.22, "lng": -156.68, "id": "101", "name": "Gastropoda", "sprite": "sp-cowrie_shell.png", "group": "sea_snail", "rarity": 1}, {"lat": -43.22, "lng": -156.305, "id": "1128", "name": "Euphausiacea", "sprite": "sp-antarctic_krill.png", "group": "shrimp", "rarity": 1}, {"lat": -43.22, "lng": -156.305, "id": "1371", "name": "Siphonophorae", "sprite": "sp-anchoviella_juruasanga.png", "group": "other", "rarity": 1}, {"lat": -43.22, "lng": -156.305, "id": "1337", "name": "Hydrozoa", "sprite": "sp-anchoviella_juruasanga.png", "group": "other", "rarity": 1}, {"lat": -44.1872, "lng": -156.427, "id": "212642", "name": "Pterodroma lessonii", "sprite": "sp-anchoviella_juruasanga.png", "group": "other", "rarity": 1}, {"lat": -43.22, "lng": -156.305, "id": "11676", "name": "Pisces", "sprite": "sp-anchoviella_juruasanga.png", "group": "other", "rarity": 1}, {"lat": -43.22, "lng": -156.305, "id": "103357", "name": "Appendicularia", "sprite": "sp-anchoviella_juruasanga.png", "group": "other", "rarity": 1}, {"lat": -43.22, "lng": -155.18, "id": "1131", "name": "Isopoda", "sprite": "sp-american_lobster.png", "group": "crab_lobster", "rarity": 1}, {"lat": -44.4257, "lng": -156.3622, "id": "220222", "name": "Eubalaena australis", "sprite": "sp-blue_whale.png", "group": "whale", "rarity": 1}, {"lat": -43.22, "lng": -156.8675, "id": "883", "name": "Polychaeta", "sprite": "sp-anchoviella_juruasanga.png", "group": "other", "rarity": 1}, {"lat": -43.22, "lng": -156.305, "id": "1410", "name": "Foraminifera", "sprite": "sp-anchoviella_juruasanga.png", "group": "other", "rarity": 1}, {"lat": -44.102, "lng": -156.2639, "id": "212583", "name": "Diomedea exulans", "sprite": "sp-anchoviella_juruasanga.png", "group": "other", "rarity": 1}, {"lat": -43.98, "lng": -156.99, "id": "212647", "name": "Pachyptila vittata", "sprite": "sp-anchoviella_juruasanga.png", "group": "other", "rarity": 1}, {"lat": -44.5, "lng": -156.5, "id": "137202", "name": "Puffinus griseus", "sprite": "sp-anchoviella_juruasanga.png", "group": "other", "rarity": 1}, {"lat": -44.0026, "lng": -155.9813, "id": "225975", "name": "Pterodroma magentae", "sprite": "sp-anchoviella_juruasanga.png", "group": "other", "rarity": 1}, {"lat": -43.22, "lng": -156.305, "id": "13703", "name": "Thecosomata", "sprite": "sp-cowrie_shell.png", "group": "sea_snail", "rarity": 1}, {"lat": -44.26, "lng": -155.84, "id": "344007", "name": "Pelecanoides urinatrix", "sprite": "sp-anchoviella_juruasanga.png", "group": "other", "rarity": 1}, {"lat": -43.9765, "lng": -156.2715, "id": "137200", "name": "Puffinus assimilis", "sprite": "sp-anchoviella_juruasanga.png", "group": "other", "rarity": 1}, {"lat": -43.22, "lng": -156.68, "id": "582421", "name": "Radiozoa", "sprite": "sp-anchoviella_juruasanga.png", "group": "other", "rarity": 1}, {"lat": -43.22, "lng": -156.8675, "id": "1135", "name": "Amphipoda", "sprite": "sp-american_lobster.png", "group": "crab_lobster", "rarity": 1}, {"lat": -43.22, "lng": -157.43, "id": "13795", "name": "Epicaridea", "sprite": "sp-american_lobster.png", "group": "crab_lobster", "rarity": 1}, {"lat": -43.22, "lng": -155.18, "id": "137215", "name": "Doliolidae", "sprite": "sp-anchoviella_juruasanga.png", "group": "other", "rarity": 1}, {"lat": -44.0613, "lng": -156.1465, "id": "137199", "name": "Pterodroma mollis", "sprite": "sp-anchoviella_juruasanga.png", "group": "other", "rarity": 1}, {"lat": -43.22, "lng": -155.18, "id": "132", "name": "Epitoniidae", "sprite": "sp-cowrie_shell.png", "group": "sea_snail", "rarity": 1}, {"lat": -43.217, "lng": -155.183, "id": "137222", "name": "Doliolum", "sprite": "sp-anchoviella_juruasanga.png", "group": "other", "rarity": 1}, {"lat": -44.085, "lng": -156.185, "id": "225986", "name": "Puffinus bulleri", "sprite": "sp-anchoviella_juruasanga.png", "group": "other", "rarity": 1}, {"lat": -43.2167, "lng": -155.1833, "id": "125498", "name": "Myctophidae", "sprite": "sp-anchoviella_juruasanga.png", "group": "other", "rarity": 1}, {"lat": -43.8654, "lng": -155.5542, "id": "225760", "name": "Thalassarche chrysostoma", "sprite": "sp-anchoviella_juruasanga.png", "group": "other", "rarity": 1}, {"lat": -43.716, "lng": -154.8867, "id": "379386", "name": "Diomedea sanfordi", "sprite": "sp-anchoviella_juruasanga.png", "group": "other", "rarity": 1}, {"lat": -43.22, "lng": -156.305, "id": "1080", "name": "Copepoda", "sprite": "sp-anchoviella_juruasanga.png", "group": "other", "rarity": 1}, {"lat": -43.22, "lng": -157.43, "id": "387338", "name": "Pterotracheoidea", "sprite": "sp-cowrie_shell.png", "group": "sea_snail", "rarity": 1}, {"lat": -43.21, "lng": -157.415, "id": "125823", "name": "Hygophum", "sprite": "sp-anchoviella_juruasanga.png", "group": "other", "rarity": 1}, {"lat": -43.22, "lng": -156.1443, "id": "2081", "name": "Chaetognatha", "sprite": "sp-anchoviella_juruasanga.png", "group": "other", "rarity": 1}, {"lat": -43.22, "lng": -157.43, "id": "1267", "name": "Cnidaria", "sprite": "sp-anchoviella_juruasanga.png", "group": "other", "rarity": 1}]}