{"zoom": 7, "x": 90, "y": 58, "points": [{"lat": 15.0333, "lng": 73.5019, "id": "958", "name": "Tomopteridae", "sprite": "sp-anchoviella_juruasanga.png", "group": "other", "rarity": 1}, {"lat": 14.5167, "lng": 73.2, "id": "437947", "name": "Candida", "sprite": "sp-anchoviella_juruasanga.png", "group": "other", "rarity": 1}, {"lat": 15.3767, "lng": 73.8506, "id": "211551", "name": "Gracilaria corticata", "sprite": "sp-anchoviella_juruasanga.png", "group": "other", "rarity": 1}, {"lat": 14.13, "lng": 73.49, "id": "107478", "name": "Alpheus lobidens", "sprite": "sp-american_lobster.png", "group": "crab_lobster", "rarity": 1}, {"lat": 15.48, "lng": 73.79, "id": "217364", "name": "Spadenose shark", "thumb": "tn_Sclat_u0.jpg", "sprite": "sp-great_white_shark.png", "group": "shark", "rarity": 1, "waterType": "Brackish"}, {"lat": 15.12, "lng": 73.9024, "id": "394106", "name": "Piscirickettsiaceae", "sprite": "sp-anchoviella_juruasanga.png", "group": "other", "rarity": 1}, {"lat": 15.5097, "lng": 73.8831, "id": "571094", "name": "Castellaniella", "sprite": "sp-anchoviella_juruasanga.png", "group": "other", "rarity": 1}, {"lat": 15.3648, "lng": 73.8652, "id": "494899", "name": "Sargassum ilicifolium", "sprite": "sp-anchoviella_juruasanga.png", "group": "other", "rarity": 1}, {"lat": 15.475, "lng": 73.78, "id": "208814", "name": "Scylla serrata", "sprite": "sp-american_lobster.png", "group": "crab_lobster", "rarity": 1}, {"lat": 14.8394, "lng": 74.4875, "id": "235069", "name": "Aegiceras corniculatum", "sprite": "sp-anchoviella_juruasanga.png", "group": "other", "rarity": 1}, {"lat": 15.2759, "lng": 73.8947, "id": "571416", "name": "Ensifer", "sprite": "sp-anchoviella_juruasanga.png", "group": "other", "rarity": 1}, {"lat": 14.5, "lng": 73.5, "id": "333865", "name": "Lumbrineris bifilaris", "sprite": "sp-anchoviella_juruasanga.png", "group": "other", "rarity": 1}, {"lat": 15.8694, "lng": 73.675, "id": "209756", "name": "Namalycastis indica", "sprite": "sp-anchoviella_juruasanga.png", "group": "other", "rarity": 1}, {"lat": 14.0167, "lng": 74.4532, "id": "109550", "name": "Podolampas", "sprite": "sp-anchoviella_juruasanga.png", "group": "other", "rarity": 1}, {"lat": 15.0611, "lng": 74.3177, "id": "144531", "name": "Centroceras clavulatum", "sprite": "sp-anchoviella_juruasanga.png", "group": "other", "rarity": 1}, {"lat": 14.13, "lng": 73.49, "id": "107555", "name": "Parapontophilus gracilis", "sprite": "sp-american_lobster.png", "group": "crab_lobster", "rarity": 1}, {"lat": 13.9678, "lng": 73.242, "id": "129404", "name": "Onuphis", "sprite": "sp-anchoviella_juruasanga.png", "group": "other", "rarity": 1}, {"lat": 14.4915, "lng": 73.3205, "id": "615435", "name": "Helicosphaera carteri", "sprite": "sp-anchoviella_juruasanga.png", "group": "other", "rarity": 1}, {"lat": 15.6525, "lng": 73.7994, "id": "571310", "name": "Sulfuricurvum", "sprite": "sp-anchoviella_juruasanga.png", "group": "other", "rarity": 1}, {"lat": 14.5, "lng": 73.5, "id": "431332", "name": "Americorophium triaeonyx", "sprite": "sp-american_lobster.png", "group": "crab_lobster", "rarity": 1}, {"lat": 15.48, "lng": 73.79, "id": "220044", "name": "Bald glassy", "thumb": "tn_Amgym_u1.jpg", "sprite": "sp-anchoviella_juruasanga.png", "group": "other", "rarity": 1, "waterType": "Brackish"}, {"lat": 15.48, "lng": 73.79, "id": "218498", "name": "Mangrove red snapper", "thumb": "tn_Luarg_uh.jpg", "sprite": "sp-mutton_snapper.png", "group": "snapper", "rarity": 1, "waterType": "Brackish"}, {"lat": 15.6525, "lng": 73.7994, "id": "571398", "name": "Thermincola", "sprite": "sp-anchoviella_juruasanga.png", "group": "other", "rarity": 1}, {"lat": 14.0167, "lng": 74.4532, "id": "145369", "name": "Dictyota fasciola", "sprite": "sp-anchoviella_juruasanga.png", "group": "other", "rarity": 1}, {"lat": 15.3875, "lng": 73.8643, "id": "571302", "name": "Gemmatimonas", "sprite": "sp-anchoviella_juruasanga.png", "group": "other", "rarity": 1}, {"lat": 15.5204, "lng": 73.8449, "id": "565568", "name": "Planctomyces", "sprite": "sp-anchoviella_juruasanga.png", "group": "other", "rarity": 1}, {"lat": 14.13, "lng": 73.49, "id": "220269", "name": "Metapenaeopsis hilarula", "sprite": "sp-american_lobster.png", "group": "crab_lobster", "rarity": 1}, {"lat": 15.5811, "lng": 73.8413, "id": "394101", "name": "Rhodovulum", "sprite": "sp-anchoviella_juruasanga.png", "group": "other", "rarity": 1}, {"lat": 14.9632, "lng": 74.0277, "id": "983464", "name": "Fragilaria oceanica f. oceanica", "sprite": "sp-anchoviella_juruasanga.png", "group": "other", "rarity": 1}, {"lat": 15.3833, "lng": 73.8833, "id": "437880", "name": "Zopfiella marina", "sprite": "sp-anchoviella_juruasanga.png", "group": "other", "rarity": 1}, {"lat": 15.8567, "lng": 73.6067, "id": "849071", "name": "Alaona ala", "sprite": "sp-blue_mussel.png", "group": "clam_mussel", "rarity": 1}, {"lat": 15.12, "lng": 73.9024, "id": "563899", "name": "Maribacter", "sprite": "sp-anchoviella_juruasanga.png", "group": "other", "rarity": 1}, {"lat": 15.6525, "lng": 73.7994, "id": "393990", "name": "Kordiimonas", "sprite": "sp-anchoviella_juruasanga.png", "group": "other", "rarity": 1}, {"lat": 15.47, "lng": 73.77, "id": "126061", "name": "Rastrelliger", "sprite": "sp-bluefin_tuna.png", "group": "tuna_mackerel", "rarity": 1}, {"lat": 15.0333, "lng": 73.5019, "id": "146420", "name": "Tunicata", "sprite": "sp-anchoviella_juruasanga.png", "group": "other", "rarity": 1}, {"lat": 15.58, "lng": 73.73, "id": "283335", "name": "Anthopleura anjunae", "sprite": "sp-actiniidae.png", "group": "coral", "rarity": 1}, {"lat": 15.4363, "lng": 73.2982, "id": "120764", "name": "Dichromadora geophila", "sprite": "sp-anchoviella_juruasanga.png", "group": "other", "rarity": 1}, {"lat": 14.02, "lng": 73.78, "id": "167770", "name": "Clathria (Thalysias) procera", "sprite": "sp-barrel_sponge.png", "group": "sponge", "rarity": 1}, {"lat": 14.13, "lng": 73.49, "id": "210424", "name": "Solenocera hextii", "sprite": "sp-american_lobster.png", "group": "crab_lobster", "rarity": 1}, {"lat": 16.2014, "lng": 73.4455, "id": "171287", "name": "Cinachyrella", "sprite": "sp-barrel_sponge.png", "group": "sponge", "rarity": 1}, {"lat": 15.495, "lng": 73.86, "id": "456742", "name": "Babylonia spirata", "sprite": "sp-cowrie_shell.png", "group": "sea_snail", "rarity": 1}, {"lat": 14.8811, "lng": 74.7261, "id": "269185", "name": "Garra", "sprite": "sp-enteromius.png", "group": "carp_minnow", "rarity": 1}, {"lat": 14.13, "lng": 73.49, "id": "514518", "name": "Cuapetes grandis", "sprite": "sp-american_lobster.png", "group": "crab_lobster", "rarity": 1}, {"lat": 15.5811, "lng": 73.8413, "id": "393926", "name": "Parvibaculum", "sprite": "sp-anchoviella_juruasanga.png", "group": "other", "rarity": 1}, {"lat": 14.0167, "lng": 74.4532, "id": "376384", "name": "Hydropuntia edulis", "sprite": "sp-anchoviella_juruasanga.png", "group": "other", "rarity": 1}, {"lat": 15.0042, "lng": 73.2849, "id": "346210", "name": "Calanopia thompsoni", "sprite": "sp-anchoviella_juruasanga.png", "group": "other", "rarity": 1}, {"lat": 14.13, "lng": 73.49, "id": "883867", "name": "Belzebub faxoni", "sprite": "sp-american_lobster.png", "group": "crab_lobster", "rarity": 1}, {"lat": 14.02, "lng": 74.33, "id": "165538", "name": "Dragmacidon agariciforme", "sprite": "sp-barrel_sponge.png", "group": "sponge", "rarity": 1}, {"lat": 15.5573, "lng": 73.8552, "id": "570924", "name": "Alicyclobacillus", "sprite": "sp-anchoviella_juruasanga.png", "group": "other", "rarity": 1}, {"lat": 14.4915, "lng": 73.3205, "id": "235962", "name": "Oolithotus fragilis", "sprite": "sp-anchoviella_juruasanga.png", "group": "other", "rarity": 1}, {"lat": 15.5097, "lng": 73.8831, "id": "571307", "name": "Halothermothrix", "sprite": "sp-anchoviella_juruasanga.png", "group": "other", "rarity": 1}, {"lat": 15.415, "lng": 73.7282, "id": "284602", "name": "Eutima commensalis", "sprite": "sp-anchoviella_juruasanga.png", "group": "other", "rarity": 1}, {"lat": 15.12, "lng": 73.9024, "id": "570208", "name": "Syntrophobacteraceae", "sprite": "sp-anchoviella_juruasanga.png", "group": "other", "rarity": 1}, {"lat": 15.48, "lng": 73.79, "id": "273993", "name": "Chinese silver pomfret", "thumb": "tn_Pachi_u5.jpg", "sprite": "sp-anchoviella_juruasanga.png", "group": "other", "rarity": 1, "waterType": "Brackish"}, {"lat": 14.1283, "lng": 74.0853, "id": "131521", "name": "Pista unibranchia", "sprite": "sp-anchoviella_juruasanga.png", "group": "other", "rarity": 1}, {"lat": 14.4915, "lng": 73.4625, "id": "113473", "name": "Neogloboquadrina dutertrei", "sprite": "sp-anchoviella_juruasanga.png", "group": "other", "rarity": 1}, {"lat": 14.13, "lng": 73.49, "id": "514332", "name": "Nematocarcinus tenuirostris", "sprite": "sp-american_lobster.png", "group": "crab_lobster", "rarity": 1}, {"lat": 15.4365, "lng": 73.815, "id": "841260", "name": "Tripos macroceros", "sprite": "sp-anchoviella_juruasanga.png", "group": "other", "rarity": 1}, {"lat": 14.2496, "lng": 73.2341, "id": "884697", "name": "Kirkegaardia annulosa", "sprite": "sp-anchoviella_juruasanga.png", "group": "other", "rarity": 1}, {"lat": 14.75, "lng": 73.35, "id": "110673", "name": "Euphausia", "sprite": "sp-antarctic_krill.png", "group": "shrimp", "rarity": 1}, {"lat": 15.1846, "lng": 73.3616, "id": "1078", "name": "Ostracoda", "sprite": "sp-anchoviella_juruasanga.png", "group": "other", "rarity": 1}, {"lat": 14.3069, "lng": 73.7815, "id": "130711", "name": "Poecilochaetus serpens", "sprite": "sp-anchoviella_juruasanga.png", "group": "other", "rarity": 1}, {"lat": 15.0489, "lng": 74.03, "id": "218236", "name": "Spinycheek grouper", "thumb": "tn_Epdia_u1.jpg", "sprite": "sp-chelidoperca_santosi.png", "group": "grouper", "rarity": 1, "waterType": "Saltwater"}, {"lat": 14.0167, "lng": 74.4532, "id": "143804", "name": "Spongomorpha", "sprite": "sp-anchoviella_juruasanga.png", "group": "other", "rarity": 1}, {"lat": 14.885, "lng": 74.25, "id": "218641", "name": "Tigertooth croaker", "thumb": "tn_Otrub_u6.jpg", "sprite": "sp-anchoviella_juruasanga.png", "group": "other", "rarity": 1, "waterType": "Brackish"}, {"lat": 15.4625, "lng": 73.794, "id": "218539", "name": "Harry hotlips", "thumb": "tn_Plgib_u6.jpg", "sprite": "sp-anchoviella_juruasanga.png", "group": "other", "rarity": 1, "waterType": "Brackish"}, {"lat": 15.8799, "lng": 73.556, "id": "700395", "name": "Caulerpa chemnitzia", "sprite": "sp-anchoviella_juruasanga.png", "group": "other", "rarity": 1}, {"lat": 15.517, "lng": 73.9, "id": "282082", "name": "Half-mourning croaker", "thumb": "tn_Pasem_u1.jpg", "sprite": "sp-anchoviella_juruasanga.png", "group": "other", "rarity": 1, "waterType": "Saltwater"}, {"lat": 15.0329, "lng": 73.5005, "id": "2", "name": "Animalia", "sprite": "sp-anchoviella_juruasanga.png", "group": "other", "rarity": 1}, {"lat": 14.13, "lng": 73.49, "id": "107549", "name": "Aegaeon lacazei", "sprite": "sp-american_lobster.png", "group": "crab_lobster", "rarity": 1}, {"lat": 15.3476, "lng": 73.879, "id": "559998", "name": "Flavobacteriales", "sprite": "sp-anchoviella_juruasanga.png", "group": "other", "rarity": 1}, {"lat": 15.48, "lng": 73.79, "id": "398626", "name": "Comb goby", "thumb": "tn_Ctmic_u0.jpg", "sprite": "sp-eviota_bipunctata.png", "group": "goby", "rarity": 1, "waterType": "Brackish"}, {"lat": 15.2433, "lng": 74.0167, "id": "127046", "name": "Silver sillago", "thumb": "tn_Sisih_ua.jpg", "sprite": "sp-anchoviella_juruasanga.png", "group": "other", "rarity": 1, "waterType": "Brackish"}, {"lat": 15.27, "lng": 73.7966, "id": "220048", "name": "Glowbelly", "thumb": "tn_Acjap_u4.jpg", "sprite": "sp-anchoviella_juruasanga.png", "group": "other", "rarity": 1, "waterType": "Saltwater"}, {"lat": 15.4274, "lng": 73.8616, "id": "571126", "name": "Cupriavidus", "sprite": "sp-anchoviella_juruasanga.png", "group": "other", "rarity": 1}, {"lat": 15.6525, "lng": 73.7994, "id": "393623", "name": "Oceanicola", "sprite": "sp-anchoviella_juruasanga.png", "group": "other", "rarity": 1}, {"lat": 14.7924, "lng": 73.3391, "id": "220838", "name": "Acrocalanus gracilis", "sprite": "sp-anchoviella_juruasanga.png", "group": "other", "rarity": 1}, {"lat": 15.3798, "lng": 73.8895, "id": "570028", "name": "Bacteriovoracaceae", "sprite": "sp-anchoviella_juruasanga.png", "group": "other", "rarity": 1}, {"lat": 16.25, "lng": 73.6667, "id": "106422", "name": "Oithonidae", "sprite": "sp-anchoviella_juruasanga.png", "group": "other", "rarity": 1}, {"lat": 15.47, "lng": 73.77, "id": "224891", "name": "Meretrix meretrix", "sprite": "sp-blue_mussel.png", "group": "clam_mussel", "rarity": 1}, {"lat": 15.0042, "lng": 73.2849, "id": "106651", "name": "Oithona nana", "sprite": "sp-anchoviella_juruasanga.png", "group": "other", "rarity": 1}, {"lat": 15.583, "lng": 74.0, "id": "815159", "name": "Nodilittorina quadricincta", "sprite": "sp-cowrie_shell.png", "group": "sea_snail", "rarity": 1}, {"lat": 15.5097, "lng": 73.8831, "id": "565596", "name": "Aurantimonadaceae", "sprite": "sp-anchoviella_juruasanga.png", "group": "other", "rarity": 1}, {"lat": 16.33, "lng": 73.39, "id": "131751", "name": "Ircinia", "sprite": "sp-barrel_sponge.png", "group": "sponge", "rarity": 1}, {"lat": 16.0667, "lng": 73.4667, "id": "475211", "name": "Vertebrata lanosa", "sprite": "sp-anchoviella_juruasanga.png", "group": "other", "rarity": 1}, {"lat": 14.0186, "lng": 74.3271, "id": "219014", "name": "Bluestreak cleaner wrasse", "thumb": "tn_Ladim_u2.jpg", "sprite": "sp-cleaner_wrasse.png", "group": "wrasse", "rarity": 1, "waterType": "Saltwater"}, {"lat": 14.0167, "lng": 74.4532, "id": "143853", "name": "Polysiphonia", "sprite": "sp-anchoviella_juruasanga.png", "group": "other", "rarity": 1}, {"lat": 14.13, "lng": 73.49, "id": "1390997", "name": "Bathicaris iridescens", "sprite": "sp-american_lobster.png", "group": "crab_lobster", "rarity": 1}, {"lat": 14.0167, "lng": 74.4532, "id": "976545", "name": "Navicula splendida var. splendida", "sprite": "sp-anchoviella_juruasanga.png", "group": "other", "rarity": 1}, {"lat": 15.12, "lng": 73.9024, "id": "559871", "name": "Tannerella", "sprite": "sp-anchoviella_juruasanga.png", "group": "other", "rarity": 1}, {"lat": 16.0667, "lng": 73.4667, "id": "211642", "name": "Halymenia dilatata", "sprite": "sp-anchoviella_juruasanga.png", "group": "other", "rarity": 1}, {"lat": 15.44, "lng": 73.83, "id": "231888", "name": "Stephanopyxis palmeriana", "sprite": "sp-anchoviella_juruasanga.png", "group": "other", "rarity": 1}, {"lat": 15.2376, "lng": 73.6841, "id": "106858", "name": "Parapagurus", "sprite": "sp-american_lobster.png", "group": "crab_lobster", "rarity": 1}, {"lat": 15.5028, "lng": 73.8191, "id": "205632", "name": "Menella", "sprite": "sp-actiniidae.png", "group": "coral", "rarity": 1}, {"lat": 15.3505, "lng": 73.8718, "id": "570402", "name": "Ectothiorhodospira", "sprite": "sp-anchoviella_juruasanga.png", "group": "other", "rarity": 1}, {"lat": 15.6239, "lng": 73.8162, "id": "571124", "name": "Peptococcaceae", "sprite": "sp-anchoviella_juruasanga.png", "group": "other", "rarity": 1}, {"lat": 14.89, "lng": 74.08, "id": "131808", "name": "Hymeniacidon", "sprite": "sp-barrel_sponge.png", "group": "sponge", "rarity": 1}, {"lat": 15.0042, "lng": 73.2849, "id": "104483", "name": "Candacia pachydactyla", "sprite": "sp-anchoviella_juruasanga.png", "group": "other", "rarity": 1}, {"lat": 15.077, "lng": 73.468, "id": "127862", "name": "Pseudoconchoecia concentrica", "sprite": "sp-anchoviella_juruasanga.png", "group": "other", "rarity": 1}, {"lat": 15.07, "lng": 73.5045, "id": "325345", "name": "Pteropoda", "sprite": "sp-cowrie_shell.png", "group": "sea_snail", "rarity": 1}, {"lat": 15.5018, "lng": 73.819, "id": "267922", "name": "Trimuricea", "sprite": "sp-actiniidae.png", "group": "coral", "rarity": 1}, {"lat": 15.48, "lng": 73.79, "id": "212257", "name": "Dorab wolf-herring", "thumb": "tn_Chdor_u1.jpg", "sprite": "sp-anchoviella_juruasanga.png", "group": "other", "rarity": 1, "waterType": "Brackish"}, {"lat": 15.5097, "lng": 73.8831, "id": "563886", "name": "Lutibacter", "sprite": "sp-anchoviella_juruasanga.png", "group": "other", "rarity": 1}, {"lat": 15.2074, "lng": 73.893, "id": "393034", "name": "Marinobacter", "sprite": "sp-anchoviella_juruasanga.png", "group": "other", "rarity": 1}, {"lat": 15.47, "lng": 73.7832, "id": "283034", "name": "Short-nosed tripodfish", "thumb": "tn_Trbia_u3.jpg", "sprite": "sp-anchoviella_juruasanga.png", "group": "other", "rarity": 1, "waterType": "Brackish"}, {"lat": 14.5667, "lng": 73.4167, "id": "244554", "name": "Atlanta oligogyra", "sprite": "sp-cowrie_shell.png", "group": "sea_snail", "rarity": 1}, {"lat": 15.0042, "lng": 73.2849, "id": "346026", "name": "Acartia (Acartia) danae", "sprite": "sp-anchoviella_juruasanga.png", "group": "other", "rarity": 1}, {"lat": 15.44, "lng": 73.83, "id": "149506", "name": "Pleurosigma aestuarii", "sprite": "sp-anchoviella_juruasanga.png", "group": "other", "rarity": 1}, {"lat": 15.12, "lng": 73.9024, "id": "571510", "name": "Quinella", "sprite": "sp-anchoviella_juruasanga.png", "group": "other", "rarity": 1}, {"lat": 15.4383, "lng": 73.3081, "id": "129278", "name": "Eunice", "sprite": "sp-anchoviella_juruasanga.png", "group": "other", "rarity": 1}, {"lat": 15.121, "lng": 74.024, "id": "281616", "name": "Long whiskers catfish", "thumb": "tn_Mygul_u2.jpg", "sprite": "sp-blue_catfish.png", "group": "catfish", "rarity": 1, "waterType": "Brackish"}, {"lat": 15.0, "lng": 73.5, "id": "161450", "name": "Anchialina dentata", "sprite": "sp-american_lobster.png", "group": "crab_lobster", "rarity": 1}, {"lat": 14.95, "lng": 73.6833, "id": "354636", "name": "Parvocalanus elegans", "sprite": "sp-anchoviella_juruasanga.png", "group": "other", "rarity": 1}, {"lat": 15.44, "lng": 73.83, "id": "963482", "name": "Nitzschia closterium", "sprite": "sp-anchoviella_juruasanga.png", "group": "other", "rarity": 1}, {"lat": 15.12, "lng": 73.9024, "id": "571161", "name": "Desulfurella", "sprite": "sp-anchoviella_juruasanga.png", "group": "other", "rarity": 1}, {"lat": 15.12, "lng": 73.9024, "id": "571485", "name": "Syntrophomonadaceae", "sprite": "sp-anchoviella_juruasanga.png", "group": "other", "rarity": 1}, {"lat": 15.5833, "lng": 74.25, "id": "363597", "name": "Paracalanus parvus indicus", "sprite": "sp-anchoviella_juruasanga.png", "group": "other", "rarity": 1}, {"lat": 15.6525, "lng": 73.7994, "id": "571363", "name": "Myxococcus", "sprite": "sp-anchoviella_juruasanga.png", "group": "other", "rarity": 1}, {"lat": 14.5667, "lng": 73.4167, "id": "430422", "name": "Atlanta inclinata", "sprite": "sp-cowrie_shell.png", "group": "sea_snail", "rarity": 1}, {"lat": 14.29, "lng": 74.71, "id": "281072", "name": "Stinging catfish", "thumb": "tn_Hefos_u5.jpg", "sprite": "sp-blue_catfish.png", "group": "catfish", "rarity": 1, "waterType": "Brackish"}]}