{"zoom": 7, "x": 90, "y": 60, "points": [{"lat": 10.07, "lng": 73.62, "id": "210372", "name": "Penaeus latisulcatus", "sprite": "sp-american_lobster.png", "group": "crab_lobster", "rarity": 1}, {"lat": 10.0, "lng": 75.0, "id": "274193", "name": "Largescale tonguesole", "thumb": "tn_Cyare_u1.jpg", "sprite": "sp-atlantic_halibut.png", "group": "flatfish", "rarity": 1, "waterType": "Brackish"}, {"lat": 9.3521, "lng": 74.4863, "id": "105719", "name": "Carcharhinus", "sprite": "sp-great_white_shark.png", "group": "shark", "rarity": 1}, {"lat": 10.2452, "lng": 75.6982, "id": "131435", "name": "Syllis gracilis", "sprite": "sp-anchoviella_juruasanga.png", "group": "other", "rarity": 1}, {"lat": 9.5917, "lng": 74.2833, "id": "104208", "name": "Labidocera", "sprite": "sp-anchoviella_juruasanga.png", "group": "other", "rarity": 1}, {"lat": 9.7713, "lng": 73.9558, "id": "219729", "name": "Indo-Pacific blue marlin", "thumb": "tn_Mamaz_u2.jpg", "sprite": "sp-blue_marlin.png", "group": "swordfish", "rarity": 1, "waterType": "Saltwater"}, {"lat": 11.1306, "lng": 75.8325, "id": "233493", "name": "Protoperidinium applanatum", "sprite": "sp-anchoviella_juruasanga.png", "group": "other", "rarity": 1}, {"lat": 9.4555, "lng": 75.3056, "id": "1436445", "name": "Pleuromamma gracilis gracilis", "sprite": "sp-anchoviella_juruasanga.png", "group": "other", "rarity": 1}, {"lat": 10.081, "lng": 73.629, "id": "234474", "name": "Ulva linza", "sprite": "sp-anchoviella_juruasanga.png", "group": "other", "rarity": 1}, {"lat": 11.17, "lng": 75.809, "id": "212289", "name": "Longjaw thryssa", "thumb": "tn_Thset_u0.jpg", "sprite": "sp-anchoviella_juruasanga.png", "group": "anchovy", "rarity": 1, "waterType": "Brackish"}, {"lat": 9.1833, "lng": 75.7167, "id": "104232", "name": "Scottocalanus", "sprite": "sp-anchoviella_juruasanga.png", "group": "other", "rarity": 1}, {"lat": 9.6517, "lng": 74.9105, "id": "745865", "name": "Paracalanus parvus parvus", "sprite": "sp-anchoviella_juruasanga.png", "group": "other", "rarity": 1}, {"lat": 10.02, "lng": 75.64, "id": "282922", "name": "Longfin dragonfish", "sprite": "sp-anchoviella_juruasanga.png", "group": "other", "rarity": 1, "waterType": "Saltwater"}, {"lat": 9.7778, "lng": 75.9167, "id": "236680", "name": "Harmothoe serrata", "sprite": "sp-anchoviella_juruasanga.png", "group": "other", "rarity": 1}, {"lat": 10.07, "lng": 73.62, "id": "218669", "name": "Red Sea goatfish", "thumb": "tn_Pafor_u8.jpg", "sprite": "sp-anchoviella_juruasanga.png", "group": "other", "rarity": 1, "waterType": "Brackish"}, {"lat": 10.07, "lng": 73.62, "id": "219058", "name": "Bluelined wrasse", "thumb": "tn_Stalb_m0.jpg", "sprite": "sp-cleaner_wrasse.png", "group": "wrasse", "rarity": 1, "waterType": "Saltwater"}, {"lat": 11.1306, "lng": 75.8325, "id": "163473", "name": "Coscinodiscus subtilis", "sprite": "sp-anchoviella_juruasanga.png", "group": "other", "rarity": 1}, {"lat": 10.9167, "lng": 75.7833, "id": "275388", "name": "Brown numbfish", "thumb": "tn_Nabru_u0.jpg", "sprite": "sp-himantura_australis.png", "group": "ray", "rarity": 1, "waterType": "Saltwater"}, {"lat": 10.07, "lng": 73.62, "id": "208062", "name": "Terebra babylonia", "sprite": "sp-cowrie_shell.png", "group": "sea_snail", "rarity": 1}, {"lat": 9.6514, "lng": 75.0055, "id": "450886", "name": "Cypridina dentata", "sprite": "sp-anchoviella_juruasanga.png", "group": "other", "rarity": 1}, {"lat": 10.07, "lng": 73.62, "id": "210914", "name": "Stichopus horrens", "sprite": "sp-sea_cucumber.png", "group": "starfish", "rarity": 1}, {"lat": 10.07, "lng": 73.62, "id": "1063207", "name": "Nebularia ferruginea", "sprite": "sp-cowrie_shell.png", "group": "sea_snail", "rarity": 1}, {"lat": 10.07, "lng": 73.62, "id": "510448", "name": "Bulla vernicosa", "sprite": "sp-cowrie_shell.png", "group": "sea_snail", "rarity": 1}, {"lat": 10.07, "lng": 73.62, "id": "218726", "name": "Blackwedged butterflyfish", "thumb": "tn_Chfal_u5.jpg", "sprite": "sp-chaetodon.png", "group": "butterflyfish", "rarity": 1, "waterType": "Saltwater"}, {"lat": 11.1306, "lng": 75.8325, "id": "149122", "name": "Chaetoceros didymus", "sprite": "sp-anchoviella_juruasanga.png", "group": "other", "rarity": 1}, {"lat": 9.6664, "lng": 75.035, "id": "22990", "name": "Atlantidae", "sprite": "sp-cowrie_shell.png", "group": "sea_snail", "rarity": 1}, {"lat": 9.9468, "lng": 75.5762, "id": "137098", "name": "Grampus griseus", "sprite": "sp-bottlenose_dolphin.png", "group": "dolphin", "rarity": 1}, {"lat": 10.0908, "lng": 75.4283, "id": "129337", "name": "Lumbrineris", "sprite": "sp-anchoviella_juruasanga.png", "group": "other", "rarity": 1}, {"lat": 9.6798, "lng": 74.998, "id": "1762", "name": "Nudibranchia", "sprite": "sp-cowrie_shell.png", "group": "sea_snail", "rarity": 1}, {"lat": 9.0195, "lng": 75.4412, "id": "129241", "name": "Caulleriella", "sprite": "sp-anchoviella_juruasanga.png", "group": "other", "rarity": 1}, {"lat": 10.07, "lng": 73.62, "id": "1075041", "name": "Naria marginalis", "sprite": "sp-cowrie_shell.png", "group": "sea_snail", "rarity": 1}, {"lat": 10.2007, "lng": 75.5748, "id": "130702", "name": "Sigambra parva", "sprite": "sp-anchoviella_juruasanga.png", "group": "other", "rarity": 1}, {"lat": 9.1833, "lng": 75.7167, "id": "346234", "name": "Candacia bradyi", "sprite": "sp-anchoviella_juruasanga.png", "group": "other", "rarity": 1}, {"lat": 10.07, "lng": 73.62, "id": "219875", "name": "Titan triggerfish", "thumb": "tn_Bavir_u2.jpg", "sprite": "sp-balistidae.png", "group": "triggerfish", "rarity": 1, "waterType": "Saltwater"}, {"lat": 9.7739, "lng": 75.695, "id": "471415", "name": "Steginoporella buskii", "sprite": "sp-anchoviella_juruasanga.png", "group": "other", "rarity": 1}, {"lat": 9.322, "lng": 75.6546, "id": "131574", "name": "Trichobranchus glacialis", "sprite": "sp-anchoviella_juruasanga.png", "group": "other", "rarity": 1}, {"lat": 9.6101, "lng": 75.472, "id": "129898", "name": "Notomastus latericeus", "sprite": "sp-anchoviella_juruasanga.png", "group": "other", "rarity": 1}, {"lat": 9.0195, "lng": 75.4412, "id": "325585", "name": "Aricidea (Aedicira)", "sprite": "sp-anchoviella_juruasanga.png", "group": "other", "rarity": 1}, {"lat": 10.317, "lng": 75.617, "id": "346242", "name": "Candacia tuberculata", "sprite": "sp-anchoviella_juruasanga.png", "group": "other", "rarity": 1}, {"lat": 10.085, "lng": 74.7195, "id": "127016", "name": "Frigate tuna", "thumb": "tn_Autha_u1.jpg", "sprite": "sp-bluefin_tuna.png", "group": "tuna_mackerel", "rarity": 1, "waterType": "Saltwater"}, {"lat": 10.07, "lng": 73.62, "id": "207610", "name": "Linckia laevigata", "sprite": "sp-sea_cucumber.png", "group": "starfish", "rarity": 1}, {"lat": 9.7722, "lng": 75.6883, "id": "129654", "name": "Exogone", "sprite": "sp-anchoviella_juruasanga.png", "group": "other", "rarity": 1}, {"lat": 9.5364, "lng": 74.9288, "id": "1080", "name": "Copepoda", "sprite": "sp-anchoviella_juruasanga.png", "group": "other", "rarity": 1}, {"lat": 10.07, "lng": 73.62, "id": "564243", "name": "Oxymeris crenulata", "sprite": "sp-cowrie_shell.png", "group": "sea_snail", "rarity": 1}, {"lat": 9.9306, "lng": 75.6281, "id": "159700", "name": "Fat sleeper", "thumb": "tn_Domac_u1.jpg", "sprite": "sp-anchoviella_juruasanga.png", "group": "other", "rarity": 1, "waterType": "Brackish"}, {"lat": 9.6458, "lng": 75.6208, "id": "217608", "name": "Polyipnus indicus", "thumb": "tn_Poind_u1.gif", "sprite": "sp-anchoviella_juruasanga.png", "group": "other", "rarity": 1, "waterType": "Saltwater"}, {"lat": 9.5482, "lng": 74.9849, "id": "104597", "name": "Lucicutia flavicornis", "sprite": "sp-anchoviella_juruasanga.png", "group": "other", "rarity": 1}, {"lat": 10.2245, "lng": 75.539, "id": "332892", "name": "Aglaophamus dibranchis", "sprite": "sp-anchoviella_juruasanga.png", "group": "other", "rarity": 1}, {"lat": 10.07, "lng": 73.62, "id": "207040", "name": "Acropora selago", "sprite": "sp-actiniidae.png", "group": "coral", "rarity": 1}, {"lat": 10.4742, "lng": 75.4253, "id": "122037", "name": "Oxystomina clavicauda", "sprite": "sp-anchoviella_juruasanga.png", "group": "other", "rarity": 1}, {"lat": 11.02, "lng": 75.09, "id": "244163", "name": "Ophiothrix (Ophiothrix) aristulata", "sprite": "sp-sea_cucumber.png", "group": "starfish", "rarity": 1}, {"lat": 11.1306, "lng": 75.8325, "id": "984148", "name": "Navicula notabilis f. notabilis", "sprite": "sp-anchoviella_juruasanga.png", "group": "other", "rarity": 1}, {"lat": 9.7778, "lng": 75.9167, "id": "331109", "name": "Prionospio cornuta", "sprite": "sp-anchoviella_juruasanga.png", "group": "other", "rarity": 1}, {"lat": 10.783, "lng": 73.75, "id": "273149", "name": "Myers' pomfret", "thumb": "tn_Brmye_u0.jpg", "sprite": "sp-anchoviella_juruasanga.png", "group": "other", "rarity": 1, "waterType": "Saltwater"}, {"lat": 11.1306, "lng": 75.8325, "id": "963066", "name": "Navicula mutica", "sprite": "sp-anchoviella_juruasanga.png", "group": "other", "rarity": 1}, {"lat": 10.65, "lng": 75.367, "id": "176661", "name": "Bathyconchoecia georgei", "sprite": "sp-anchoviella_juruasanga.png", "group": "other", "rarity": 1}, {"lat": 11.1306, "lng": 75.8325, "id": "149274", "name": "Coscinodiscus asteromphalus", "sprite": "sp-anchoviella_juruasanga.png", "group": "other", "rarity": 1}, {"lat": 9.9929, "lng": 75.5961, "id": "126395", "name": "Splendid alfonsino", "thumb": "tn_Bespl_ui.jpg", "sprite": "sp-anchoviella_juruasanga.png", "group": "other", "rarity": 1, "waterType": "Saltwater"}, {"lat": 10.95, "lng": 75.117, "id": "127530", "name": "Bathyconchoecia", "sprite": "sp-anchoviella_juruasanga.png", "group": "other", "rarity": 1}, {"lat": 10.483, "lng": 75.71, "id": "120936", "name": "Halichoanolaimus dolichurus", "sprite": "sp-anchoviella_juruasanga.png", "group": "other", "rarity": 1}, {"lat": 10.0, "lng": 75.0, "id": "218590", "name": "King soldier bream", "thumb": "tn_Arspi_u2.jpg", "sprite": "sp-anchoviella_juruasanga.png", "group": "other", "rarity": 1, "waterType": "Saltwater"}, {"lat": 10.07, "lng": 73.62, "id": "149789", "name": "Stichopus chloronotus", "sprite": "sp-sea_cucumber.png", "group": "starfish", "rarity": 1}, {"lat": 9.91, "lng": 75.59, "id": "213178", "name": "Stellaster childreni", "sprite": "sp-sea_cucumber.png", "group": "starfish", "rarity": 1}, {"lat": 11.1306, "lng": 75.8325, "id": "149376", "name": "Cocconeis scutellum", "sprite": "sp-anchoviella_juruasanga.png", "group": "other", "rarity": 1}, {"lat": 9.3998, "lng": 75.7579, "id": "129233", "name": "Spiochaetopterus", "sprite": "sp-anchoviella_juruasanga.png", "group": "other", "rarity": 1}, {"lat": 10.07, "lng": 73.62, "id": "207607", "name": "Linckia multifora", "sprite": "sp-sea_cucumber.png", "group": "starfish", "rarity": 1}, {"lat": 10.07, "lng": 73.62, "id": "218232", "name": "Starspotted grouper", "thumb": "tn_Ephex_u0.jpg", "sprite": "sp-chelidoperca_santosi.png", "group": "grouper", "rarity": 1, "waterType": "Saltwater"}, {"lat": 10.4939, "lng": 75.7167, "id": "330767", "name": "Pista indica", "sprite": "sp-anchoviella_juruasanga.png", "group": "other", "rarity": 1}, {"lat": 10.0833, "lng": 73.65, "id": "420900", "name": "Tellina radiata", "sprite": "sp-blue_mussel.png", "group": "clam_mussel", "rarity": 1}, {"lat": 9.6798, "lng": 74.998, "id": "1082", "name": "Cirripedia", "sprite": "sp-anchoviella_juruasanga.png", "group": "other", "rarity": 1}, {"lat": 9.6169, "lng": 74.997, "id": "1248", "name": "Ctenophora", "sprite": "sp-anchoviella_juruasanga.png", "group": "other", "rarity": 1}, {"lat": 9.9406, "lng": 75.7392, "id": "131164", "name": "Prionospio steenstrupi", "sprite": "sp-anchoviella_juruasanga.png", "group": "other", "rarity": 1}, {"lat": 9.7059, "lng": 74.8348, "id": "104228", "name": "Scaphocalanus", "sprite": "sp-anchoviella_juruasanga.png", "group": "other", "rarity": 1}, {"lat": 10.0, "lng": 75.0, "id": "219945", "name": "Spotted sharpnose", "thumb": "tn_Casol_u0.jpg", "sprite": "sp-fahaka_pufferfish.png", "group": "pufferfish", "rarity": 1, "waterType": "Saltwater"}, {"lat": 10.45, "lng": 75.6833, "id": "1368332", "name": "Eunice tentaculata", "sprite": "sp-anchoviella_juruasanga.png", "group": "other", "rarity": 1}, {"lat": 9.8499, "lng": 75.6869, "id": "130513", "name": "Leitoscoloplos kerguelensis", "sprite": "sp-anchoviella_juruasanga.png", "group": "other", "rarity": 1}, {"lat": 9.7722, "lng": 75.6883, "id": "478712", "name": "Ctenapseudes chilkensis", "sprite": "sp-american_lobster.png", "group": "crab_lobster", "rarity": 1}, {"lat": 10.0, "lng": 75.0, "id": "220037", "name": "Common pike conger", "thumb": "tn_Mubag_u2.jpg", "sprite": "sp-electric_eel.png", "group": "eel", "rarity": 1, "waterType": "Brackish"}, {"lat": 9.15, "lng": 74.5833, "id": "584853", "name": "Atlanta frontieri", "sprite": "sp-cowrie_shell.png", "group": "sea_snail", "rarity": 1}, {"lat": 9.92, "lng": 75.68, "id": "292789", "name": "Certonardoa semiregularis", "sprite": "sp-sea_cucumber.png", "group": "starfish", "rarity": 1}, {"lat": 11.1306, "lng": 75.8325, "id": "962773", "name": "Licmophora flabellata", "sprite": "sp-anchoviella_juruasanga.png", "group": "other", "rarity": 1}, {"lat": 11.1306, "lng": 75.8325, "id": "172535", "name": "Ceratoneis fasciola", "sprite": "sp-anchoviella_juruasanga.png", "group": "other", "rarity": 1}, {"lat": 10.07, "lng": 73.62, "id": "141102", "name": "Charonia tritonis", "sprite": "sp-cowrie_shell.png", "group": "sea_snail", "rarity": 1}, {"lat": 10.0, "lng": 75.4333, "id": "161438", "name": "Pseudanchialina inermis", "sprite": "sp-american_lobster.png", "group": "crab_lobster", "rarity": 1}, {"lat": 9.5388, "lng": 74.7621, "id": "161439", "name": "Pseudanchialina pusilla", "sprite": "sp-american_lobster.png", "group": "crab_lobster", "rarity": 1}, {"lat": 9.6817, "lng": 74.9934, "id": "155670", "name": "Diplostraca", "sprite": "sp-anchoviella_juruasanga.png", "group": "other", "rarity": 1}, {"lat": 10.0, "lng": 75.0, "id": "212081", "name": "Spangled emperor", "thumb": "tn_Leneb_u0.jpg", "sprite": "sp-anchoviella_juruasanga.png", "group": "other", "rarity": 1, "waterType": "Brackish"}, {"lat": 9.9377, "lng": 75.8479, "id": "596997", "name": "Scolelepis (Parascolelepis) gilchristi", "sprite": "sp-anchoviella_juruasanga.png", "group": "other", "rarity": 1}, {"lat": 9.4333, "lng": 74.4166, "id": "220834", "name": "Canthocalanus pauper", "sprite": "sp-anchoviella_juruasanga.png", "group": "other", "rarity": 1}, {"lat": 10.9167, "lng": 75.7833, "id": "281270", "name": "Broadfin shark", "thumb": "tn_Latem_u0.gif", "sprite": "sp-great_white_shark.png", "group": "shark", "rarity": 1, "waterType": "Brackish"}, {"lat": 10.07, "lng": 73.62, "id": "219974", "name": "Four-bar porcupinefish", "thumb": "tn_Local_u2.jpg", "sprite": "sp-fahaka_pufferfish.png", "group": "pufferfish", "rarity": 1, "waterType": "Saltwater"}, {"lat": 10.07, "lng": 73.62, "id": "208388", "name": "Oliva caerulea", "sprite": "sp-cowrie_shell.png", "group": "sea_snail", "rarity": 1}, {"lat": 9.9447, "lng": 75.6355, "id": "335517", "name": "Lumbrineris heteropoda difficilis", "sprite": "sp-anchoviella_juruasanga.png", "group": "other", "rarity": 1}, {"lat": 10.0175, "lng": 74.655, "id": "218545", "name": "Indian Ocean oriental sweetlips", "thumb": "tn_Plvit_u7.jpg", "sprite": "sp-anchoviella_juruasanga.png", "group": "other", "rarity": 1, "waterType": "Saltwater"}, {"lat": 10.07, "lng": 73.62, "id": "571880", "name": "Natica vitellus", "sprite": "sp-cowrie_shell.png", "group": "sea_snail", "rarity": 1}, {"lat": 9.2974, "lng": 74.82, "id": "113477", "name": "Hastigerina pelagica", "sprite": "sp-anchoviella_juruasanga.png", "group": "other", "rarity": 1}, {"lat": 8.9084, "lng": 75.4571, "id": "131128", "name": "Laonice cirrata", "sprite": "sp-anchoviella_juruasanga.png", "group": "other", "rarity": 1}, {"lat": 9.7633, "lng": 75.6863, "id": "122013", "name": "Halalaimus longicaudatus", "sprite": "sp-anchoviella_juruasanga.png", "group": "other", "rarity": 1}, {"lat": 10.07, "lng": 73.62, "id": "568045", "name": "Heterocentrotus mamillatus", "sprite": "sp-sea_cucumber.png", "group": "starfish", "rarity": 1}, {"lat": 10.4569, "lng": 75.8625, "id": "129398", "name": "Diopatra", "sprite": "sp-anchoviella_juruasanga.png", "group": "other", "rarity": 1}, {"lat": 9.0807, "lng": 74.5516, "id": "161455", "name": "Hemisiriella pulchra", "sprite": "sp-american_lobster.png", "group": "crab_lobster", "rarity": 1}, {"lat": 10.0667, "lng": 73.6, "id": "131582", "name": "Typhloscolex muelleri", "sprite": "sp-anchoviella_juruasanga.png", "group": "other", "rarity": 1}, {"lat": 9.8815, "lng": 75.8783, "id": "120935", "name": "Halichoanolaimus consimilis", "sprite": "sp-anchoviella_juruasanga.png", "group": "other", "rarity": 1}, {"lat": 10.07, "lng": 73.62, "id": "207464", "name": "Goniastrea pectinata", "sprite": "sp-actiniidae.png", "group": "coral", "rarity": 1}, {"lat": 11.1306, "lng": 75.8325, "id": "172381", "name": "Navicula pygmaea", "sprite": "sp-anchoviella_juruasanga.png", "group": "other", "rarity": 1}, {"lat": 11.1306, "lng": 75.8325, "id": "149074", "name": "Skeletonema costatum", "sprite": "sp-anchoviella_juruasanga.png", "group": "other", "rarity": 1}, {"lat": 9.925, "lng": 75.8317, "id": "123386", "name": "Echinus", "sprite": "sp-sea_cucumber.png", "group": "starfish", "rarity": 1}, {"lat": 10.07, "lng": 73.62, "id": "208435", "name": "Lithophaga teres", "sprite": "sp-blue_mussel.png", "group": "clam_mussel", "rarity": 1}, {"lat": 10.07, "lng": 73.62, "id": "217947", "name": "Crown squirrelfish", "thumb": "tn_Sadia_u1.jpg", "sprite": "sp-anchoviella_juruasanga.png", "group": "other", "rarity": 1, "waterType": "Saltwater"}, {"lat": 10.5343, "lng": 75.3169, "id": "156209", "name": "Levinsenia oculata", "sprite": "sp-anchoviella_juruasanga.png", "group": "other", "rarity": 1}, {"lat": 10.5378, "lng": 75.2917, "id": "110303", "name": "Prorocentrum micans", "sprite": "sp-anchoviella_juruasanga.png", "group": "other", "rarity": 1}, {"lat": 9.6798, "lng": 74.998, "id": "1133", "name": "Tanaidacea", "sprite": "sp-american_lobster.png", "group": "crab_lobster", "rarity": 1}, {"lat": 9.3097, "lng": 75.0855, "id": "104174", "name": "Euchaeta", "sprite": "sp-anchoviella_juruasanga.png", "group": "other", "rarity": 1}, {"lat": 10.3722, "lng": 75.0167, "id": "104549", "name": "Subeucalanus subtenuis", "sprite": "sp-anchoviella_juruasanga.png", "group": "other", "rarity": 1}, {"lat": 9.9222, "lng": 75.8667, "id": "209699", "name": "Pherecardia striata", "sprite": "sp-anchoviella_juruasanga.png", "group": "other", "rarity": 1}, {"lat": 10.0071, "lng": 75.5567, "id": "333036", "name": "Aricidea (Acmira) lopezi", "sprite": "sp-anchoviella_juruasanga.png", "group": "other", "rarity": 1}, {"lat": 10.081, "lng": 73.629, "id": "214390", "name": "Boergesenia forbesii", "sprite": "sp-anchoviella_juruasanga.png", "group": "other", "rarity": 1}, {"lat": 8.77, "lng": 73.7, "id": "418114", "name": "Globorotalia tumida", "sprite": "sp-anchoviella_juruasanga.png", "group": "other", "rarity": 1}, {"lat": 9.7739, "lng": 75.695, "id": "216024", "name": "Mucropetraliella thenardii", "sprite": "sp-anchoviella_juruasanga.png", "group": "other", "rarity": 1}, {"lat": 10.082, "lng": 75.5351, "id": "228804", "name": "Daptonema alternum", "sprite": "sp-anchoviella_juruasanga.png", "group": "other", "rarity": 1}]}