{"zoom": 7, "x": 90, "y": 63, "points": [{"lat": 1.0538, "lng": 75.0725, "id": "106731", "name": "Sergestidae", "sprite": "sp-american_lobster.png", "group": "crab_lobster", "rarity": 1}, {"lat": 0.6167, "lng": 73.2833, "id": "441202", "name": "Myrine kesslerii", "sprite": "sp-american_lobster.png", "group": "crab_lobster", "rarity": 1}, {"lat": 0.0833, "lng": 74.9, "id": "104820", "name": "Scolecithrix bradyi", "sprite": "sp-anchoviella_juruasanga.png", "group": "other", "rarity": 1}, {"lat": 1.2833, "lng": 74.9718, "id": "104645", "name": "Acrocalanus gibber", "sprite": "sp-anchoviella_juruasanga.png", "group": "other", "rarity": 1}, {"lat": 1.939, "lng": 73.5411, "id": "105795", "name": "Blacktip reef shark", "thumb": "tn_Camel_u4.jpg", "sprite": "sp-great_white_shark.png", "group": "shark", "rarity": 1, "waterType": "Brackish"}, {"lat": 1.9772, "lng": 73.5361, "id": "217419", "name": "Cowtail stingray", "thumb": "tn_Pasep_u4.jpg", "sprite": "sp-himantura_australis.png", "group": "ray", "rarity": 1, "waterType": "Brackish"}, {"lat": 0.5635, "lng": 73.5275, "id": "219249", "name": "Blue-dashed rockskipper", "thumb": "tn_Blper_u7.jpg", "sprite": "sp-helcogramma_ascensionis.png", "group": "blenny", "rarity": 1, "waterType": "Saltwater"}, {"lat": 1.05, "lng": 75.075, "id": "105", "name": "Bivalvia", "sprite": "sp-blue_mussel.png", "group": "clam_mussel", "rarity": 1}, {"lat": 1.0538, "lng": 75.0725, "id": "103353", "name": "Copelata", "sprite": "sp-anchoviella_juruasanga.png", "group": "other", "rarity": 1}, {"lat": 0.894, "lng": 74.9729, "id": "101", "name": "Gastropoda", "sprite": "sp-cowrie_shell.png", "group": "sea_snail", "rarity": 1}, {"lat": 1.0538, "lng": 75.0725, "id": "1100", "name": "Calanoida", "sprite": "sp-anchoviella_juruasanga.png", "group": "other", "rarity": 1}, {"lat": 1.0583, "lng": 74.9584, "id": "115273", "name": "Clytemnestra", "sprite": "sp-anchoviella_juruasanga.png", "group": "other", "rarity": 1}, {"lat": 1.8482, "lng": 73.471, "id": "217992", "name": "Network pipefish", "thumb": "tn_Cofla_u9.jpg", "sprite": "sp-cosmocampus_coccineus.png", "group": "seahorse", "rarity": 1, "waterType": "Saltwater"}, {"lat": 1.355, "lng": 74.9761, "id": "104552", "name": "Euchaeta marina", "sprite": "sp-anchoviella_juruasanga.png", "group": "other", "rarity": 1}, {"lat": 0.6167, "lng": 73.2833, "id": "209528", "name": "Ebaliopsis erosa", "sprite": "sp-american_lobster.png", "group": "crab_lobster", "rarity": 1}, {"lat": 1.8482, "lng": 73.471, "id": "219938", "name": "Bennett's sharpnose puffer", "thumb": "tn_Caben_u1.jpg", "sprite": "sp-fahaka_pufferfish.png", "group": "pufferfish", "rarity": 1, "waterType": "Saltwater"}, {"lat": 1.054, "lng": 75.084, "id": "266249", "name": "Ferosagitta robusta", "sprite": "sp-anchoviella_juruasanga.png", "group": "other", "rarity": 1}, {"lat": 0.6167, "lng": 73.2833, "id": "483861", "name": "Prosthiostomum elegans", "sprite": "sp-anchoviella_juruasanga.png", "group": "other", "rarity": 1}, {"lat": 1.0538, "lng": 75.0725, "id": "1337", "name": "Hydrozoa", "sprite": "sp-anchoviella_juruasanga.png", "group": "other", "rarity": 1}, {"lat": 2.0333, "lng": 75.0167, "id": "104821", "name": "Scolecithrix danae", "sprite": "sp-anchoviella_juruasanga.png", "group": "other", "rarity": 1}, {"lat": 1.05, "lng": 75.075, "id": "106795", "name": "Scyllaridae", "sprite": "sp-american_lobster.png", "group": "crab_lobster", "rarity": 1}, {"lat": 1.0575, "lng": 75.07, "id": "799", "name": "Nematoda", "sprite": "sp-anchoviella_juruasanga.png", "group": "other", "rarity": 1}, {"lat": 0.0083, "lng": 74.0, "id": "126385", "name": "Tropical two-wing flyingfish", "thumb": "tn_Exvol_u2.gif", "sprite": "sp-flying_fish.png", "group": "flying_fish", "rarity": 1, "waterType": "Saltwater"}, {"lat": 1.0538, "lng": 75.0725, "id": "13703", "name": "Thecosomata", "sprite": "sp-cowrie_shell.png", "group": "sea_snail", "rarity": 1}, {"lat": 1.0575, "lng": 75.07, "id": "1648", "name": "Sipunculidae", "sprite": "sp-anchoviella_juruasanga.png", "group": "other", "rarity": 1}, {"lat": 1.1927, "lng": 73.509, "id": "217491", "name": "Paintspotted moray", "thumb": "tn_Gypic_u3.jpg", "sprite": "sp-anarchias.png", "group": "moray", "rarity": 1, "waterType": "Brackish"}, {"lat": 1.9181, "lng": 73.4174, "id": "514586", "name": "Manipontonia psamathe", "sprite": "sp-american_lobster.png", "group": "crab_lobster", "rarity": 1}, {"lat": 1.9772, "lng": 73.5361, "id": "1605256", "name": "Abantennarius coccineus", "sprite": "sp-deep_sea_anglerfish.png", "group": "anglerfish", "rarity": 1}, {"lat": 0.75, "lng": 73.3833, "id": "275770", "name": "Canarytop wrasse", "thumb": "tn_Haleu_u6.jpg", "sprite": "sp-cleaner_wrasse.png", "group": "wrasse", "rarity": 1, "waterType": "Saltwater"}, {"lat": 0.7333, "lng": 74.9389, "id": "104469", "name": "Nannocalanus minor", "sprite": "sp-anchoviella_juruasanga.png", "group": "other", "rarity": 1}, {"lat": 0.6167, "lng": 73.2833, "id": "210538", "name": "Alpheus miersi", "sprite": "sp-american_lobster.png", "group": "crab_lobster", "rarity": 1}, {"lat": 0.6167, "lng": 73.2833, "id": "440313", "name": "Calappa woodmasoni", "sprite": "sp-american_lobster.png", "group": "crab_lobster", "rarity": 1}, {"lat": 1.246, "lng": 75.056, "id": "137216", "name": "Pyrosomatidae", "sprite": "sp-anchoviella_juruasanga.png", "group": "other", "rarity": 1}, {"lat": 2.0333, "lng": 75.0167, "id": "104120", "name": "Euchirella", "sprite": "sp-anchoviella_juruasanga.png", "group": "other", "rarity": 1}, {"lat": 0.6167, "lng": 73.2833, "id": "443875", "name": "Trapezia bidentata", "sprite": "sp-american_lobster.png", "group": "crab_lobster", "rarity": 1}, {"lat": 0.0833, "lng": 73.6333, "id": "555693", "name": "Dercitus (Stoeba) plicatus", "sprite": "sp-barrel_sponge.png", "group": "sponge", "rarity": 1}, {"lat": 0.6167, "lng": 73.2833, "id": "106972", "name": "Palicus", "sprite": "sp-american_lobster.png", "group": "crab_lobster", "rarity": 1}, {"lat": 0.5635, "lng": 73.5275, "id": "218990", "name": "Zigzag wrasse", "thumb": "tn_Hasca_m3.jpg", "sprite": "sp-cleaner_wrasse.png", "group": "wrasse", "rarity": 1, "waterType": "Saltwater"}, {"lat": 0.8242, "lng": 73.4012, "id": "1079106", "name": "Naria boivinii", "sprite": "sp-cowrie_shell.png", "group": "sea_snail", "rarity": 1}, {"lat": 1.0538, "lng": 75.0725, "id": "164", "name": "Gymnosomata", "sprite": "sp-cowrie_shell.png", "group": "sea_snail", "rarity": 1}, {"lat": 1.6083, "lng": 73.3167, "id": "272723", "name": "Myctophum lychnobium", "sprite": "sp-anchoviella_juruasanga.png", "group": "other", "rarity": 1, "waterType": "Saltwater"}, {"lat": 2.0333, "lng": 75.0167, "id": "220916", "name": "Candacia truncata", "sprite": "sp-anchoviella_juruasanga.png", "group": "other", "rarity": 1}, {"lat": 2.0333, "lng": 75.0167, "id": "346439", "name": "Euchaeta longicornis", "sprite": "sp-anchoviella_juruasanga.png", "group": "other", "rarity": 1}, {"lat": 0.6167, "lng": 73.2833, "id": "278648", "name": "Champsodon vorax", "thumb": "tn_Chvor_u0.jpg", "sprite": "sp-anchoviella_juruasanga.png", "group": "other", "rarity": 1, "waterType": "Saltwater"}, {"lat": 0.6167, "lng": 73.2833, "id": "207446", "name": "Favites pentagona", "sprite": "sp-actiniidae.png", "group": "coral", "rarity": 1}, {"lat": 1.57, "lng": 73.83, "id": "136980", "name": "Delphinidae", "sprite": "sp-bottlenose_dolphin.png", "group": "dolphin", "rarity": 1}, {"lat": 0.5635, "lng": 73.5275, "id": "206616", "name": "Petroscirtes", "sprite": "sp-helcogramma_ascensionis.png", "group": "blenny", "rarity": 1}, {"lat": 0.5635, "lng": 73.5275, "id": "125519", "name": "Blenniidae", "sprite": "sp-helcogramma_ascensionis.png", "group": "blenny", "rarity": 1}, {"lat": 1.8219, "lng": 73.4905, "id": "158586", "name": "Reticulate moray", "thumb": "tn_Muret_u0.jpg", "sprite": "sp-anarchias.png", "group": "moray", "rarity": 1, "waterType": "Saltwater"}, {"lat": 1.9127, "lng": 73.5036, "id": "217495", "name": "Yellow-edged moray", "thumb": "tn_Gyfla_u9.jpg", "sprite": "sp-anarchias.png", "group": "moray", "rarity": 1, "waterType": "Saltwater"}, {"lat": 1.0538, "lng": 75.0725, "id": "138092", "name": "Janthina", "sprite": "sp-cowrie_shell.png", "group": "sea_snail", "rarity": 1}, {"lat": 1.9772, "lng": 73.5361, "id": "274737", "name": "Spotted-fin rockfish", "thumb": "tn_Scste_u1.gif", "sprite": "sp-parascorpaena_moultoni.png", "group": "scorpionfish", "rarity": 1, "waterType": "Saltwater"}, {"lat": 1.9756, "lng": 73.5493, "id": "211773", "name": "Regal angelfish", "thumb": "tn_Pydia_uk.jpg", "sprite": "sp-holacanthus.png", "group": "angelfish", "rarity": 1, "waterType": "Saltwater"}, {"lat": 0.6167, "lng": 73.2833, "id": "209502", "name": "Calappa gallus", "sprite": "sp-american_lobster.png", "group": "crab_lobster", "rarity": 1}, {"lat": 0.5635, "lng": 73.5275, "id": "218991", "name": "Dusky wrasse", "thumb": "tn_Hamar_u3.jpg", "sprite": "sp-cleaner_wrasse.png", "group": "wrasse", "rarity": 1, "waterType": "Saltwater"}, {"lat": 2.7713, "lng": 74.4192, "id": "105801", "name": "Blue shark", "thumb": "tn_Prgla_j1.jpg", "sprite": "sp-great_white_shark.png", "group": "shark", "rarity": 1, "waterType": "Brackish"}, {"lat": 1.0538, "lng": 75.0725, "id": "1137", "name": "Cumacea", "sprite": "sp-american_lobster.png", "group": "crab_lobster", "rarity": 1}, {"lat": 2.0, "lng": 73.2, "id": "287996", "name": "Hydnophora grandis", "sprite": "sp-actiniidae.png", "group": "coral", "rarity": 1}, {"lat": 1.5339, "lng": 75.0589, "id": "161473", "name": "Siriella gracilis", "sprite": "sp-american_lobster.png", "group": "crab_lobster", "rarity": 1}, {"lat": 0.6167, "lng": 73.2833, "id": "218031", "name": "Rock pipefish", "thumb": "tn_Phbel_u1.jpg", "sprite": "sp-cosmocampus_coccineus.png", "group": "seahorse", "rarity": 1, "waterType": "Saltwater"}, {"lat": 1.9278, "lng": 73.534, "id": "210370", "name": "Stenopus hispidus", "sprite": "sp-american_lobster.png", "group": "crab_lobster", "rarity": 1}, {"lat": 0.7333, "lng": 74.9389, "id": "104669", "name": "Calocalanus pavo", "sprite": "sp-anchoviella_juruasanga.png", "group": "other", "rarity": 1}, {"lat": 0.6167, "lng": 73.2833, "id": "733166", "name": "Pyrgoma cancellatum", "sprite": "sp-anchoviella_juruasanga.png", "group": "other", "rarity": 1}, {"lat": 2.0333, "lng": 75.0167, "id": "104495", "name": "Centropages furcatus", "sprite": "sp-anchoviella_juruasanga.png", "group": "other", "rarity": 1}, {"lat": 2.0, "lng": 73.2, "id": "207403", "name": "Hydnophora exesa", "sprite": "sp-actiniidae.png", "group": "coral", "rarity": 1}, {"lat": 1.0538, "lng": 75.0725, "id": "155670", "name": "Diplostraca", "sprite": "sp-anchoviella_juruasanga.png", "group": "other", "rarity": 1}, {"lat": 2.0333, "lng": 75.0167, "id": "220834", "name": "Canthocalanus pauper", "sprite": "sp-anchoviella_juruasanga.png", "group": "other", "rarity": 1}, {"lat": 0.5635, "lng": 73.5275, "id": "219598", "name": "Sixspot goby", "thumb": "tn_Vasex_u7.jpg", "sprite": "sp-eviota_bipunctata.png", "group": "goby", "rarity": 1, "waterType": "Saltwater"}, {"lat": 1.0538, "lng": 75.0725, "id": "14355", "name": "Stomatopoda", "sprite": "sp-american_lobster.png", "group": "crab_lobster", "rarity": 1}, {"lat": 0.6167, "lng": 73.2833, "id": "441615", "name": "Naxioides hirtus", "sprite": "sp-american_lobster.png", "group": "crab_lobster", "rarity": 1}, {"lat": 0.5635, "lng": 73.5275, "id": "219476", "name": "Eyebar goby", "thumb": "tn_Gncau_u8.jpg", "sprite": "sp-eviota_bipunctata.png", "group": "goby", "rarity": 1, "waterType": "Brackish"}, {"lat": 0.0833, "lng": 74.9, "id": "220839", "name": "Acrocalanus monachus", "sprite": "sp-anchoviella_juruasanga.png", "group": "other", "rarity": 1}, {"lat": 0.6167, "lng": 73.2833, "id": "439470", "name": "Naxia", "sprite": "sp-american_lobster.png", "group": "crab_lobster", "rarity": 1}, {"lat": 1.054, "lng": 75.084, "id": "105435", "name": "Flaccisagitta hexaptera", "sprite": "sp-anchoviella_juruasanga.png", "group": "other", "rarity": 1}, {"lat": 1.0306, "lng": 74.2208, "id": "105794", "name": "Oceanic whitetip shark", "thumb": "tn_Calon_u8.jpg", "sprite": "sp-great_white_shark.png", "group": "shark", "rarity": 1, "waterType": "Saltwater"}, {"lat": 2.2083, "lng": 73.5, "id": "217718", "name": "Evermann's lantern fish", "thumb": "tn_Syeve_u2.gif", "sprite": "sp-anchoviella_juruasanga.png", "group": "other", "rarity": 1, "waterType": "Saltwater"}, {"lat": 0.5, "lng": 73.3333, "id": "217919", "name": "Scarlet soldierfish", "thumb": "tn_Mypra_u0.jpg", "sprite": "sp-anchoviella_juruasanga.png", "group": "other", "rarity": 1, "waterType": "Saltwater"}, {"lat": 0.6167, "lng": 73.2833, "id": "207350", "name": "Fungia fungites", "sprite": "sp-actiniidae.png", "group": "coral", "rarity": 1}, {"lat": 1.5942, "lng": 73.4447, "id": "345843", "name": "Great barracuda", "thumb": "tn_Spbar_ud.jpg", "sprite": "sp-sphyraena.png", "group": "barracuda", "rarity": 1, "waterType": "Brackish"}, {"lat": 1.0538, "lng": 75.0725, "id": "1082", "name": "Cirripedia", "sprite": "sp-anchoviella_juruasanga.png", "group": "other", "rarity": 1}, {"lat": 1.0538, "lng": 75.0725, "id": "1248", "name": "Ctenophora", "sprite": "sp-anchoviella_juruasanga.png", "group": "other", "rarity": 1}, {"lat": 1.9772, "lng": 73.5361, "id": "217337", "name": "Blacktail reef shark", "thumb": "tn_Caamb_u6.jpg", "sprite": "sp-great_white_shark.png", "group": "shark", "rarity": 1, "waterType": "Saltwater"}, {"lat": 0.5635, "lng": 73.5275, "id": "217509", "name": "Laced moray", "thumb": "tn_Gyfav_u6.jpg", "sprite": "sp-anarchias.png", "group": "moray", "rarity": 1, "waterType": "Brackish"}, {"lat": 1.055, "lng": 75.0717, "id": "1806", "name": "Echinodermata", "sprite": "sp-sea_cucumber.png", "group": "starfish", "rarity": 1}, {"lat": 1.0583, "lng": 74.9584, "id": "1464945", "name": "Paracalanus aculeatus aculeatus", "sprite": "sp-anchoviella_juruasanga.png", "group": "other", "rarity": 1}, {"lat": 1.9333, "lng": 73.4167, "id": "557899", "name": "Cycloachelous granulatus", "sprite": "sp-american_lobster.png", "group": "crab_lobster", "rarity": 1}, {"lat": 2.5684, "lng": 74.102, "id": "127028", "name": "Bigeye tuna", "thumb": "tn_Thobe_u1.jpg", "sprite": "sp-bluefin_tuna.png", "group": "tuna_mackerel", "rarity": 1, "waterType": "Saltwater"}, {"lat": 1.0667, "lng": 75.1167, "id": "137222", "name": "Doliolum", "sprite": "sp-anchoviella_juruasanga.png", "group": "other", "rarity": 1}, {"lat": 1.8979, "lng": 75.0568, "id": "137233", "name": "Salpa", "sprite": "sp-anchoviella_juruasanga.png", "group": "other", "rarity": 1}, {"lat": 2.0333, "lng": 75.0167, "id": "104468", "name": "Mesocalanus tenuicornis", "sprite": "sp-anchoviella_juruasanga.png", "group": "other", "rarity": 1}, {"lat": 0.6167, "lng": 73.2833, "id": "278918", "name": "Pig faced leather jacket", "thumb": "tn_Pacho_u0.jpg", "sprite": "sp-anchoviella_juruasanga.png", "group": "other", "rarity": 1, "waterType": "Saltwater"}, {"lat": 1.1589, "lng": 75.0644, "id": "106671", "name": "Anomura", "sprite": "sp-american_lobster.png", "group": "crab_lobster", "rarity": 1}, {"lat": 1.0575, "lng": 75.07, "id": "178738", "name": "[unassigned] Enteropneusta", "sprite": "sp-anchoviella_juruasanga.png", "group": "other", "rarity": 1}, {"lat": 1.055, "lng": 75.0717, "id": "5", "name": "Protozoa", "sprite": "sp-anchoviella_juruasanga.png", "group": "other", "rarity": 1}, {"lat": 1.1976, "lng": 74.9667, "id": "116116", "name": "Microsetella rosea", "sprite": "sp-anchoviella_juruasanga.png", "group": "other", "rarity": 1}, {"lat": 1.1589, "lng": 75.0644, "id": "1130", "name": "Decapoda", "sprite": "sp-american_lobster.png", "group": "crab_lobster", "rarity": 1}, {"lat": 0.0833, "lng": 74.9, "id": "116382", "name": "Macrosetella gracilis", "sprite": "sp-anchoviella_juruasanga.png", "group": "other", "rarity": 1}, {"lat": 1.054, "lng": 75.084, "id": "105430", "name": "Pterosagitta draco", "sprite": "sp-anchoviella_juruasanga.png", "group": "other", "rarity": 1}, {"lat": 1.0575, "lng": 75.07, "id": "135382", "name": "Physalia", "sprite": "sp-anchoviella_juruasanga.png", "group": "other", "rarity": 1}, {"lat": 1.0119, "lng": 74.9556, "id": "105410", "name": "Sagitta", "sprite": "sp-anchoviella_juruasanga.png", "group": "other", "rarity": 1}, {"lat": 1.0538, "lng": 75.0725, "id": "196151", "name": "Eryonidae", "sprite": "sp-american_lobster.png", "group": "crab_lobster", "rarity": 1}, {"lat": 1.05, "lng": 75.075, "id": "105448", "name": "Sagitta bipunctata", "sprite": "sp-anchoviella_juruasanga.png", "group": "other", "rarity": 1}, {"lat": 1.8205, "lng": 73.3899, "id": "220001", "name": "Emperor angelfish", "thumb": "tn_Poimp_u0.jpg", "sprite": "sp-holacanthus.png", "group": "angelfish", "rarity": 1, "waterType": "Saltwater"}, {"lat": 0.5, "lng": 75.0, "id": "215513", "name": "Conus gubernator", "sprite": "sp-cowrie_shell.png", "group": "sea_snail", "rarity": 1}, {"lat": 0.625, "lng": 74.9324, "id": "128690", "name": "Oncaea", "sprite": "sp-anchoviella_juruasanga.png", "group": "other", "rarity": 1}, {"lat": 1.4762, "lng": 74.9834, "id": "103367", "name": "Oikopleura", "sprite": "sp-anchoviella_juruasanga.png", "group": "other", "rarity": 1}, {"lat": 2.0333, "lng": 75.0167, "id": "220913", "name": "Candacia catula", "sprite": "sp-anchoviella_juruasanga.png", "group": "other", "rarity": 1}, {"lat": 2.7545, "lng": 75.0671, "id": "127094", "name": "Swordfish", "thumb": "tn_Xigla_u5.jpg", "sprite": "sp-blue_marlin.png", "group": "swordfish", "rarity": 1, "waterType": "Saltwater"}, {"lat": 2.0, "lng": 75.0, "id": "131579", "name": "Travisiopsis lanceolata", "sprite": "sp-anchoviella_juruasanga.png", "group": "other", "rarity": 1}, {"lat": 2.7881, "lng": 73.7713, "id": "219729", "name": "Indo-Pacific blue marlin", "thumb": "tn_Mamaz_u2.jpg", "sprite": "sp-blue_marlin.png", "group": "swordfish", "rarity": 1, "waterType": "Saltwater"}, {"lat": 0.6167, "lng": 73.2833, "id": "284053", "name": "Aglaophenia sinuosa", "sprite": "sp-anchoviella_juruasanga.png", "group": "other", "rarity": 1}, {"lat": 1.1976, "lng": 74.9667, "id": "745865", "name": "Paracalanus parvus parvus", "sprite": "sp-anchoviella_juruasanga.png", "group": "other", "rarity": 1}, {"lat": 0.5635, "lng": 73.5275, "id": "217572", "name": "Saddled snake-eel", "thumb": "tn_Lesem_u4.jpg", "sprite": "sp-electric_eel.png", "group": "eel", "rarity": 1, "waterType": "Brackish"}, {"lat": 0.9543, "lng": 74.965, "id": "1080", "name": "Copepoda", "sprite": "sp-anchoviella_juruasanga.png", "group": "other", "rarity": 1}, {"lat": 1.0583, "lng": 74.9584, "id": "104597", "name": "Lucicutia flavicornis", "sprite": "sp-anchoviella_juruasanga.png", "group": "other", "rarity": 1}, {"lat": 0.6167, "lng": 73.2833, "id": "117370", "name": "Clytia linearis", "sprite": "sp-anchoviella_juruasanga.png", "group": "other", "rarity": 1}, {"lat": 0.0083, "lng": 74.0, "id": "217862", "name": "Margined flyingfish", "thumb": "tn_Chcya_ud.jpg", "sprite": "sp-flying_fish.png", "group": "flying_fish", "rarity": 1, "waterType": "Saltwater"}, {"lat": 1.0538, "lng": 75.0725, "id": "1803", "name": "Brachiopoda", "sprite": "sp-anchoviella_juruasanga.png", "group": "other", "rarity": 1}, {"lat": 1.0919, "lng": 74.9604, "id": "138007", "name": "Fiona", "sprite": "sp-cowrie_shell.png", "group": "sea_snail", "rarity": 1}, {"lat": 1.0583, "lng": 74.9584, "id": "104193", "name": "Calocalanus", "sprite": "sp-anchoviella_juruasanga.png", "group": "other", "rarity": 1}]}