{"zoom": 7, "x": 90, "y": 76, "points": [{"lat": -34.0167, "lng": 75.0, "id": "104152", "name": "Calanus", "sprite": "sp-anchoviella_juruasanga.png", "group": "other", "rarity": 1}, {"lat": -34.0167, "lng": 75.0, "id": "104108", "name": "Acartia", "sprite": "sp-anchoviella_juruasanga.png", "group": "other", "rarity": 1}, {"lat": -33.2638, "lng": 74.2449, "id": "343995", "name": "Thalassarche melanophris", "sprite": "sp-anchoviella_juruasanga.png", "group": "other", "rarity": 1}, {"lat": -33.6082, "lng": 74.5847, "id": "212632", "name": "Phoebetria fusca", "sprite": "sp-anchoviella_juruasanga.png", "group": "other", "rarity": 1}, {"lat": -34.0833, "lng": 75.9167, "id": "448011", "name": "Ancilla ordinaria", "sprite": "sp-cowrie_shell.png", "group": "sea_snail", "rarity": 1}, {"lat": -32.2159, "lng": 75.4508, "id": "117860", "name": "Pantachogon haeckeli", "sprite": "sp-anchoviella_juruasanga.png", "group": "other", "rarity": 1}, {"lat": -34.0167, "lng": 75.0, "id": "104471", "name": "Neocalanus gracilis", "sprite": "sp-anchoviella_juruasanga.png", "group": "other", "rarity": 1}, {"lat": -33.1409, "lng": 74.5013, "id": "220222", "name": "Eubalaena australis", "sprite": "sp-blue_whale.png", "group": "whale", "rarity": 1}, {"lat": -34.0167, "lng": 75.0, "id": "104616", "name": "Mecynocera clausi", "sprite": "sp-anchoviella_juruasanga.png", "group": "other", "rarity": 1}, {"lat": -34.0167, "lng": 75.0, "id": "105410", "name": "Sagitta", "sprite": "sp-anchoviella_juruasanga.png", "group": "other", "rarity": 1}, {"lat": -34.0167, "lng": 75.0, "id": "110673", "name": "Euphausia", "sprite": "sp-antarctic_krill.png", "group": "shrimp", "rarity": 1}, {"lat": -34.0167, "lng": 75.0, "id": "1078", "name": "Ostracoda", "sprite": "sp-anchoviella_juruasanga.png", "group": "other", "rarity": 1}, {"lat": -33.7097, "lng": 74.0527, "id": "212583", "name": "Diomedea exulans", "sprite": "sp-anchoviella_juruasanga.png", "group": "other", "rarity": 1}, {"lat": -34.0167, "lng": 75.0, "id": "104651", "name": "Calocalanus contractus", "sprite": "sp-anchoviella_juruasanga.png", "group": "other", "rarity": 1}, {"lat": -32.55, "lng": 73.9833, "id": "127813", "name": "Metaconchoecia rotundata", "sprite": "sp-anchoviella_juruasanga.png", "group": "other", "rarity": 1}, {"lat": -34.0167, "lng": 75.0, "id": "344701", "name": "Neocalanus tonsus", "sprite": "sp-anchoviella_juruasanga.png", "group": "other", "rarity": 1}, {"lat": -32.2159, "lng": 75.4508, "id": "387273", "name": "Kephyes ovata", "sprite": "sp-anchoviella_juruasanga.png", "group": "other", "rarity": 1}, {"lat": -34.0167, "lng": 75.0, "id": "138007", "name": "Fiona", "sprite": "sp-cowrie_shell.png", "group": "sea_snail", "rarity": 1}, {"lat": -34.0167, "lng": 75.0, "id": "137233", "name": "Salpa", "sprite": "sp-anchoviella_juruasanga.png", "group": "other", "rarity": 1}, {"lat": -34.0167, "lng": 75.0, "id": "1461626", "name": "Clausocalanus arcuicornis arcuicornis", "sprite": "sp-anchoviella_juruasanga.png", "group": "other", "rarity": 1}, {"lat": -32.2159, "lng": 75.4508, "id": "117617", "name": "Halicreas minimum", "sprite": "sp-anchoviella_juruasanga.png", "group": "other", "rarity": 1}, {"lat": -32.2159, "lng": 75.4508, "id": "174743", "name": "Crossota brunnea", "sprite": "sp-anchoviella_juruasanga.png", "group": "other", "rarity": 1}, {"lat": -32.2159, "lng": 75.4508, "id": "117854", "name": "Colobonema sericeum", "sprite": "sp-anchoviella_juruasanga.png", "group": "other", "rarity": 1}, {"lat": -34.0167, "lng": 75.0, "id": "104196", "name": "Paracalanus", "sprite": "sp-anchoviella_juruasanga.png", "group": "other", "rarity": 1}, {"lat": -34.0167, "lng": 75.0, "id": "103367", "name": "Oikopleura", "sprite": "sp-anchoviella_juruasanga.png", "group": "other", "rarity": 1}, {"lat": -34.0167, "lng": 75.0, "id": "1436445", "name": "Pleuromamma gracilis gracilis", "sprite": "sp-anchoviella_juruasanga.png", "group": "other", "rarity": 1}, {"lat": -32.2159, "lng": 75.4508, "id": "135402", "name": "Abyla trigona", "sprite": "sp-anchoviella_juruasanga.png", "group": "other", "rarity": 1}, {"lat": -34.0167, "lng": 75.0, "id": "1080", "name": "Copepoda", "sprite": "sp-anchoviella_juruasanga.png", "group": "other", "rarity": 1}, {"lat": -32.2159, "lng": 75.4508, "id": "117615", "name": "Botrynema brucei", "sprite": "sp-anchoviella_juruasanga.png", "group": "other", "rarity": 1}, {"lat": -34.0167, "lng": 75.0, "id": "104469", "name": "Nannocalanus minor", "sprite": "sp-anchoviella_juruasanga.png", "group": "other", "rarity": 1}, {"lat": -34.0167, "lng": 75.0, "id": "128634", "name": "Corycaeus", "sprite": "sp-anchoviella_juruasanga.png", "group": "other", "rarity": 1}, {"lat": -34.0167, "lng": 75.0, "id": "1371", "name": "Siphonophorae", "sprite": "sp-anchoviella_juruasanga.png", "group": "other", "rarity": 1}]}