{"zoom": 7, "x": 91, "y": 53, "points": [{"lat": 28.62, "lng": 77.189, "id": "279597", "name": "Climbing perch", "thumb": "tn_Antes_u5.jpg", "sprite": "sp-anchoviella_juruasanga.png", "group": "other", "rarity": 1, "waterType": "Brackish"}, {"lat": 27.14, "lng": 78.38, "id": "280807", "name": "Gangetic gagata", "thumb": "tn_Gagag_u0.jpg", "sprite": "sp-blue_catfish.png", "group": "catfish", "rarity": 1, "waterType": "Brackish"}, {"lat": 28.6451, "lng": 77.2445, "id": "282621", "name": "Rita", "thumb": "tn_Ririt_u6.jpg", "sprite": "sp-blue_catfish.png", "group": "catfish", "rarity": 1, "waterType": "Brackish"}, {"lat": 28.6534, "lng": 77.263, "id": "281238", "name": "Orangefin labeo", "thumb": "tn_Lacal_u9.jpg", "sprite": "sp-enteromius.png", "group": "carp_minnow", "rarity": 1, "waterType": "Brackish"}, {"lat": 28.666, "lng": 77.233, "id": "1821", "name": "Chordata", "sprite": "sp-anchoviella_juruasanga.png", "group": "other", "rarity": 1}, {"lat": 28.6501, "lng": 77.226, "id": "742989", "name": "Indian river shad", "thumb": "tn_Gucha_u1.jpg", "sprite": "sp-anchoviella_juruasanga.png", "group": "other", "rarity": 1, "waterType": "Brackish"}, {"lat": 28.6534, "lng": 77.263, "id": "283170", "name": "Freshwater garfish", "thumb": "tn_Xecan_u3.jpg", "sprite": "sp-anchoviella_juruasanga.png", "group": "other", "rarity": 1, "waterType": "Brackish"}, {"lat": 28.6534, "lng": 77.263, "id": "281615", "name": "Gangetic mystus", "thumb": "tn_Mycav_u0.jpg", "sprite": "sp-blue_catfish.png", "group": "catfish", "rarity": 1, "waterType": "Brackish"}, {"lat": 28.6534, "lng": 77.263, "id": "282655", "name": "Large razorbelly minnow", "thumb": "tn_Sabac_u0.jpg", "sprite": "sp-enteromius.png", "group": "carp_minnow", "rarity": 1, "waterType": "Brackish"}, {"lat": 28.6534, "lng": 77.263, "id": "1605292", "name": "Labeo catla", "sprite": "sp-enteromius.png", "group": "carp_minnow", "rarity": 1}, {"lat": 28.6534, "lng": 77.263, "id": "280191", "name": "Mrigal carp", "thumb": "tn_Cicir_u1.jpg", "sprite": "sp-enteromius.png", "group": "carp_minnow", "rarity": 1, "waterType": "Brackish"}, {"lat": 28.6343, "lng": 77.2207, "id": "281072", "name": "Stinging catfish", "thumb": "tn_Hefos_u5.jpg", "sprite": "sp-blue_catfish.png", "group": "catfish", "rarity": 1, "waterType": "Brackish"}, {"lat": 28.6534, "lng": 77.263, "id": "281527", "name": "Zig-zag eel", "thumb": "tn_Maarm_u5.jpg", "sprite": "sp-anchoviella_juruasanga.png", "group": "other", "rarity": 1, "waterType": "Brackish"}, {"lat": 28.6534, "lng": 77.263, "id": "321753", "name": "Olive barb", "thumb": "tn_Pusar_f0.jpg", "sprite": "sp-enteromius.png", "group": "carp_minnow", "rarity": 1, "waterType": "Brackish"}, {"lat": 28.6534, "lng": 77.263, "id": "281240", "name": "Roho labeo", "thumb": "tn_Laroh_u5.jpg", "sprite": "sp-enteromius.png", "group": "carp_minnow", "rarity": 1, "waterType": "Brackish"}, {"lat": 28.5833, "lng": 76.6417, "id": "159261", "name": "Spotfin flyingfish", "thumb": "tn_Chfur_u3.jpg", "sprite": "sp-flying_fish.png", "group": "flying_fish", "rarity": 1, "waterType": "Saltwater"}, {"lat": 28.64, "lng": 77.2334, "id": "281881", "name": "Butter catfish", "thumb": "tn_Ombim_u5.jpg", "sprite": "sp-blue_catfish.png", "group": "catfish", "rarity": 1, "waterType": "Brackish"}, {"lat": 28.64, "lng": 77.2334, "id": "283161", "name": "Wallago", "thumb": "tn_Waatt_u1.jpg", "sprite": "sp-blue_catfish.png", "group": "catfish", "rarity": 1, "waterType": "Brackish"}, {"lat": 27.14, "lng": 78.38, "id": "280225", "name": "Garua bachcha", "thumb": "tn_Clgar_ub.jpg", "sprite": "sp-blue_catfish.png", "group": "catfish", "rarity": 1, "waterType": "Brackish"}, {"lat": 28.6441, "lng": 77.2186, "id": "279526", "name": "Gangetic ailia", "thumb": "tn_Aicoi_u3.jpg", "sprite": "sp-blue_catfish.png", "group": "catfish", "rarity": 1, "waterType": "Brackish"}, {"lat": 28.6451, "lng": 77.2445, "id": "280129", "name": "Spotted snakehead", "thumb": "tn_Chpun_ul.jpg", "sprite": "sp-anchoviella_juruasanga.png", "group": "other", "rarity": 1, "waterType": "Brackish"}, {"lat": 28.6451, "lng": 77.2445, "id": "281795", "name": "Bronze featherback", "thumb": "tn_Nonot_u4.jpg", "sprite": "sp-anchoviella_juruasanga.png", "group": "other", "rarity": 1, "waterType": "Brackish"}, {"lat": 28.6534, "lng": 77.263, "id": "282836", "name": "Giant river-catfish", "thumb": "tn_Spsee_u2.jpg", "sprite": "sp-blue_catfish.png", "group": "catfish", "rarity": 1, "waterType": "Brackish"}, {"lat": 28.6534, "lng": 77.263, "id": "280130", "name": "Striped snakehead", "thumb": "tn_Chbar_u6.jpg", "sprite": "sp-anchoviella_juruasanga.png", "group": "other", "rarity": 1, "waterType": "Brackish"}, {"lat": 28.6451, "lng": 77.2445, "id": "280759", "name": "Batchwa vacha", "thumb": "tn_Euvac_u3.jpg", "sprite": "sp-blue_catfish.png", "group": "catfish", "rarity": 1, "waterType": "Brackish"}, {"lat": 28.6534, "lng": 77.263, "id": "279855", "name": "Goonch", "thumb": "tn_Babag_u3.jpg", "sprite": "sp-blue_catfish.png", "group": "catfish", "rarity": 1, "waterType": "Brackish"}, {"lat": 28.62, "lng": 77.189, "id": "282767", "name": "Gangetic hairfin anchovy", "thumb": "tn_Sepha_u1.jpg", "sprite": "sp-anchoviella_juruasanga.png", "group": "anchovy", "rarity": 1, "waterType": "Brackish"}, {"lat": 27.8901, "lng": 77.7475, "id": "282518", "name": "Pool barb", "thumb": "tn_Pusop_u1.jpg", "sprite": "sp-enteromius.png", "group": "carp_minnow", "rarity": 1, "waterType": "Brackish"}]}