{"zoom": 7, "x": 91, "y": 52, "points": [{"lat": 30.4554, "lng": 77.8338, "id": "281633", "name": "Gangetic leaffish", "thumb": "tn_Nanan_u1.jpg", "sprite": "sp-anchoviella_juruasanga.png", "group": "other", "rarity": 1, "waterType": "Brackish"}, {"lat": 30.205, "lng": 77.9282, "id": "281291", "name": "Guntea loach", "thumb": "tn_Leann_u0.jpg", "sprite": "sp-anchoviella_juruasanga.png", "group": "other", "rarity": 1, "waterType": "Brackish"}, {"lat": 30.2326, "lng": 77.402, "id": "282518", "name": "Pool barb", "thumb": "tn_Pusop_u1.jpg", "sprite": "sp-enteromius.png", "group": "carp_minnow", "rarity": 1, "waterType": "Brackish"}, {"lat": 30.863, "lng": 77.2667, "id": "1605291", "name": "Tariqilabeo latius", "sprite": "sp-enteromius.png", "group": "carp_minnow", "rarity": 1}, {"lat": 30.3157, "lng": 78.0357, "id": "298263", "name": "Flying barb", "thumb": "tn_Esdan_u0.jpg", "sprite": "sp-enteromius.png", "group": "carp_minnow", "rarity": 1, "waterType": "Brackish"}, {"lat": 30.363, "lng": 78.028, "id": "154285", "name": "Bleak", "thumb": "tn_Alalb_u2.jpg", "sprite": "sp-enteromius.png", "group": "carp_minnow", "rarity": 1, "waterType": "Brackish"}, {"lat": 30.1621, "lng": 77.963, "id": "282550", "name": "Slender rasbora", "thumb": "tn_Radan_u1.jpg", "sprite": "sp-enteromius.png", "group": "carp_minnow", "rarity": 1, "waterType": "Brackish"}, {"lat": 29.8828, "lng": 77.8955, "id": "281881", "name": "Butter catfish", "thumb": "tn_Ombim_u5.jpg", "sprite": "sp-blue_catfish.png", "group": "catfish", "rarity": 1, "waterType": "Brackish"}, {"lat": 30.4289, "lng": 77.7229, "id": "271227", "name": "Xenentodon", "sprite": "sp-anchoviella_juruasanga.png", "group": "other", "rarity": 1}, {"lat": 30.4312, "lng": 77.4572, "id": "280129", "name": "Spotted snakehead", "thumb": "tn_Chpun_ul.jpg", "sprite": "sp-anchoviella_juruasanga.png", "group": "other", "rarity": 1, "waterType": "Brackish"}, {"lat": 31.0, "lng": 76.0, "id": "342218", "name": "Architeuthis dux", "sprite": "sp-giant_pacific_octopus.png", "group": "octopus_squid", "rarity": 1}, {"lat": 30.3783, "lng": 76.7808, "id": "154298", "name": "Goldfish", "thumb": "tn_Caaurau1.jpg", "sprite": "sp-enteromius.png", "group": "carp_minnow", "rarity": 1, "waterType": "Brackish"}, {"lat": 30.2197, "lng": 77.8507, "id": "1021907", "name": "Ticto barb", "thumb": "tn_Putic_u0.jpg", "sprite": "sp-enteromius.png", "group": "carp_minnow", "rarity": 1, "waterType": "Brackish"}, {"lat": 31.0546, "lng": 76.9784, "id": "269801", "name": "Mastacembelus", "sprite": "sp-anchoviella_juruasanga.png", "group": "other", "rarity": 1}, {"lat": 29.9264, "lng": 77.7183, "id": "319960", "name": "Indian potasi", "thumb": "tn_Psath_u2.jpg", "sprite": "sp-blue_catfish.png", "group": "catfish", "rarity": 1, "waterType": "Brackish"}, {"lat": 30.541, "lng": 77.65, "id": "154163", "name": "Cyprinidae", "sprite": "sp-enteromius.png", "group": "carp_minnow", "rarity": 1}, {"lat": 30.2859, "lng": 77.5947, "id": "321753", "name": "Olive barb", "thumb": "tn_Pusar_f0.jpg", "sprite": "sp-enteromius.png", "group": "carp_minnow", "rarity": 1, "waterType": "Brackish"}, {"lat": 29.925, "lng": 78.15, "id": "282072", "name": "Indian glassy fish", "thumb": "tn_Paran_ua.jpg", "sprite": "sp-anchoviella_juruasanga.png", "group": "other", "rarity": 1, "waterType": "Brackish"}, {"lat": 29.8828, "lng": 77.8955, "id": "219471", "name": "Tank goby", "thumb": "tn_Glgiu_u4.jpg", "sprite": "sp-eviota_bipunctata.png", "group": "goby", "rarity": 1, "waterType": "Brackish"}, {"lat": 30.613, "lng": 77.433, "id": "281527", "name": "Zig-zag eel", "thumb": "tn_Maarm_u5.jpg", "sprite": "sp-anchoviella_juruasanga.png", "group": "other", "rarity": 1, "waterType": "Brackish"}, {"lat": 31.116, "lng": 77.15, "id": "1821", "name": "Chordata", "sprite": "sp-anchoviella_juruasanga.png", "group": "other", "rarity": 1}, {"lat": 30.1026, "lng": 77.9564, "id": "282655", "name": "Large razorbelly minnow", "thumb": "tn_Sabac_u0.jpg", "sprite": "sp-enteromius.png", "group": "carp_minnow", "rarity": 1, "waterType": "Brackish"}, {"lat": 29.6887, "lng": 76.9856, "id": "159325", "name": "Mosquitofish", "thumb": "tn_Gaaff_m2.jpg", "sprite": "sp-anchoviella_juruasanga.png", "group": "other", "rarity": 1, "waterType": "Brackish"}, {"lat": 30.9818, "lng": 76.5131, "id": "268803", "name": "Clupisoma", "sprite": "sp-blue_catfish.png", "group": "catfish", "rarity": 1}, {"lat": 31.02, "lng": 76.5, "id": "1548605", "name": "Pallisentis (Pallisentis) roparensis", "sprite": "sp-anchoviella_juruasanga.png", "group": "other", "rarity": 1}, {"lat": 30.5531, "lng": 77.4558, "id": "277036", "name": "Elongate glass-perchlet", "thumb": "tn_Chnam_u3.jpg", "sprite": "sp-anchoviella_juruasanga.png", "group": "other", "rarity": 1, "waterType": "Brackish"}, {"lat": 29.97, "lng": 77.541, "id": "280191", "name": "Mrigal carp", "thumb": "tn_Cicir_u1.jpg", "sprite": "sp-enteromius.png", "group": "carp_minnow", "rarity": 1, "waterType": "Brackish"}, {"lat": 29.9039, "lng": 78.0228, "id": "281615", "name": "Gangetic mystus", "thumb": "tn_Mycav_u0.jpg", "sprite": "sp-blue_catfish.png", "group": "catfish", "rarity": 1, "waterType": "Brackish"}, {"lat": 31.1046, "lng": 77.1703, "id": "269232", "name": "Glyptothorax", "sprite": "sp-blue_catfish.png", "group": "catfish", "rarity": 1}, {"lat": 29.8828, "lng": 77.8955, "id": "281238", "name": "Orangefin labeo", "thumb": "tn_Lacal_u9.jpg", "sprite": "sp-enteromius.png", "group": "carp_minnow", "rarity": 1, "waterType": "Brackish"}, {"lat": 30.5222, "lng": 77.5249, "id": "281620", "name": "Striped dwarf catfish", "thumb": "tn_Myvit_u0.jpg", "sprite": "sp-blue_catfish.png", "group": "catfish", "rarity": 1, "waterType": "Brackish"}, {"lat": 30.3157, "lng": 78.0357, "id": "217659", "name": "Striped eel catfish", "thumb": "tn_Pllin_u1.jpg", "sprite": "sp-blue_catfish.png", "group": "catfish", "rarity": 1, "waterType": "Brackish"}, {"lat": 30.3783, "lng": 76.7808, "id": "205192", "name": "Periophthalmus", "sprite": "sp-eviota_bipunctata.png", "group": "goby", "rarity": 1}, {"lat": 29.945, "lng": 78.169, "id": "283170", "name": "Freshwater garfish", "thumb": "tn_Xecan_u3.jpg", "sprite": "sp-anchoviella_juruasanga.png", "group": "other", "rarity": 1, "waterType": "Brackish"}, {"lat": 30.9818, "lng": 76.5131, "id": "270838", "name": "Sciades", "sprite": "sp-blue_catfish.png", "group": "catfish", "rarity": 1}, {"lat": 29.8828, "lng": 77.8955, "id": "1011905", "name": "Indian glass barb", "thumb": "tn_Chlau_u0.jpg", "sprite": "sp-laubuka_laubuca.png", "group": "carp_minnow", "rarity": 1, "waterType": "Brackish"}, {"lat": 29.97, "lng": 77.541, "id": "281072", "name": "Stinging catfish", "thumb": "tn_Hefos_u5.jpg", "sprite": "sp-blue_catfish.png", "group": "catfish", "rarity": 1, "waterType": "Brackish"}]}