{"zoom": 7, "x": 92, "y": 55, "points": [{"lat": 23.983, "lng": 79.183, "id": "276244", "name": "Brownback trevally", "thumb": "tn_Capra_u0.jpg", "sprite": "sp-anchoviella_juruasanga.png", "group": "other", "rarity": 1, "waterType": "Saltwater"}, {"lat": 23.681, "lng": 81.02, "id": "280728", "name": "Pearlspot", "thumb": "tn_Etsur_u4.jpg", "sprite": "sp-coptodon_louka.png", "group": "cichlid", "rarity": 1, "waterType": "Brackish"}, {"lat": 23.043, "lng": 80.061, "id": "269731", "name": "Lophogobius", "sprite": "sp-eviota_bipunctata.png", "group": "goby", "rarity": 1}, {"lat": 23.175, "lng": 79.931, "id": "281072", "name": "Stinging catfish", "thumb": "tn_Hefos_u5.jpg", "sprite": "sp-blue_catfish.png", "group": "catfish", "rarity": 1, "waterType": "Brackish"}, {"lat": 24.5, "lng": 81.0, "id": "1747", "name": "Ovulidae", "sprite": "sp-cowrie_shell.png", "group": "sea_snail", "rarity": 1}, {"lat": 23.175, "lng": 79.931, "id": "277036", "name": "Elongate glass-perchlet", "thumb": "tn_Chnam_u3.jpg", "sprite": "sp-anchoviella_juruasanga.png", "group": "other", "rarity": 1, "waterType": "Brackish"}, {"lat": 23.175, "lng": 79.931, "id": "282514", "name": "Scarlet-banded barb", "thumb": "tn_Puamp_u0.jpg", "sprite": "sp-enteromius.png", "group": "carp_minnow", "rarity": 1, "waterType": "Brackish"}, {"lat": 23.175, "lng": 79.931, "id": "321753", "name": "Olive barb", "thumb": "tn_Pusar_f0.jpg", "sprite": "sp-enteromius.png", "group": "carp_minnow", "rarity": 1, "waterType": "Brackish"}, {"lat": 23.681, "lng": 81.02, "id": "277829", "name": "Grey bambooshark", "thumb": "tn_Chgri_u0.jpg", "sprite": "sp-great_white_shark.png", "group": "shark", "rarity": 1, "waterType": "Brackish"}, {"lat": 24.5, "lng": 81.0, "id": "137813", "name": "Conus", "sprite": "sp-cowrie_shell.png", "group": "sea_snail", "rarity": 1}, {"lat": 24.5, "lng": 81.0, "id": "506964", "name": "Spondylus butleri", "sprite": "sp-blue_mussel.png", "group": "clam_mussel", "rarity": 1}, {"lat": 23.9833, "lng": 79.7167, "id": "276585", "name": "Bahama duckbill", "sprite": "sp-anchoviella_juruasanga.png", "group": "other", "rarity": 1, "waterType": "Saltwater"}, {"lat": 23.175, "lng": 79.931, "id": "281291", "name": "Guntea loach", "thumb": "tn_Leann_u0.jpg", "sprite": "sp-anchoviella_juruasanga.png", "group": "other", "rarity": 1, "waterType": "Brackish"}, {"lat": 23.175, "lng": 79.931, "id": "1011905", "name": "Indian glass barb", "thumb": "tn_Chlau_u0.jpg", "sprite": "sp-laubuka_laubuca.png", "group": "carp_minnow", "rarity": 1, "waterType": "Brackish"}, {"lat": 24.318, "lng": 81.451, "id": "206842", "name": "Neritina", "sprite": "sp-cowrie_shell.png", "group": "sea_snail", "rarity": 1}, {"lat": 23.175, "lng": 79.931, "id": "282518", "name": "Pool barb", "thumb": "tn_Pusop_u1.jpg", "sprite": "sp-enteromius.png", "group": "carp_minnow", "rarity": 1, "waterType": "Brackish"}, {"lat": 23.175, "lng": 79.931, "id": "281481", "name": "Barred spiny eel", "thumb": "tn_Mapan_u0.jpg", "sprite": "sp-anchoviella_juruasanga.png", "group": "other", "rarity": 1, "waterType": "Brackish"}, {"lat": 22.96, "lng": 78.86, "id": "282655", "name": "Large razorbelly minnow", "thumb": "tn_Sabac_u0.jpg", "sprite": "sp-enteromius.png", "group": "carp_minnow", "rarity": 1, "waterType": "Brackish"}, {"lat": 22.0, "lng": 80.0, "id": "325990", "name": "Proboscidea", "sprite": "sp-anchoviella_juruasanga.png", "group": "other", "rarity": 1}, {"lat": 22.0, "lng": 80.0, "id": "2687", "name": "Carnivora", "sprite": "sp-anchoviella_juruasanga.png", "group": "other", "rarity": 1}, {"lat": 24.5, "lng": 81.0, "id": "205978", "name": "Cypraea", "sprite": "sp-cowrie_shell.png", "group": "sea_snail", "rarity": 1}, {"lat": 23.175, "lng": 79.931, "id": "282072", "name": "Indian glassy fish", "thumb": "tn_Paran_ua.jpg", "sprite": "sp-anchoviella_juruasanga.png", "group": "other", "rarity": 1, "waterType": "Brackish"}, {"lat": 24.5, "lng": 81.0, "id": "345756", "name": "Echinolittorina", "sprite": "sp-cowrie_shell.png", "group": "sea_snail", "rarity": 1}, {"lat": 24.318, "lng": 81.451, "id": "214493", "name": "Janthina globosa", "sprite": "sp-cowrie_shell.png", "group": "sea_snail", "rarity": 1}, {"lat": 24.5, "lng": 81.0, "id": "204788", "name": "Asaphis", "sprite": "sp-blue_mussel.png", "group": "clam_mussel", "rarity": 1}, {"lat": 23.166, "lng": 79.95, "id": "148377", "name": "Chydorus", "sprite": "sp-anchoviella_juruasanga.png", "group": "other", "rarity": 1}, {"lat": 23.175, "lng": 79.931, "id": "282550", "name": "Slender rasbora", "thumb": "tn_Radan_u1.jpg", "sprite": "sp-enteromius.png", "group": "carp_minnow", "rarity": 1, "waterType": "Brackish"}, {"lat": 23.681, "lng": 81.02, "id": "279651", "name": "Striped panchax", "thumb": "tn_Aplin_u9.jpg", "sprite": "sp-anchoviella_juruasanga.png", "group": "other", "rarity": 1, "waterType": "Brackish"}]}