{"zoom": 7, "x": 92, "y": 62, "points": [{"lat": 4.33, "lng": 79.423, "id": "155670", "name": "Diplostraca", "sprite": "sp-anchoviella_juruasanga.png", "group": "other", "rarity": 1}, {"lat": 4.33, "lng": 79.423, "id": "1762", "name": "Nudibranchia", "sprite": "sp-cowrie_shell.png", "group": "sea_snail", "rarity": 1}, {"lat": 4.85, "lng": 79.07, "id": "119906", "name": "Siriella", "sprite": "sp-american_lobster.png", "group": "crab_lobster", "rarity": 1}, {"lat": 4.233, "lng": 80.067, "id": "351953", "name": "Gloiopotes watsoni", "sprite": "sp-anchoviella_juruasanga.png", "group": "other", "rarity": 1}, {"lat": 5.4667, "lng": 80.0, "id": "221206", "name": "Protiaropsis minor", "sprite": "sp-anchoviella_juruasanga.png", "group": "other", "rarity": 1}, {"lat": 4.3, "lng": 79.3845, "id": "106731", "name": "Sergestidae", "sprite": "sp-american_lobster.png", "group": "crab_lobster", "rarity": 1}, {"lat": 5.4667, "lng": 80.0, "id": "117506", "name": "Cytaeis tetrastyla", "sprite": "sp-anchoviella_juruasanga.png", "group": "other", "rarity": 1}, {"lat": 3.3018, "lng": 80.1007, "id": "105839", "name": "Shortfin mako", "thumb": "tn_Isoxy_u0.jpg", "sprite": "sp-great_white_shark.png", "group": "shark", "rarity": 1, "waterType": "Saltwater"}, {"lat": 4.77, "lng": 79.7, "id": "136980", "name": "Delphinidae", "sprite": "sp-bottlenose_dolphin.png", "group": "dolphin", "rarity": 1}, {"lat": 5.35, "lng": 80.633, "id": "1314230", "name": "Macrochoecilla macrocheira", "sprite": "sp-anchoviella_juruasanga.png", "group": "other", "rarity": 1}, {"lat": 4.3, "lng": 80.13, "id": "104210", "name": "Pontellina", "sprite": "sp-anchoviella_juruasanga.png", "group": "other", "rarity": 1}, {"lat": 5.4083, "lng": 80.3167, "id": "117865", "name": "Rhopalonema velatum", "sprite": "sp-anchoviella_juruasanga.png", "group": "other", "rarity": 1}, {"lat": 4.3, "lng": 80.13, "id": "104183", "name": "Lucicutia", "sprite": "sp-anchoviella_juruasanga.png", "group": "other", "rarity": 1}, {"lat": 4.33, "lng": 79.426, "id": "266888", "name": "Zonosagitta pulchra", "sprite": "sp-anchoviella_juruasanga.png", "group": "other", "rarity": 1}, {"lat": 4.4125, "lng": 79.525, "id": "127845", "name": "Paraconchoecia oblonga", "sprite": "sp-anchoviella_juruasanga.png", "group": "other", "rarity": 1}, {"lat": 4.4125, "lng": 79.525, "id": "127794", "name": "Halocypris inflata", "sprite": "sp-anchoviella_juruasanga.png", "group": "other", "rarity": 1}, {"lat": 4.3, "lng": 80.13, "id": "104140", "name": "Haloptilus", "sprite": "sp-anchoviella_juruasanga.png", "group": "other", "rarity": 1}, {"lat": 4.3, "lng": 80.13, "id": "128586", "name": "Oncaeidae", "sprite": "sp-anchoviella_juruasanga.png", "group": "other", "rarity": 1}, {"lat": 4.33, "lng": 79.426, "id": "266249", "name": "Ferosagitta robusta", "sprite": "sp-anchoviella_juruasanga.png", "group": "other", "rarity": 1}, {"lat": 3.3018, "lng": 80.1007, "id": "105801", "name": "Blue shark", "thumb": "tn_Prgla_j1.jpg", "sprite": "sp-great_white_shark.png", "group": "shark", "rarity": 1, "waterType": "Brackish"}, {"lat": 4.3773, "lng": 79.3936, "id": "2081", "name": "Chaetognatha", "sprite": "sp-anchoviella_juruasanga.png", "group": "other", "rarity": 1}, {"lat": 4.33, "lng": 79.42, "id": "2", "name": "Animalia", "sprite": "sp-anchoviella_juruasanga.png", "group": "other", "rarity": 1}, {"lat": 4.33, "lng": 79.423, "id": "1131", "name": "Isopoda", "sprite": "sp-american_lobster.png", "group": "crab_lobster", "rarity": 1}, {"lat": 4.2333, "lng": 80.0667, "id": "157785", "name": "Pandarus smithii", "sprite": "sp-anchoviella_juruasanga.png", "group": "other", "rarity": 1}, {"lat": 5.4083, "lng": 80.3167, "id": "117267", "name": "Solmundella bitentaculata", "sprite": "sp-anchoviella_juruasanga.png", "group": "other", "rarity": 1}, {"lat": 4.33, "lng": 79.423, "id": "958", "name": "Tomopteridae", "sprite": "sp-anchoviella_juruasanga.png", "group": "other", "rarity": 1}, {"lat": 4.33, "lng": 79.422, "id": "1806", "name": "Echinodermata", "sprite": "sp-sea_cucumber.png", "group": "starfish", "rarity": 1}, {"lat": 4.33, "lng": 79.42, "id": "799", "name": "Nematoda", "sprite": "sp-anchoviella_juruasanga.png", "group": "other", "rarity": 1}, {"lat": 4.33, "lng": 79.426, "id": "1789", "name": "Phoronida", "sprite": "sp-anchoviella_juruasanga.png", "group": "other", "rarity": 1}, {"lat": 4.33, "lng": 79.42, "id": "106794", "name": "Palinuridae", "sprite": "sp-american_lobster.png", "group": "crab_lobster", "rarity": 1}, {"lat": 5.35, "lng": 80.633, "id": "176552", "name": "Mollicia minki", "sprite": "sp-anchoviella_juruasanga.png", "group": "other", "rarity": 1}, {"lat": 4.9333, "lng": 80.875, "id": "128533", "name": "Umbellula thomsoni", "sprite": "sp-actiniidae.png", "group": "coral", "rarity": 1}, {"lat": 4.3, "lng": 80.13, "id": "106422", "name": "Oithonidae", "sprite": "sp-anchoviella_juruasanga.png", "group": "other", "rarity": 1}, {"lat": 4.33, "lng": 79.426, "id": "391906", "name": "Tornaria", "sprite": "sp-anchoviella_juruasanga.png", "group": "other", "rarity": 1}, {"lat": 2.933, "lng": 78.983, "id": "220842", "name": "Clausocalanus minor", "sprite": "sp-anchoviella_juruasanga.png", "group": "other", "rarity": 1}, {"lat": 5.35, "lng": 80.633, "id": "127852", "name": "Paramollicia rhynchena", "sprite": "sp-anchoviella_juruasanga.png", "group": "other", "rarity": 1}, {"lat": 5.43, "lng": 81.18, "id": "137098", "name": "Grampus griseus", "sprite": "sp-bottlenose_dolphin.png", "group": "dolphin", "rarity": 1}, {"lat": 4.33, "lng": 79.423, "id": "106671", "name": "Anomura", "sprite": "sp-american_lobster.png", "group": "crab_lobster", "rarity": 1}, {"lat": 4.33, "lng": 79.426, "id": "105428", "name": "Krohnitta pacifica", "sprite": "sp-anchoviella_juruasanga.png", "group": "other", "rarity": 1}, {"lat": 5.25, "lng": 80.25, "id": "220293", "name": "Lepidochelys olivacea", "sprite": "sp-green_sea_turtle.png", "group": "sea_turtle", "rarity": 1}, {"lat": 4.33, "lng": 79.42, "id": "1128", "name": "Euphausiacea", "sprite": "sp-antarctic_krill.png", "group": "shrimp", "rarity": 1}, {"lat": 4.33, "lng": 79.423, "id": "1133", "name": "Tanaidacea", "sprite": "sp-american_lobster.png", "group": "crab_lobster", "rarity": 1}, {"lat": 4.3, "lng": 80.13, "id": "1104", "name": "Siphonostomatoida", "sprite": "sp-anchoviella_juruasanga.png", "group": "other", "rarity": 1}, {"lat": 4.3, "lng": 80.13, "id": "104151", "name": "Calanoides", "sprite": "sp-anchoviella_juruasanga.png", "group": "other", "rarity": 1}, {"lat": 4.325, "lng": 79.5433, "id": "105448", "name": "Sagitta bipunctata", "sprite": "sp-anchoviella_juruasanga.png", "group": "other", "rarity": 1}, {"lat": 4.33, "lng": 79.42, "id": "1051", "name": "Cestoda", "sprite": "sp-anchoviella_juruasanga.png", "group": "other", "rarity": 1}, {"lat": 4.33, "lng": 79.426, "id": "266247", "name": "Ferosagitta ferox", "sprite": "sp-anchoviella_juruasanga.png", "group": "other", "rarity": 1}, {"lat": 4.33, "lng": 79.42, "id": "135382", "name": "Physalia", "sprite": "sp-anchoviella_juruasanga.png", "group": "other", "rarity": 1}, {"lat": 4.3, "lng": 80.13, "id": "104087", "name": "Heterorhabdidae", "sprite": "sp-anchoviella_juruasanga.png", "group": "other", "rarity": 1}, {"lat": 4.33, "lng": 79.423, "id": "149668", "name": "Mysida", "sprite": "sp-american_lobster.png", "group": "crab_lobster", "rarity": 1}, {"lat": 4.4125, "lng": 79.525, "id": "127862", "name": "Pseudoconchoecia concentrica", "sprite": "sp-anchoviella_juruasanga.png", "group": "other", "rarity": 1}, {"lat": 4.33, "lng": 79.423, "id": "103353", "name": "Copelata", "sprite": "sp-anchoviella_juruasanga.png", "group": "other", "rarity": 1}, {"lat": 4.3, "lng": 80.13, "id": "104185", "name": "Bathycalanus", "sprite": "sp-anchoviella_juruasanga.png", "group": "other", "rarity": 1}, {"lat": 4.3, "lng": 80.13, "id": "104106", "name": "Temoridae", "sprite": "sp-anchoviella_juruasanga.png", "group": "other", "rarity": 1}, {"lat": 5.35, "lng": 80.633, "id": "127777", "name": "Conchoecissa ametra", "sprite": "sp-anchoviella_juruasanga.png", "group": "other", "rarity": 1}, {"lat": 5.35, "lng": 80.6333, "id": "117860", "name": "Pantachogon haeckeli", "sprite": "sp-anchoviella_juruasanga.png", "group": "other", "rarity": 1}, {"lat": 5.35, "lng": 80.6333, "id": "117266", "name": "Aeginura grimaldii", "sprite": "sp-anchoviella_juruasanga.png", "group": "other", "rarity": 1}, {"lat": 5.4083, "lng": 80.3167, "id": "158736", "name": "Günther's boafish", "thumb": "tn_Staff_u1.jpg", "sprite": "sp-anchoviella_juruasanga.png", "group": "other", "rarity": 1, "waterType": "Saltwater"}, {"lat": 5.35, "lng": 80.633, "id": "127768", "name": "Conchoecetta acuminata", "sprite": "sp-anchoviella_juruasanga.png", "group": "other", "rarity": 1}, {"lat": 4.33, "lng": 79.42, "id": "117199", "name": "Porpita", "sprite": "sp-anchoviella_juruasanga.png", "group": "other", "rarity": 1}, {"lat": 3.3018, "lng": 80.1007, "id": "126333", "name": "Long snouted lancetfish", "thumb": "tn_Alfer_u0.jpg", "sprite": "sp-anchoviella_juruasanga.png", "group": "other", "rarity": 1, "waterType": "Saltwater"}, {"lat": 4.33, "lng": 79.423, "id": "883", "name": "Polychaeta", "sprite": "sp-anchoviella_juruasanga.png", "group": "other", "rarity": 1}, {"lat": 4.33, "lng": 79.42, "id": "178738", "name": "[unassigned] Enteropneusta", "sprite": "sp-anchoviella_juruasanga.png", "group": "other", "rarity": 1}, {"lat": 4.3, "lng": 80.13, "id": "104174", "name": "Euchaeta", "sprite": "sp-anchoviella_juruasanga.png", "group": "other", "rarity": 1}, {"lat": 4.3, "lng": 80.13, "id": "104191", "name": "Pleuromamma", "sprite": "sp-anchoviella_juruasanga.png", "group": "other", "rarity": 1}, {"lat": 4.3, "lng": 80.13, "id": "104074", "name": "Acartiidae", "sprite": "sp-anchoviella_juruasanga.png", "group": "other", "rarity": 1}, {"lat": 5.4083, "lng": 80.3167, "id": "292178", "name": "Corymorpha furcata", "sprite": "sp-anchoviella_juruasanga.png", "group": "other", "rarity": 1}, {"lat": 5.0, "lng": 81.0, "id": "206441", "name": "Callogobius", "sprite": "sp-eviota_bipunctata.png", "group": "goby", "rarity": 1}, {"lat": 4.3273, "lng": 79.4873, "id": "128595", "name": "Sapphirinidae", "sprite": "sp-anchoviella_juruasanga.png", "group": "other", "rarity": 1}, {"lat": 5.35, "lng": 80.633, "id": "127787", "name": "Fellia cornuta", "sprite": "sp-anchoviella_juruasanga.png", "group": "other", "rarity": 1}, {"lat": 4.3, "lng": 80.13, "id": "104103", "name": "Scolecitrichidae", "sprite": "sp-anchoviella_juruasanga.png", "group": "other", "rarity": 1}, {"lat": 4.4436, "lng": 79.4691, "id": "104902", "name": "Branchiostoma", "sprite": "sp-anchoviella_juruasanga.png", "group": "other", "rarity": 1}, {"lat": 4.33, "lng": 79.422, "id": "5", "name": "Protozoa", "sprite": "sp-anchoviella_juruasanga.png", "group": "other", "rarity": 1}, {"lat": 4.4067, "lng": 79.43, "id": "1337", "name": "Hydrozoa", "sprite": "sp-anchoviella_juruasanga.png", "group": "other", "rarity": 1}, {"lat": 4.33, "lng": 79.423, "id": "1248", "name": "Ctenophora", "sprite": "sp-anchoviella_juruasanga.png", "group": "other", "rarity": 1}, {"lat": 4.646, "lng": 79.606, "id": "127861", "name": "Proceroecia procera", "sprite": "sp-anchoviella_juruasanga.png", "group": "other", "rarity": 1}, {"lat": 4.325, "lng": 79.5433, "id": "266712", "name": "Aidanosagitta regularis", "sprite": "sp-anchoviella_juruasanga.png", "group": "other", "rarity": 1}, {"lat": 5.35, "lng": 80.633, "id": "127734", "name": "Alacia valdiviae", "sprite": "sp-anchoviella_juruasanga.png", "group": "other", "rarity": 1}, {"lat": 4.646, "lng": 79.606, "id": "127773", "name": "Conchoecia magna", "sprite": "sp-anchoviella_juruasanga.png", "group": "other", "rarity": 1}, {"lat": 4.33, "lng": 79.42, "id": "146142", "name": "Bryozoa", "sprite": "sp-anchoviella_juruasanga.png", "group": "other", "rarity": 1}, {"lat": 4.325, "lng": 79.5433, "id": "105430", "name": "Pterosagitta draco", "sprite": "sp-anchoviella_juruasanga.png", "group": "other", "rarity": 1}, {"lat": 5.4083, "lng": 80.3167, "id": "285146", "name": "Neoturris papua", "sprite": "sp-anchoviella_juruasanga.png", "group": "other", "rarity": 1}, {"lat": 4.33, "lng": 79.423, "id": "146420", "name": "Tunicata", "sprite": "sp-anchoviella_juruasanga.png", "group": "other", "rarity": 1}, {"lat": 2.9178, "lng": 78.9678, "id": "161455", "name": "Hemisiriella pulchra", "sprite": "sp-american_lobster.png", "group": "crab_lobster", "rarity": 1}, {"lat": 4.33, "lng": 79.42, "id": "1109", "name": "Rhizocephala", "sprite": "sp-anchoviella_juruasanga.png", "group": "other", "rarity": 1}, {"lat": 4.3, "lng": 80.13, "id": "104080", "name": "Candaciidae", "sprite": "sp-anchoviella_juruasanga.png", "group": "other", "rarity": 1}, {"lat": 2.933, "lng": 78.983, "id": "104506", "name": "Clausocalanus mastigophorus", "sprite": "sp-anchoviella_juruasanga.png", "group": "other", "rarity": 1}, {"lat": 5.35, "lng": 80.633, "id": "127733", "name": "Alacia leptothrix", "sprite": "sp-anchoviella_juruasanga.png", "group": "other", "rarity": 1}, {"lat": 4.3, "lng": 80.13, "id": "104075", "name": "Aetideidae", "sprite": "sp-anchoviella_juruasanga.png", "group": "other", "rarity": 1}, {"lat": 5.4085, "lng": 80.3165, "id": "176752", "name": "Macrocypridina poulseni", "sprite": "sp-anchoviella_juruasanga.png", "group": "other", "rarity": 1}, {"lat": 4.6, "lng": 79.38, "id": "2688", "name": "Cetacea", "sprite": "sp-anchoviella_juruasanga.png", "group": "other", "rarity": 1}, {"lat": 4.33, "lng": 79.423, "id": "204105", "name": "Halobates", "sprite": "sp-anchoviella_juruasanga.png", "group": "other", "rarity": 1}, {"lat": 5.35, "lng": 80.6333, "id": "125811", "name": "Oneirodes", "sprite": "sp-deep_sea_anglerfish.png", "group": "anglerfish", "rarity": 1}, {"lat": 4.94, "lng": 80.45, "id": "215541", "name": "Conus lividus", "sprite": "sp-cowrie_shell.png", "group": "sea_snail", "rarity": 1}, {"lat": 5.4667, "lng": 80.0, "id": "117272", "name": "Aequorea pensilis", "sprite": "sp-anchoviella_juruasanga.png", "group": "other", "rarity": 1}, {"lat": 4.33, "lng": 79.423, "id": "1082", "name": "Cirripedia", "sprite": "sp-anchoviella_juruasanga.png", "group": "other", "rarity": 1}, {"lat": 5.35, "lng": 80.633, "id": "176549", "name": "Mollicia acanthophora", "sprite": "sp-anchoviella_juruasanga.png", "group": "other", "rarity": 1}, {"lat": 5.4085, "lng": 80.3165, "id": "127543", "name": "Halocypris", "sprite": "sp-anchoviella_juruasanga.png", "group": "other", "rarity": 1}, {"lat": 5.35, "lng": 80.633, "id": "127826", "name": "Mollicia mollis", "sprite": "sp-anchoviella_juruasanga.png", "group": "other", "rarity": 1}, {"lat": 2.92, "lng": 78.97, "id": "955803", "name": "Lopadorrhynchus indica", "sprite": "sp-anchoviella_juruasanga.png", "group": "other", "rarity": 1}, {"lat": 5.35, "lng": 80.6333, "id": "117854", "name": "Colobonema sericeum", "sprite": "sp-anchoviella_juruasanga.png", "group": "other", "rarity": 1}, {"lat": 4.33, "lng": 79.42, "id": "117200", "name": "Velella", "sprite": "sp-anchoviella_juruasanga.png", "group": "other", "rarity": 1}, {"lat": 5.35, "lng": 80.6333, "id": "410340", "name": "Bolitaena pygmaea", "sprite": "sp-giant_pacific_octopus.png", "group": "octopus_squid", "rarity": 1}, {"lat": 5.35, "lng": 80.633, "id": "127713", "name": "Gigantocypris danae", "sprite": "sp-anchoviella_juruasanga.png", "group": "other", "rarity": 1}, {"lat": 5.4083, "lng": 80.3167, "id": "221102", "name": "Bougainvillia fulva", "sprite": "sp-anchoviella_juruasanga.png", "group": "other", "rarity": 1}, {"lat": 4.5883, "lng": 79.6933, "id": "127820", "name": "Mikroconchoecia curta", "sprite": "sp-anchoviella_juruasanga.png", "group": "other", "rarity": 1}, {"lat": 4.2869, "lng": 79.4045, "id": "11676", "name": "Pisces", "sprite": "sp-anchoviella_juruasanga.png", "group": "other", "rarity": 1}, {"lat": 5.35, "lng": 80.633, "id": "127779", "name": "Conchoecissa plinthina", "sprite": "sp-anchoviella_juruasanga.png", "group": "other", "rarity": 1}, {"lat": 4.3, "lng": 80.13, "id": "104156", "name": "Undinula", "sprite": "sp-anchoviella_juruasanga.png", "group": "other", "rarity": 1}, {"lat": 4.33, "lng": 79.423, "id": "135220", "name": "Scyphozoa", "sprite": "sp-box_jellyfish.png", "group": "jellyfish", "rarity": 1}, {"lat": 4.33, "lng": 79.42, "id": "558", "name": "Porifera", "sprite": "sp-barrel_sponge.png", "group": "sponge", "rarity": 1}, {"lat": 5.35, "lng": 80.633, "id": "175693", "name": "Archiconchoecissa cucullata", "sprite": "sp-anchoviella_juruasanga.png", "group": "other", "rarity": 1}, {"lat": 4.0, "lng": 80.0, "id": "165227", "name": "Spongia (Spongia) perforata", "sprite": "sp-barrel_sponge.png", "group": "sponge", "rarity": 1}, {"lat": 4.3, "lng": 80.13, "id": "104190", "name": "Metridia", "sprite": "sp-anchoviella_juruasanga.png", "group": "other", "rarity": 1}, {"lat": 3.3018, "lng": 80.1007, "id": "158540", "name": "Pelagic stingray", "thumb": "tn_Ptvio_m0.jpg", "sprite": "sp-himantura_australis.png", "group": "ray", "rarity": 1, "waterType": "Saltwater"}, {"lat": 4.33, "lng": 79.426, "id": "110671", "name": "Euphausiidae", "sprite": "sp-antarctic_krill.png", "group": "shrimp", "rarity": 1}, {"lat": 4.3167, "lng": 79.4275, "id": "793", "name": "Platyhelminthes", "sprite": "sp-anchoviella_juruasanga.png", "group": "other", "rarity": 1}, {"lat": 5.4357, "lng": 79.9837, "id": "137119", "name": "Physeter macrocephalus", "sprite": "sp-blue_whale.png", "group": "whale", "rarity": 1}, {"lat": 4.4918, "lng": 79.56, "id": "101", "name": "Gastropoda", "sprite": "sp-cowrie_shell.png", "group": "sea_snail", "rarity": 1}, {"lat": 4.4436, "lng": 79.4691, "id": "22626", "name": "Thaliacea", "sprite": "sp-anchoviella_juruasanga.png", "group": "other", "rarity": 1}]}