{"zoom": 7, "x": 93, "y": 63, "points": [{"lat": 2.5, "lng": 82.4333, "id": "237968", "name": "Pareucalanus attenuatus", "sprite": "sp-anchoviella_juruasanga.png", "group": "other", "rarity": 1}, {"lat": 0.75, "lng": 83.75, "id": "325345", "name": "Pteropoda", "sprite": "sp-cowrie_shell.png", "group": "sea_snail", "rarity": 1}, {"lat": 0.02, "lng": 82.87, "id": "127784", "name": "Euconchoecia aculeata", "sprite": "sp-anchoviella_juruasanga.png", "group": "other", "rarity": 1}, {"lat": 0.02, "lng": 82.87, "id": "104183", "name": "Lucicutia", "sprite": "sp-anchoviella_juruasanga.png", "group": "other", "rarity": 1}, {"lat": 1.0667, "lng": 83.5922, "id": "1803", "name": "Brachiopoda", "sprite": "sp-anchoviella_juruasanga.png", "group": "other", "rarity": 1}, {"lat": 1.0667, "lng": 83.5922, "id": "204105", "name": "Halobates", "sprite": "sp-anchoviella_juruasanga.png", "group": "other", "rarity": 1}, {"lat": 0.5675, "lng": 83.53, "id": "266268", "name": "Serratosagitta pacifica", "sprite": "sp-anchoviella_juruasanga.png", "group": "other", "rarity": 1}, {"lat": 2.1858, "lng": 82.5018, "id": "127027", "name": "Yellowfin tuna", "thumb": "tn_Thalb_u0.jpg", "sprite": "sp-bluefin_tuna.png", "group": "tuna_mackerel", "rarity": 1, "waterType": "Brackish"}, {"lat": 2.6205, "lng": 83.3522, "id": "105789", "name": "Silky shark", "thumb": "tn_Cafal_u4.jpg", "sprite": "sp-great_white_shark.png", "group": "shark", "rarity": 1, "waterType": "Saltwater"}, {"lat": 2.0336, "lng": 83.1845, "id": "105793", "name": "Blacktip shark", "thumb": "tn_Calim_f0.jpg", "sprite": "sp-great_white_shark.png", "group": "shark", "rarity": 1, "waterType": "Brackish"}, {"lat": 0.02, "lng": 82.87, "id": "127785", "name": "Euconchoecia chierchiae", "sprite": "sp-anchoviella_juruasanga.png", "group": "other", "rarity": 1}, {"lat": 0.75, "lng": 83.75, "id": "110671", "name": "Euphausiidae", "sprite": "sp-antarctic_krill.png", "group": "shrimp", "rarity": 1}, {"lat": 0.75, "lng": 83.75, "id": "266249", "name": "Ferosagitta robusta", "sprite": "sp-anchoviella_juruasanga.png", "group": "other", "rarity": 1}, {"lat": 1.0667, "lng": 83.5922, "id": "103353", "name": "Copelata", "sprite": "sp-anchoviella_juruasanga.png", "group": "other", "rarity": 1}, {"lat": 2.5, "lng": 82.4333, "id": "211848", "name": "Calocalanus plumulosus", "sprite": "sp-anchoviella_juruasanga.png", "group": "other", "rarity": 1}, {"lat": 0.75, "lng": 83.75, "id": "22990", "name": "Atlantidae", "sprite": "sp-cowrie_shell.png", "group": "sea_snail", "rarity": 1}, {"lat": 0.75, "lng": 83.75, "id": "391906", "name": "Tornaria", "sprite": "sp-anchoviella_juruasanga.png", "group": "other", "rarity": 1}, {"lat": 1.7378, "lng": 83.26, "id": "126013", "name": "Makaira", "sprite": "sp-blue_marlin.png", "group": "swordfish", "rarity": 1}, {"lat": 0.02, "lng": 82.87, "id": "450886", "name": "Cypridina dentata", "sprite": "sp-anchoviella_juruasanga.png", "group": "other", "rarity": 1}, {"lat": 1.225, "lng": 83.5133, "id": "146996", "name": "Leptostraca", "sprite": "sp-american_lobster.png", "group": "crab_lobster", "rarity": 1}, {"lat": 0.75, "lng": 83.75, "id": "266708", "name": "Aidanosagitta neglecta", "sprite": "sp-anchoviella_juruasanga.png", "group": "other", "rarity": 1}, {"lat": 0.02, "lng": 82.87, "id": "104207", "name": "Calanopia", "sprite": "sp-anchoviella_juruasanga.png", "group": "other", "rarity": 1}, {"lat": 1.2364, "lng": 83.6664, "id": "22626", "name": "Thaliacea", "sprite": "sp-anchoviella_juruasanga.png", "group": "other", "rarity": 1}, {"lat": 1.0667, "lng": 83.5922, "id": "1130", "name": "Decapoda", "sprite": "sp-american_lobster.png", "group": "crab_lobster", "rarity": 1}, {"lat": 1.0667, "lng": 83.5922, "id": "1100", "name": "Calanoida", "sprite": "sp-anchoviella_juruasanga.png", "group": "other", "rarity": 1}, {"lat": 1.2241, "lng": 83.5886, "id": "101", "name": "Gastropoda", "sprite": "sp-cowrie_shell.png", "group": "sea_snail", "rarity": 1}, {"lat": 0.02, "lng": 82.87, "id": "104140", "name": "Haloptilus", "sprite": "sp-anchoviella_juruasanga.png", "group": "other", "rarity": 1}, {"lat": 1.225, "lng": 83.5133, "id": "1648", "name": "Sipunculidae", "sprite": "sp-anchoviella_juruasanga.png", "group": "other", "rarity": 1}, {"lat": 1.0, "lng": 83.0333, "id": "104651", "name": "Calocalanus contractus", "sprite": "sp-anchoviella_juruasanga.png", "group": "other", "rarity": 1}, {"lat": 0.02, "lng": 82.87, "id": "104189", "name": "Gaussia", "sprite": "sp-anchoviella_juruasanga.png", "group": "other", "rarity": 1}, {"lat": 0.02, "lng": 82.87, "id": "127732", "name": "Alacia alata", "sprite": "sp-anchoviella_juruasanga.png", "group": "other", "rarity": 1}, {"lat": 1.75, "lng": 82.7333, "id": "1464945", "name": "Paracalanus aculeatus aculeatus", "sprite": "sp-anchoviella_juruasanga.png", "group": "other", "rarity": 1}, {"lat": 1.8438, "lng": 82.9271, "id": "105", "name": "Bivalvia", "sprite": "sp-blue_mussel.png", "group": "clam_mussel", "rarity": 1}, {"lat": 0.02, "lng": 82.87, "id": "104185", "name": "Bathycalanus", "sprite": "sp-anchoviella_juruasanga.png", "group": "other", "rarity": 1}, {"lat": 0.02, "lng": 82.87, "id": "127839", "name": "Paraconchoecia echinata", "sprite": "sp-anchoviella_juruasanga.png", "group": "other", "rarity": 1}, {"lat": 0.02, "lng": 82.87, "id": "104103", "name": "Scolecitrichidae", "sprite": "sp-anchoviella_juruasanga.png", "group": "other", "rarity": 1}, {"lat": 0.02, "lng": 82.87, "id": "104085", "name": "Eucalanidae", "sprite": "sp-anchoviella_juruasanga.png", "group": "other", "rarity": 1}, {"lat": 1.75, "lng": 82.7333, "id": "104469", "name": "Nannocalanus minor", "sprite": "sp-anchoviella_juruasanga.png", "group": "other", "rarity": 1}, {"lat": 1.1755, "lng": 83.6755, "id": "2081", "name": "Chaetognatha", "sprite": "sp-anchoviella_juruasanga.png", "group": "other", "rarity": 1}, {"lat": 1.8762, "lng": 82.6481, "id": "104193", "name": "Calocalanus", "sprite": "sp-anchoviella_juruasanga.png", "group": "other", "rarity": 1}, {"lat": 0.75, "lng": 83.75, "id": "1789", "name": "Phoronida", "sprite": "sp-anchoviella_juruasanga.png", "group": "other", "rarity": 1}, {"lat": 0.02, "lng": 82.87, "id": "127861", "name": "Proceroecia procera", "sprite": "sp-anchoviella_juruasanga.png", "group": "other", "rarity": 1}, {"lat": 0.02, "lng": 82.87, "id": "106422", "name": "Oithonidae", "sprite": "sp-anchoviella_juruasanga.png", "group": "other", "rarity": 1}, {"lat": 0.5675, "lng": 83.53, "id": "266712", "name": "Aidanosagitta regularis", "sprite": "sp-anchoviella_juruasanga.png", "group": "other", "rarity": 1}, {"lat": 0.75, "lng": 83.75, "id": "137213", "name": "Pyrosomatida", "sprite": "sp-anchoviella_juruasanga.png", "group": "other", "rarity": 1}, {"lat": 1.75, "lng": 82.7333, "id": "347746", "name": "Parvocalanus", "sprite": "sp-anchoviella_juruasanga.png", "group": "other", "rarity": 1}, {"lat": 0.75, "lng": 83.75, "id": "106795", "name": "Scyllaridae", "sprite": "sp-american_lobster.png", "group": "crab_lobster", "rarity": 1}, {"lat": 0.02, "lng": 82.87, "id": "127776", "name": "Conchoecilla daphnoides", "sprite": "sp-anchoviella_juruasanga.png", "group": "other", "rarity": 1}, {"lat": 1.0975, "lng": 83.4288, "id": "1806", "name": "Echinodermata", "sprite": "sp-sea_cucumber.png", "group": "starfish", "rarity": 1}, {"lat": 1.0667, "lng": 83.5922, "id": "104902", "name": "Branchiostoma", "sprite": "sp-anchoviella_juruasanga.png", "group": "other", "rarity": 1}, {"lat": 0.02, "lng": 82.87, "id": "104100", "name": "Pseudodiaptomidae", "sprite": "sp-anchoviella_juruasanga.png", "group": "other", "rarity": 1}, {"lat": 1.225, "lng": 83.5133, "id": "178738", "name": "[unassigned] Enteropneusta", "sprite": "sp-anchoviella_juruasanga.png", "group": "other", "rarity": 1}, {"lat": 2.5, "lng": 82.4333, "id": "104548", "name": "Subeucalanus subcrassus", "sprite": "sp-anchoviella_juruasanga.png", "group": "other", "rarity": 1}, {"lat": 2.5, "lng": 82.4333, "id": "220838", "name": "Acrocalanus gracilis", "sprite": "sp-anchoviella_juruasanga.png", "group": "other", "rarity": 1}, {"lat": 0.02, "lng": 82.87, "id": "104209", "name": "Pontella", "sprite": "sp-anchoviella_juruasanga.png", "group": "other", "rarity": 1}, {"lat": 0.02, "lng": 82.87, "id": "104211", "name": "Pontellopsis", "sprite": "sp-anchoviella_juruasanga.png", "group": "other", "rarity": 1}, {"lat": 0.5675, "lng": 83.53, "id": "105430", "name": "Pterosagitta draco", "sprite": "sp-anchoviella_juruasanga.png", "group": "other", "rarity": 1}, {"lat": 1.225, "lng": 83.5133, "id": "2", "name": "Animalia", "sprite": "sp-anchoviella_juruasanga.png", "group": "other", "rarity": 1}, {"lat": 0.02, "lng": 82.87, "id": "196874", "name": "Paraeuchaeta", "sprite": "sp-anchoviella_juruasanga.png", "group": "other", "rarity": 1}, {"lat": 1.093, "lng": 83.643, "id": "14355", "name": "Stomatopoda", "sprite": "sp-american_lobster.png", "group": "crab_lobster", "rarity": 1}, {"lat": 1.0667, "lng": 83.5922, "id": "1762", "name": "Nudibranchia", "sprite": "sp-cowrie_shell.png", "group": "sea_snail", "rarity": 1}, {"lat": 0.02, "lng": 82.87, "id": "127782", "name": "Discoconchoecia elegans", "sprite": "sp-anchoviella_juruasanga.png", "group": "other", "rarity": 1}, {"lat": 1.9, "lng": 82.6733, "id": "128634", "name": "Corycaeus", "sprite": "sp-anchoviella_juruasanga.png", "group": "other", "rarity": 1}, {"lat": 1.0, "lng": 83.0333, "id": "104597", "name": "Lucicutia flavicornis", "sprite": "sp-anchoviella_juruasanga.png", "group": "other", "rarity": 1}, {"lat": 1.0667, "lng": 83.5922, "id": "146420", "name": "Tunicata", "sprite": "sp-anchoviella_juruasanga.png", "group": "other", "rarity": 1}, {"lat": 1.225, "lng": 83.5133, "id": "117199", "name": "Porpita", "sprite": "sp-anchoviella_juruasanga.png", "group": "other", "rarity": 1}, {"lat": 0.02, "lng": 82.87, "id": "127845", "name": "Paraconchoecia oblonga", "sprite": "sp-anchoviella_juruasanga.png", "group": "other", "rarity": 1}, {"lat": 0.02, "lng": 82.87, "id": "176562", "name": "Orthoconchoecia striola", "sprite": "sp-anchoviella_juruasanga.png", "group": "other", "rarity": 1}, {"lat": 0.02, "lng": 82.87, "id": "127769", "name": "Conchoecetta giesbrechti", "sprite": "sp-anchoviella_juruasanga.png", "group": "other", "rarity": 1}, {"lat": 0.02, "lng": 82.87, "id": "127862", "name": "Pseudoconchoecia concentrica", "sprite": "sp-anchoviella_juruasanga.png", "group": "other", "rarity": 1}, {"lat": 2.5, "lng": 82.4333, "id": "116382", "name": "Macrosetella gracilis", "sprite": "sp-anchoviella_juruasanga.png", "group": "other", "rarity": 1}, {"lat": 1.225, "lng": 83.5133, "id": "558", "name": "Porifera", "sprite": "sp-barrel_sponge.png", "group": "sponge", "rarity": 1}, {"lat": 1.0667, "lng": 83.5922, "id": "958", "name": "Tomopteridae", "sprite": "sp-anchoviella_juruasanga.png", "group": "other", "rarity": 1}, {"lat": 1.1755, "lng": 83.6755, "id": "1371", "name": "Siphonophorae", "sprite": "sp-anchoviella_juruasanga.png", "group": "other", "rarity": 1}, {"lat": 0.5675, "lng": 83.53, "id": "266247", "name": "Ferosagitta ferox", "sprite": "sp-anchoviella_juruasanga.png", "group": "other", "rarity": 1}, {"lat": 1.0667, "lng": 83.5922, "id": "1337", "name": "Hydrozoa", "sprite": "sp-anchoviella_juruasanga.png", "group": "other", "rarity": 1}, {"lat": 1.225, "lng": 83.5133, "id": "14260", "name": "Rotifera", "sprite": "sp-anchoviella_juruasanga.png", "group": "other", "rarity": 1}, {"lat": 1.75, "lng": 82.7333, "id": "149755", "name": "Acartia (Acartiura) clausi", "sprite": "sp-anchoviella_juruasanga.png", "group": "other", "rarity": 1}, {"lat": 0.962, "lng": 83.52, "id": "128595", "name": "Sapphirinidae", "sprite": "sp-anchoviella_juruasanga.png", "group": "other", "rarity": 1}, {"lat": 0.5675, "lng": 83.53, "id": "105437", "name": "Mesosagitta minima", "sprite": "sp-anchoviella_juruasanga.png", "group": "other", "rarity": 1}, {"lat": 0.02, "lng": 82.87, "id": "104151", "name": "Calanoides", "sprite": "sp-anchoviella_juruasanga.png", "group": "other", "rarity": 1}, {"lat": 1.0, "lng": 83.0333, "id": "104503", "name": "Clausocalanus furcatus", "sprite": "sp-anchoviella_juruasanga.png", "group": "other", "rarity": 1}, {"lat": 1.225, "lng": 83.5133, "id": "1109", "name": "Rhizocephala", "sprite": "sp-anchoviella_juruasanga.png", "group": "other", "rarity": 1}, {"lat": 1.225, "lng": 83.5133, "id": "1128", "name": "Euphausiacea", "sprite": "sp-antarctic_krill.png", "group": "shrimp", "rarity": 1}, {"lat": 0.75, "lng": 83.75, "id": "1268", "name": "Sipuncula", "sprite": "sp-anchoviella_juruasanga.png", "group": "other", "rarity": 1}, {"lat": 0.02, "lng": 82.87, "id": "176566", "name": "Paraconchoecia decipiens", "sprite": "sp-anchoviella_juruasanga.png", "group": "other", "rarity": 1}, {"lat": 1.1157, "lng": 83.6686, "id": "11676", "name": "Pisces", "sprite": "sp-anchoviella_juruasanga.png", "group": "other", "rarity": 1}, {"lat": 1.0, "lng": 83.0333, "id": "105410", "name": "Sagitta", "sprite": "sp-anchoviella_juruasanga.png", "group": "other", "rarity": 1}, {"lat": 0.9462, "lng": 83.5592, "id": "883", "name": "Polychaeta", "sprite": "sp-anchoviella_juruasanga.png", "group": "other", "rarity": 1}, {"lat": 1.0667, "lng": 83.5922, "id": "155670", "name": "Diplostraca", "sprite": "sp-anchoviella_juruasanga.png", "group": "other", "rarity": 1}, {"lat": 1.0667, "lng": 83.5922, "id": "1131", "name": "Isopoda", "sprite": "sp-american_lobster.png", "group": "crab_lobster", "rarity": 1}, {"lat": 0.02, "lng": 82.87, "id": "104077", "name": "Augaptilidae", "sprite": "sp-anchoviella_juruasanga.png", "group": "other", "rarity": 1}, {"lat": 1.225, "lng": 83.5133, "id": "135382", "name": "Physalia", "sprite": "sp-anchoviella_juruasanga.png", "group": "other", "rarity": 1}, {"lat": 1.4263, "lng": 83.1402, "id": "1078", "name": "Ostracoda", "sprite": "sp-anchoviella_juruasanga.png", "group": "other", "rarity": 1}, {"lat": 0.02, "lng": 82.87, "id": "104210", "name": "Pontellina", "sprite": "sp-anchoviella_juruasanga.png", "group": "other", "rarity": 1}, {"lat": 1.75, "lng": 82.7333, "id": "104108", "name": "Acartia", "sprite": "sp-anchoviella_juruasanga.png", "group": "other", "rarity": 1}, {"lat": 1.5, "lng": 82.8333, "id": "1461626", "name": "Clausocalanus arcuicornis arcuicornis", "sprite": "sp-anchoviella_juruasanga.png", "group": "other", "rarity": 1}, {"lat": 2.6205, "lng": 83.3522, "id": "345843", "name": "Great barracuda", "thumb": "tn_Spbar_ud.jpg", "sprite": "sp-sphyraena.png", "group": "barracuda", "rarity": 1, "waterType": "Brackish"}, {"lat": 2.5, "lng": 82.4333, "id": "104552", "name": "Euchaeta marina", "sprite": "sp-anchoviella_juruasanga.png", "group": "other", "rarity": 1}, {"lat": 0.75, "lng": 83.75, "id": "266888", "name": "Zonosagitta pulchra", "sprite": "sp-anchoviella_juruasanga.png", "group": "other", "rarity": 1}, {"lat": 0.02, "lng": 82.87, "id": "104080", "name": "Candaciidae", "sprite": "sp-anchoviella_juruasanga.png", "group": "other", "rarity": 1}, {"lat": 1.9461, "lng": 82.0579, "id": "105794", "name": "Oceanic whitetip shark", "thumb": "tn_Calon_u8.jpg", "sprite": "sp-great_white_shark.png", "group": "shark", "rarity": 1, "waterType": "Saltwater"}, {"lat": 0.02, "lng": 82.87, "id": "104075", "name": "Aetideidae", "sprite": "sp-anchoviella_juruasanga.png", "group": "other", "rarity": 1}, {"lat": 2.5, "lng": 82.4333, "id": "128690", "name": "Oncaea", "sprite": "sp-anchoviella_juruasanga.png", "group": "other", "rarity": 1}, {"lat": 1.0667, "lng": 83.5922, "id": "138092", "name": "Janthina", "sprite": "sp-cowrie_shell.png", "group": "sea_snail", "rarity": 1}, {"lat": 0.02, "lng": 82.87, "id": "104208", "name": "Labidocera", "sprite": "sp-anchoviella_juruasanga.png", "group": "other", "rarity": 1}, {"lat": 0.02, "lng": 82.87, "id": "104106", "name": "Temoridae", "sprite": "sp-anchoviella_juruasanga.png", "group": "other", "rarity": 1}, {"lat": 1.1755, "lng": 83.6755, "id": "387338", "name": "Pterotracheoidea", "sprite": "sp-cowrie_shell.png", "group": "sea_snail", "rarity": 1}, {"lat": 1.225, "lng": 83.5133, "id": "117200", "name": "Velella", "sprite": "sp-anchoviella_juruasanga.png", "group": "other", "rarity": 1}, {"lat": 0.02, "lng": 82.87, "id": "104191", "name": "Pleuromamma", "sprite": "sp-anchoviella_juruasanga.png", "group": "other", "rarity": 1}, {"lat": 0.02, "lng": 82.87, "id": "128569", "name": "Corycaeidae", "sprite": "sp-anchoviella_juruasanga.png", "group": "other", "rarity": 1}, {"lat": 0.02, "lng": 82.87, "id": "104174", "name": "Euchaeta", "sprite": "sp-anchoviella_juruasanga.png", "group": "other", "rarity": 1}, {"lat": 1.13, "lng": 83.5607, "id": "5", "name": "Protozoa", "sprite": "sp-anchoviella_juruasanga.png", "group": "other", "rarity": 1}, {"lat": 0.02, "lng": 82.87, "id": "157683", "name": "Tortanus", "sprite": "sp-anchoviella_juruasanga.png", "group": "other", "rarity": 1}, {"lat": 0.02, "lng": 82.87, "id": "328875", "name": "Lopadorrhynchus panikkari", "sprite": "sp-anchoviella_juruasanga.png", "group": "other", "rarity": 1}, {"lat": 0.02, "lng": 82.87, "id": "128567", "name": "Clausidiidae", "sprite": "sp-anchoviella_juruasanga.png", "group": "other", "rarity": 1}, {"lat": 1.13, "lng": 83.5607, "id": "152391", "name": "Nemertea", "sprite": "sp-anchoviella_juruasanga.png", "group": "other", "rarity": 1}, {"lat": 1.5459, "lng": 83.0135, "id": "1080", "name": "Copepoda", "sprite": "sp-anchoviella_juruasanga.png", "group": "other", "rarity": 1}, {"lat": 1.225, "lng": 83.5133, "id": "148378", "name": "Phoronidae", "sprite": "sp-anchoviella_juruasanga.png", "group": "other", "rarity": 1}, {"lat": 0.02, "lng": 82.87, "id": "1102", "name": "Harpacticoida", "sprite": "sp-anchoviella_juruasanga.png", "group": "other", "rarity": 1}]}