{"zoom": 7, "x": 96, "y": 44, "points": [{"lat": 47.7695, "lng": 90.261, "id": "127187", "name": "Sea trout", "thumb": "tn_Satru_u2.jpg", "sprite": "sp-atlantic_salmon.png", "group": "salmon_trout", "rarity": 1, "waterType": "Brackish"}, {"lat": 47.8455, "lng": 91.112, "id": "159989", "name": "Golden shiner", "thumb": "tn_Nocry_u0.jpg", "sprite": "sp-enteromius.png", "group": "carp_minnow", "rarity": 1, "waterType": "Brackish"}, {"lat": 47.8727, "lng": 91.1665, "id": "154388", "name": "Burbot", "thumb": "tn_Lolot_u0.jpg", "sprite": "sp-anchoviella_juruasanga.png", "group": "other", "rarity": 1, "waterType": "Brackish"}, {"lat": 47.6711, "lng": 90.5278, "id": "158706", "name": "Longnose sucker", "thumb": "tn_Cacat_u3.jpg", "sprite": "sp-anchoviella_juruasanga.png", "group": "other", "rarity": 1, "waterType": "Brackish"}, {"lat": 47.7454, "lng": 90.333, "id": "154241", "name": "Brook trout", "thumb": "tn_Safon_u4.jpg", "sprite": "sp-atlantic_salmon.png", "group": "salmon_trout", "rarity": 1, "waterType": "Brackish"}, {"lat": 47.7575, "lng": 90.297, "id": "127184", "name": "Coho salmon", "thumb": "tn_Onkis_m3.jpg", "sprite": "sp-atlantic_salmon.png", "group": "salmon_trout", "rarity": 1, "waterType": "Brackish"}, {"lat": 48.0935, "lng": 90.8429, "id": "126737", "name": "Rainbow smelt", "thumb": "tn_Osmor_u1.jpg", "sprite": "sp-anchoviella_juruasanga.png", "group": "other", "rarity": 1, "waterType": "Brackish"}, {"lat": 47.6792, "lng": 90.5038, "id": "282373", "name": "Round whitefish", "thumb": "tn_Prcyl_u1.jpg", "sprite": "sp-atlantic_salmon.png", "group": "salmon_trout", "rarity": 1, "waterType": "Brackish"}, {"lat": 47.9879, "lng": 90.3494, "id": "151290", "name": "Pumpkinseed", "thumb": "tn_Legib_u7.jpg", "sprite": "sp-dicentrarchus.png", "group": "bass", "rarity": 1, "waterType": "Brackish"}, {"lat": 48.0, "lng": 92.0, "id": "275311", "name": "Walleye", "thumb": "tn_Stvit_u0.jpg", "sprite": "sp-dicentrarchus.png", "group": "bass", "rarity": 1, "waterType": "Brackish"}, {"lat": 48.0, "lng": 92.0, "id": "275313", "name": "American yellow perch", "thumb": "tn_Pefla_m0.jpg", "sprite": "sp-dicentrarchus.png", "group": "bass", "rarity": 1, "waterType": "Brackish"}, {"lat": 47.5227, "lng": 90.9174, "id": "125899", "name": "Osmerus", "sprite": "sp-anchoviella_juruasanga.png", "group": "other", "rarity": 1}, {"lat": 47.9949, "lng": 91.0811, "id": "159512", "name": "Slimy sculpin", "thumb": "tn_Cocog_u0.jpg", "sprite": "sp-anchoviella_juruasanga.png", "group": "other", "rarity": 1, "waterType": "Brackish"}, {"lat": 47.8463, "lng": 90.3378, "id": "126507", "name": "Ninespine stickleback", "thumb": "tn_Pupun_u9.jpg", "sprite": "sp-anchoviella_juruasanga.png", "group": "other", "rarity": 1, "waterType": "Brackish"}, {"lat": 47.7454, "lng": 90.333, "id": "126505", "name": "Three-spined stickleback", "thumb": "tn_Gaacu_u1.jpg", "sprite": "sp-anchoviella_juruasanga.png", "group": "other", "rarity": 1, "waterType": "Brackish"}, {"lat": 48.173, "lng": 91.4864, "id": "158726", "name": "Lake whitefish", "thumb": "tn_Coclu_u0.jpg", "sprite": "sp-atlantic_salmon.png", "group": "salmon_trout", "rarity": 1, "waterType": "Brackish"}, {"lat": 48.1104, "lng": 91.645, "id": "158725", "name": "Cisco", "thumb": "tn_Coart_u1.jpg", "sprite": "sp-atlantic_salmon.png", "group": "salmon_trout", "rarity": 1, "waterType": "Brackish"}, {"lat": 47.9514, "lng": 90.6002, "id": "158707", "name": "White sucker", "thumb": "tn_Cacom_u7.jpg", "sprite": "sp-anchoviella_juruasanga.png", "group": "other", "rarity": 1, "waterType": "Brackish"}]}