{"zoom": 7, "x": 96, "y": 46, "points": [{"lat": 43.6011, "lng": 91.2231, "id": "159989", "name": "Golden shiner", "thumb": "tn_Nocry_u0.jpg", "sprite": "sp-enteromius.png", "group": "carp_minnow", "rarity": 1, "waterType": "Brackish"}, {"lat": 44.383, "lng": 90.317, "id": "109524", "name": "Ostreopsis", "sprite": "sp-anchoviella_juruasanga.png", "group": "other", "rarity": 1}, {"lat": 44.3785, "lng": 92.0142, "id": "159600", "name": "American gizzard shad", "thumb": "tn_Docep_u2.jpg", "sprite": "sp-anchoviella_juruasanga.png", "group": "other", "rarity": 1, "waterType": "Brackish"}, {"lat": 44.0, "lng": 91.0, "id": "593217", "name": "Shorthead redhorse", "thumb": "tn_Momac_u2.jpg", "sprite": "sp-anchoviella_juruasanga.png", "group": "other", "rarity": 1, "waterType": "Brackish"}, {"lat": 43.9137, "lng": 92.0224, "id": "158707", "name": "White sucker", "thumb": "tn_Cacom_u7.jpg", "sprite": "sp-anchoviella_juruasanga.png", "group": "other", "rarity": 1, "waterType": "Brackish"}, {"lat": 43.7762, "lng": 91.472, "id": "154582", "name": "Common carp", "thumb": "tn_Cycar_ua.jpg", "sprite": "sp-enteromius.png", "group": "carp_minnow", "rarity": 1, "waterType": "Brackish"}, {"lat": 43.9884, "lng": 91.6341, "id": "567537", "name": "Spottail shiner", "thumb": "tn_Nohud_u0.jpg", "sprite": "sp-enteromius.png", "group": "carp_minnow", "rarity": 1, "waterType": "Brackish"}]}