{"zoom": 7, "x": 98, "y": 48, "points": [{"lat": 39.9197, "lng": 97.7458, "id": "159325", "name": "Mosquitofish", "thumb": "tn_Gaaff_m2.jpg", "sprite": "sp-anchoviella_juruasanga.png", "group": "other", "rarity": 1, "waterType": "Brackish"}, {"lat": 40.77, "lng": 97.46, "id": "154298", "name": "Goldfish", "thumb": "tn_Caaurau1.jpg", "sprite": "sp-enteromius.png", "group": "carp_minnow", "rarity": 1, "waterType": "Brackish"}, {"lat": 39.4761, "lng": 97.3954, "id": "151289", "name": "Lepomis", "sprite": "sp-dicentrarchus.png", "group": "bass", "rarity": 1}, {"lat": 39.9147, "lng": 97.3597, "id": "159989", "name": "Golden shiner", "thumb": "tn_Nocry_u0.jpg", "sprite": "sp-enteromius.png", "group": "carp_minnow", "rarity": 1, "waterType": "Brackish"}, {"lat": 39.8829, "lng": 97.4382, "id": "1015723", "name": "Plains minnow", "thumb": "tn_Hypla_f0.jpg", "sprite": "sp-enteromius.png", "group": "carp_minnow", "rarity": 1, "waterType": "Brackish"}, {"lat": 40.089, "lng": 97.9009, "id": "276035", "name": "Plains killifish", "thumb": "tn_Fuzeb_u0.jpg", "sprite": "sp-anchoviella_juruasanga.png", "group": "other", "rarity": 1, "waterType": "Brackish"}, {"lat": 40.3559, "lng": 96.8122, "id": "158707", "name": "White sucker", "thumb": "tn_Cacom_u7.jpg", "sprite": "sp-anchoviella_juruasanga.png", "group": "other", "rarity": 1, "waterType": "Brackish"}, {"lat": 40.2771, "lng": 97.5159, "id": "154582", "name": "Common carp", "thumb": "tn_Cycar_ua.jpg", "sprite": "sp-enteromius.png", "group": "carp_minnow", "rarity": 1, "waterType": "Brackish"}, {"lat": 39.9943, "lng": 97.924, "id": "157872", "name": "Longnose gar", "thumb": "tn_Leoss_u5.jpg", "sprite": "sp-anchoviella_juruasanga.png", "group": "other", "rarity": 1, "waterType": "Brackish"}, {"lat": 39.8006, "lng": 97.7919, "id": "157871", "name": "Lepisosteus", "sprite": "sp-anchoviella_juruasanga.png", "group": "other", "rarity": 1}, {"lat": 39.8342, "lng": 97.4288, "id": "159600", "name": "American gizzard shad", "thumb": "tn_Docep_u2.jpg", "sprite": "sp-anchoviella_juruasanga.png", "group": "other", "rarity": 1, "waterType": "Brackish"}]}