{"zoom": 7, "x": 98, "y": 84, "points": [{"lat": -50.1111, "lng": 96.7444, "id": "204680", "name": "Pachyptila", "sprite": "sp-anchoviella_juruasanga.png", "group": "other", "rarity": 1}, {"lat": -49.7907, "lng": 97.0229, "id": "1130", "name": "Decapoda", "sprite": "sp-american_lobster.png", "group": "crab_lobster", "rarity": 1}, {"lat": -49.8492, "lng": 96.8292, "id": "220837", "name": "Rhincalanus gigas", "sprite": "sp-anchoviella_juruasanga.png", "group": "other", "rarity": 1}, {"lat": -49.8764, "lng": 97.0183, "id": "231413", "name": "Mirounga leonina", "sprite": "sp-elephant_seal.png", "group": "seal", "rarity": 1}, {"lat": -50.31, "lng": 96.7, "id": "225749", "name": "Pelecanoides", "sprite": "sp-anchoviella_juruasanga.png", "group": "other", "rarity": 1}, {"lat": -49.7633, "lng": 96.9665, "id": "212652", "name": "Procellaria cinerea", "sprite": "sp-anchoviella_juruasanga.png", "group": "other", "rarity": 1}, {"lat": -49.8277, "lng": 96.8706, "id": "212631", "name": "Phoebetria palpebrata", "sprite": "sp-anchoviella_juruasanga.png", "group": "other", "rarity": 1}, {"lat": -49.5004, "lng": 97.8183, "id": "266258", "name": "Pseudosagitta gazellae", "sprite": "sp-anchoviella_juruasanga.png", "group": "other", "rarity": 1}, {"lat": -49.8687, "lng": 97.4671, "id": "2081", "name": "Chaetognatha", "sprite": "sp-anchoviella_juruasanga.png", "group": "other", "rarity": 1}, {"lat": -49.94, "lng": 97.1394, "id": "343995", "name": "Thalassarche melanophris", "sprite": "sp-anchoviella_juruasanga.png", "group": "other", "rarity": 1}, {"lat": -50.3333, "lng": 96.4833, "id": "212646", "name": "Pachyptila belcheri", "sprite": "sp-anchoviella_juruasanga.png", "group": "other", "rarity": 1}, {"lat": -50.0878, "lng": 96.9576, "id": "138122", "name": "Limacina", "sprite": "sp-cowrie_shell.png", "group": "sea_snail", "rarity": 1}, {"lat": -50.1131, "lng": 97.137, "id": "103367", "name": "Oikopleura", "sprite": "sp-anchoviella_juruasanga.png", "group": "other", "rarity": 1}, {"lat": -50.3713, "lng": 97.9347, "id": "603038", "name": "Heterorhabdus", "sprite": "sp-anchoviella_juruasanga.png", "group": "other", "rarity": 1}, {"lat": -49.7539, "lng": 97.4879, "id": "325384", "name": "Themisto gaudichaudii", "sprite": "sp-american_lobster.png", "group": "crab_lobster", "rarity": 1}, {"lat": -50.2475, "lng": 97.0399, "id": "129715", "name": "Tomopteris", "sprite": "sp-anchoviella_juruasanga.png", "group": "other", "rarity": 1}, {"lat": -50.0322, "lng": 96.607, "id": "345366", "name": "Subeucalanus longiceps", "sprite": "sp-anchoviella_juruasanga.png", "group": "other", "rarity": 1}, {"lat": -50.551, "lng": 95.978, "id": "850801", "name": "Metridia lucens lucens", "sprite": "sp-anchoviella_juruasanga.png", "group": "other", "rarity": 1}, {"lat": -50.3333, "lng": 96.05, "id": "212637", "name": "Macronectes halli", "sprite": "sp-anchoviella_juruasanga.png", "group": "other", "rarity": 1}, {"lat": -49.9808, "lng": 97.2931, "id": "1078", "name": "Ostracoda", "sprite": "sp-anchoviella_juruasanga.png", "group": "other", "rarity": 1}, {"lat": -49.5833, "lng": 97.1, "id": "173015", "name": "Austrodecus fagei", "sprite": "sp-anchoviella_juruasanga.png", "group": "other", "rarity": 1}, {"lat": -50.1271, "lng": 96.8844, "id": "212651", "name": "Procellaria aequinoctialis", "sprite": "sp-anchoviella_juruasanga.png", "group": "other", "rarity": 1}, {"lat": -49.9737, "lng": 96.7359, "id": "137199", "name": "Pterodroma mollis", "sprite": "sp-anchoviella_juruasanga.png", "group": "other", "rarity": 1}, {"lat": -49.735, "lng": 97.3917, "id": "212632", "name": "Phoebetria fusca", "sprite": "sp-anchoviella_juruasanga.png", "group": "other", "rarity": 1}, {"lat": -49.8017, "lng": 96.8886, "id": "212583", "name": "Diomedea exulans", "sprite": "sp-anchoviella_juruasanga.png", "group": "other", "rarity": 1}, {"lat": -50.2299, "lng": 96.6879, "id": "225760", "name": "Thalassarche chrysostoma", "sprite": "sp-anchoviella_juruasanga.png", "group": "other", "rarity": 1}, {"lat": -49.4405, "lng": 97.8919, "id": "180759", "name": "Primno macropa", "sprite": "sp-american_lobster.png", "group": "crab_lobster", "rarity": 1}, {"lat": -49.962, "lng": 96.9679, "id": "103358", "name": "Fritillaria", "sprite": "sp-anchoviella_juruasanga.png", "group": "other", "rarity": 1}, {"lat": -50.3167, "lng": 96.5633, "id": "212640", "name": "Daption capense", "sprite": "sp-anchoviella_juruasanga.png", "group": "other", "rarity": 1}, {"lat": -49.9643, "lng": 97.2274, "id": "1100", "name": "Calanoida", "sprite": "sp-anchoviella_juruasanga.png", "group": "other", "rarity": 1}, {"lat": -50.2333, "lng": 97.3, "id": "212636", "name": "Macronectes giganteus", "sprite": "sp-anchoviella_juruasanga.png", "group": "other", "rarity": 1}, {"lat": -50.0284, "lng": 97.4, "id": "196874", "name": "Paraeuchaeta", "sprite": "sp-anchoviella_juruasanga.png", "group": "other", "rarity": 1}, {"lat": -50.4217, "lng": 96.1355, "id": "221053", "name": "Euphausia longirostris", "sprite": "sp-antarctic_krill.png", "group": "shrimp", "rarity": 1}, {"lat": -49.9655, "lng": 97.2268, "id": "106656", "name": "Oithona similis", "sprite": "sp-anchoviella_juruasanga.png", "group": "other", "rarity": 1}, {"lat": -49.9802, "lng": 97.1791, "id": "1080", "name": "Copepoda", "sprite": "sp-anchoviella_juruasanga.png", "group": "other", "rarity": 1}, {"lat": -50.2381, "lng": 97.5133, "id": "128690", "name": "Oncaea", "sprite": "sp-anchoviella_juruasanga.png", "group": "other", "rarity": 1}, {"lat": -49.8167, "lng": 95.9667, "id": "344020", "name": "Aphrodroma brevirostris", "sprite": "sp-anchoviella_juruasanga.png", "group": "other", "rarity": 1}, {"lat": -49.9755, "lng": 97.2803, "id": "225770", "name": "Puffinus tenuirostris", "sprite": "sp-anchoviella_juruasanga.png", "group": "other", "rarity": 1}, {"lat": -50.0502, "lng": 97.4165, "id": "342449", "name": "Ctenocalanus citer", "sprite": "sp-anchoviella_juruasanga.png", "group": "other", "rarity": 1}, {"lat": -49.5833, "lng": 97.1, "id": "423071", "name": "Amphiura abyssalis", "sprite": "sp-sea_cucumber.png", "group": "starfish", "rarity": 1}, {"lat": -49.9661, "lng": 97.2225, "id": "1410", "name": "Foraminifera", "sprite": "sp-anchoviella_juruasanga.png", "group": "other", "rarity": 1}, {"lat": -49.8333, "lng": 95.8667, "id": "212644", "name": "Pterodroma macroptera", "sprite": "sp-anchoviella_juruasanga.png", "group": "other", "rarity": 1}, {"lat": -49.9221, "lng": 97.5451, "id": "343728", "name": "Heterorhabdus austrinus", "sprite": "sp-anchoviella_juruasanga.png", "group": "other", "rarity": 1}, {"lat": -50.0122, "lng": 97.196, "id": "110671", "name": "Euphausiidae", "sprite": "sp-antarctic_krill.png", "group": "shrimp", "rarity": 1}, {"lat": -49.6557, "lng": 97.1896, "id": "101417", "name": "Hyperiidae", "sprite": "sp-american_lobster.png", "group": "crab_lobster", "rarity": 1}, {"lat": -49.2833, "lng": 97.9367, "id": "1102", "name": "Harpacticoida", "sprite": "sp-anchoviella_juruasanga.png", "group": "other", "rarity": 1}, {"lat": -49.6489, "lng": 97.8939, "id": "221054", "name": "Euphausia vallentini", "sprite": "sp-antarctic_krill.png", "group": "shrimp", "rarity": 1}, {"lat": -50.0242, "lng": 97.4258, "id": "236219", "name": "Thysanoessa macrura", "sprite": "sp-antarctic_krill.png", "group": "shrimp", "rarity": 1}, {"lat": -50.3135, "lng": 96.65, "id": "212638", "name": "Fulmarus glacialoides", "sprite": "sp-anchoviella_juruasanga.png", "group": "other", "rarity": 1}, {"lat": -49.8694, "lng": 97.438, "id": "342443", "name": "Clausocalanus brevipes", "sprite": "sp-anchoviella_juruasanga.png", "group": "other", "rarity": 1}, {"lat": -49.6611, "lng": 97.0981, "id": "212642", "name": "Pterodroma lessonii", "sprite": "sp-anchoviella_juruasanga.png", "group": "other", "rarity": 1}, {"lat": -50.2733, "lng": 96.96, "id": "212645", "name": "Halobaena caerulea", "sprite": "sp-anchoviella_juruasanga.png", "group": "other", "rarity": 1}, {"lat": -50.215, "lng": 97.5651, "id": "342444", "name": "Clausocalanus laticeps", "sprite": "sp-anchoviella_juruasanga.png", "group": "other", "rarity": 1}, {"lat": -50.075, "lng": 97.85, "id": "137190", "name": "Oceanites oceanicus", "sprite": "sp-anchoviella_juruasanga.png", "group": "other", "rarity": 1}, {"lat": -49.2942, "lng": 98.1273, "id": "345051", "name": "Paraeuchaeta exigua", "sprite": "sp-anchoviella_juruasanga.png", "group": "other", "rarity": 1}, {"lat": -50.0357, "lng": 97.2633, "id": "342436", "name": "Calanus simillimus", "sprite": "sp-anchoviella_juruasanga.png", "group": "other", "rarity": 1}]}