{"zoom": 7, "x": 99, "y": 55, "points": [{"lat": 24.4198, "lng": 98.9734, "id": "106674", "name": "Caridea", "sprite": "sp-american_lobster.png", "group": "crab_lobster", "rarity": 1}, {"lat": 24.2352, "lng": 99.0238, "id": "991279", "name": "Pond loach", "thumb": "tn_Miang_u2.jpg", "sprite": "sp-anchoviella_juruasanga.png", "group": "other", "rarity": 1, "waterType": "Brackish"}, {"lat": 24.4198, "lng": 98.9734, "id": "270737", "name": "Rhinogobius", "sprite": "sp-eviota_bipunctata.png", "group": "goby", "rarity": 1}, {"lat": 24.4198, "lng": 98.9734, "id": "219471", "name": "Tank goby", "thumb": "tn_Glgiu_u4.jpg", "sprite": "sp-eviota_bipunctata.png", "group": "goby", "rarity": 1, "waterType": "Brackish"}, {"lat": 24.429, "lng": 98.7883, "id": "281590", "name": "Asian swamp eel", "thumb": "tn_Moalb_u5.jpg", "sprite": "sp-anchoviella_juruasanga.png", "group": "other", "rarity": 1, "waterType": "Brackish"}, {"lat": 24.2417, "lng": 99.0765, "id": "271708", "name": "Mottled eel", "sprite": "sp-electric_eel.png", "group": "eel", "rarity": 1, "waterType": "Brackish"}, {"lat": 24.1974, "lng": 98.9605, "id": "270823", "name": "Schistura", "sprite": "sp-anchoviella_juruasanga.png", "group": "other", "rarity": 1}, {"lat": 24.2701, "lng": 98.9656, "id": "1493568", "name": "Glyptothorax longinema", "sprite": "sp-blue_catfish.png", "group": "catfish", "rarity": 1}, {"lat": 23.2253, "lng": 98.9062, "id": "154918", "name": "Fabriciidae", "sprite": "sp-anchoviella_juruasanga.png", "group": "other", "rarity": 1}, {"lat": 23.6667, "lng": 99.1667, "id": "154298", "name": "Goldfish", "thumb": "tn_Caaurau1.jpg", "sprite": "sp-enteromius.png", "group": "carp_minnow", "rarity": 1, "waterType": "Brackish"}]}