{"zoom": 7, "x": 99, "y": 91, "points": [{"lat": -60.843, "lng": 100.396, "id": "137165", "name": "Sterna paradisaea", "sprite": "sp-anchoviella_juruasanga.png", "group": "other", "rarity": 1}, {"lat": -61.5079, "lng": 100.4485, "id": "341560", "name": "Fragilariopsis ritscheri", "sprite": "sp-anchoviella_juruasanga.png", "group": "other", "rarity": 1}, {"lat": -60.8375, "lng": 99.7064, "id": "212651", "name": "Procellaria aequinoctialis", "sprite": "sp-anchoviella_juruasanga.png", "group": "other", "rarity": 1}, {"lat": -61.4463, "lng": 100.7072, "id": "254442", "name": "Asteromphalus hyalinus", "sprite": "sp-anchoviella_juruasanga.png", "group": "other", "rarity": 1}, {"lat": -60.7732, "lng": 99.8976, "id": "225773", "name": "Aptenodytes forsteri", "sprite": "sp-anchoviella_juruasanga.png", "group": "other", "rarity": 1}, {"lat": -61.3262, "lng": 101.2267, "id": "113458", "name": "Neogloboquadrina pachyderma", "sprite": "sp-anchoviella_juruasanga.png", "group": "other", "rarity": 1}, {"lat": -60.7435, "lng": 99.7677, "id": "212583", "name": "Diomedea exulans", "sprite": "sp-anchoviella_juruasanga.png", "group": "other", "rarity": 1}, {"lat": -61.4533, "lng": 100.6813, "id": "341558", "name": "Fragilariopsis pseudonana", "sprite": "sp-anchoviella_juruasanga.png", "group": "other", "rarity": 1}, {"lat": -60.4131, "lng": 99.2336, "id": "1267", "name": "Cnidaria", "sprite": "sp-anchoviella_juruasanga.png", "group": "other", "rarity": 1}, {"lat": -60.8801, "lng": 99.5735, "id": "236217", "name": "Euphausia superba", "sprite": "sp-antarctic_krill.png", "group": "shrimp", "rarity": 1}, {"lat": -60.9457, "lng": 99.4934, "id": "206822", "name": "Macronectes", "sprite": "sp-anchoviella_juruasanga.png", "group": "other", "rarity": 1}, {"lat": -61.4163, "lng": 100.838, "id": "341383", "name": "Eucampia antarctica var. antarctica", "sprite": "sp-anchoviella_juruasanga.png", "group": "other", "rarity": 1}, {"lat": -61.4992, "lng": 100.4866, "id": "149288", "name": "Chaetoceros atlanticus", "sprite": "sp-anchoviella_juruasanga.png", "group": "other", "rarity": 1}, {"lat": -60.4624, "lng": 99.0954, "id": "11676", "name": "Pisces", "sprite": "sp-anchoviella_juruasanga.png", "group": "other", "rarity": 1}, {"lat": -61.1196, "lng": 100.1117, "id": "103358", "name": "Fritillaria", "sprite": "sp-anchoviella_juruasanga.png", "group": "other", "rarity": 1}, {"lat": -60.5678, "lng": 99.2315, "id": "1410", "name": "Foraminifera", "sprite": "sp-anchoviella_juruasanga.png", "group": "other", "rarity": 1}, {"lat": -60.6513, "lng": 99.7457, "id": "225761", "name": "Pterodroma inexpectata", "sprite": "sp-anchoviella_juruasanga.png", "group": "other", "rarity": 1}, {"lat": -61.25, "lng": 98.9667, "id": "137119", "name": "Physeter macrocephalus", "sprite": "sp-blue_whale.png", "group": "whale", "rarity": 1}, {"lat": -61.2417, "lng": 98.9667, "id": "137091", "name": "Balaenoptera physalus", "sprite": "sp-blue_whale.png", "group": "whale", "rarity": 1}, {"lat": -60.508, "lng": 100.3713, "id": "225961", "name": "Pachyptila salvini", "sprite": "sp-anchoviella_juruasanga.png", "group": "other", "rarity": 1}, {"lat": -61.4615, "lng": 100.6874, "id": "342444", "name": "Clausocalanus laticeps", "sprite": "sp-anchoviella_juruasanga.png", "group": "other", "rarity": 1}, {"lat": -61.3267, "lng": 100.5714, "id": "342436", "name": "Calanus simillimus", "sprite": "sp-anchoviella_juruasanga.png", "group": "other", "rarity": 1}, {"lat": -60.6843, "lng": 100.3081, "id": "225770", "name": "Puffinus tenuirostris", "sprite": "sp-anchoviella_juruasanga.png", "group": "other", "rarity": 1}, {"lat": -60.5418, "lng": 100.0935, "id": "139033", "name": "Clio pyramidata", "sprite": "sp-cowrie_shell.png", "group": "sea_snail", "rarity": 1}, {"lat": -60.7328, "lng": 99.533, "id": "137065", "name": "Puffinus", "sprite": "sp-anchoviella_juruasanga.png", "group": "other", "rarity": 1}, {"lat": -60.7008, "lng": 98.5253, "id": "582421", "name": "Radiozoa", "sprite": "sp-anchoviella_juruasanga.png", "group": "other", "rarity": 1}, {"lat": -61.049, "lng": 100.191, "id": "225772", "name": "Pagodroma nivea", "sprite": "sp-anchoviella_juruasanga.png", "group": "other", "rarity": 1}, {"lat": -61.4339, "lng": 100.7602, "id": "465389", "name": "Chaetoceros criophilus", "sprite": "sp-anchoviella_juruasanga.png", "group": "other", "rarity": 1}, {"lat": -61.3797, "lng": 100.9947, "id": "178185", "name": "Chaetoceros peruvianus", "sprite": "sp-anchoviella_juruasanga.png", "group": "other", "rarity": 1}, {"lat": -60.5, "lng": 99.5, "id": "225760", "name": "Thalassarche chrysostoma", "sprite": "sp-anchoviella_juruasanga.png", "group": "other", "rarity": 1}, {"lat": -61.4494, "lng": 100.6974, "id": "1310442", "name": "Octactis speculum", "sprite": "sp-anchoviella_juruasanga.png", "group": "other", "rarity": 1}, {"lat": -60.8956, "lng": 99.6908, "id": "204680", "name": "Pachyptila", "sprite": "sp-anchoviella_juruasanga.png", "group": "other", "rarity": 1}, {"lat": -60.9324, "lng": 99.974, "id": "212649", "name": "Pachyptila desolata", "sprite": "sp-anchoviella_juruasanga.png", "group": "other", "rarity": 1}, {"lat": -60.4368, "lng": 101.0537, "id": "212696", "name": "Fregetta tropica", "sprite": "sp-anchoviella_juruasanga.png", "group": "other", "rarity": 1}, {"lat": -61.4794, "lng": 100.5715, "id": "178215", "name": "Chaetoceros dichaeta", "sprite": "sp-anchoviella_juruasanga.png", "group": "other", "rarity": 1}, {"lat": -61.2381, "lng": 100.324, "id": "342435", "name": "Calanus propinquus", "sprite": "sp-anchoviella_juruasanga.png", "group": "other", "rarity": 1}, {"lat": -60.8556, "lng": 99.9014, "id": "212645", "name": "Halobaena caerulea", "sprite": "sp-anchoviella_juruasanga.png", "group": "other", "rarity": 1}, {"lat": -60.8488, "lng": 100.0213, "id": "212642", "name": "Pterodroma lessonii", "sprite": "sp-anchoviella_juruasanga.png", "group": "other", "rarity": 1}, {"lat": -61.2062, "lng": 100.683, "id": "225757", "name": "Pygoscelis adeliae", "sprite": "sp-anchoviella_juruasanga.png", "group": "other", "rarity": 1}, {"lat": -61.4533, "lng": 100.6813, "id": "573621", "name": "Terebraria kerguelensis", "sprite": "sp-anchoviella_juruasanga.png", "group": "other", "rarity": 1}, {"lat": -60.9083, "lng": 98.5916, "id": "212638", "name": "Fulmarus glacialoides", "sprite": "sp-anchoviella_juruasanga.png", "group": "other", "rarity": 1}, {"lat": -60.825, "lng": 99.3792, "id": "212640", "name": "Daption capense", "sprite": "sp-anchoviella_juruasanga.png", "group": "other", "rarity": 1}, {"lat": -61.0417, "lng": 100.9, "id": "212647", "name": "Pachyptila vittata", "sprite": "sp-anchoviella_juruasanga.png", "group": "other", "rarity": 1}, {"lat": -60.4855, "lng": 99.0246, "id": "138122", "name": "Limacina", "sprite": "sp-cowrie_shell.png", "group": "sea_snail", "rarity": 1}, {"lat": -60.5408, "lng": 100.5024, "id": "231413", "name": "Mirounga leonina", "sprite": "sp-elephant_seal.png", "group": "seal", "rarity": 1}, {"lat": -60.8222, "lng": 99.0389, "id": "212636", "name": "Macronectes giganteus", "sprite": "sp-anchoviella_juruasanga.png", "group": "other", "rarity": 1}, {"lat": -61.4533, "lng": 100.6813, "id": "341540", "name": "Thalassiothrix antarctica", "sprite": "sp-anchoviella_juruasanga.png", "group": "other", "rarity": 1}, {"lat": -61.4619, "lng": 100.7018, "id": "342434", "name": "Calanoides acutus", "sprite": "sp-anchoviella_juruasanga.png", "group": "other", "rarity": 1}, {"lat": -61.3119, "lng": 99.4309, "id": "212631", "name": "Phoebetria palpebrata", "sprite": "sp-anchoviella_juruasanga.png", "group": "other", "rarity": 1}, {"lat": -61.3972, "lng": 100.9168, "id": "163348", "name": "Rhizosolenia semispina", "sprite": "sp-anchoviella_juruasanga.png", "group": "other", "rarity": 1}, {"lat": -61.3366, "lng": 100.5252, "id": "220837", "name": "Rhincalanus gigas", "sprite": "sp-anchoviella_juruasanga.png", "group": "other", "rarity": 1}, {"lat": -61.4709, "lng": 100.724, "id": "2081", "name": "Chaetognatha", "sprite": "sp-anchoviella_juruasanga.png", "group": "other", "rarity": 1}, {"lat": -61.3438, "lng": 100.707, "id": "342443", "name": "Clausocalanus brevipes", "sprite": "sp-anchoviella_juruasanga.png", "group": "other", "rarity": 1}, {"lat": -61.4713, "lng": 100.6203, "id": "104162", "name": "Ctenocalanus", "sprite": "sp-anchoviella_juruasanga.png", "group": "other", "rarity": 1}, {"lat": -61.4839, "lng": 100.5512, "id": "387332", "name": "Rhizosolenia antennata f. semispina", "sprite": "sp-anchoviella_juruasanga.png", "group": "other", "rarity": 1}, {"lat": -61.5078, "lng": 100.4465, "id": "113462", "name": "Turborotalita quinqueloba", "sprite": "sp-anchoviella_juruasanga.png", "group": "other", "rarity": 1}, {"lat": -60.933, "lng": 100.2604, "id": "344008", "name": "Lobodon carcinophagus", "sprite": "sp-elephant_seal.png", "group": "seal", "rarity": 1}, {"lat": -61.4555, "lng": 100.6865, "id": "1080", "name": "Copepoda", "sprite": "sp-anchoviella_juruasanga.png", "group": "other", "rarity": 1}, {"lat": -61.4226, "lng": 100.8105, "id": "341554", "name": "Fragilariopsis curta", "sprite": "sp-anchoviella_juruasanga.png", "group": "other", "rarity": 1}, {"lat": -61.3809, "lng": 100.1673, "id": "137090", "name": "Balaenoptera musculus", "sprite": "sp-blue_whale.png", "group": "whale", "rarity": 1}, {"lat": -60.9111, "lng": 100.1778, "id": "344020", "name": "Aphrodroma brevirostris", "sprite": "sp-anchoviella_juruasanga.png", "group": "other", "rarity": 1}, {"lat": -61.0489, "lng": 99.6219, "id": "137190", "name": "Oceanites oceanicus", "sprite": "sp-anchoviella_juruasanga.png", "group": "other", "rarity": 1}, {"lat": -60.7096, "lng": 99.3195, "id": "137202", "name": "Puffinus griseus", "sprite": "sp-anchoviella_juruasanga.png", "group": "other", "rarity": 1}, {"lat": -61.0823, "lng": 100.2093, "id": "1100", "name": "Calanoida", "sprite": "sp-anchoviella_juruasanga.png", "group": "other", "rarity": 1}, {"lat": -60.4634, "lng": 99.0965, "id": "1066", "name": "Crustacea", "sprite": "sp-anchoviella_juruasanga.png", "group": "other", "rarity": 1}, {"lat": -61.5421, "lng": 100.4109, "id": "850801", "name": "Metridia lucens lucens", "sprite": "sp-anchoviella_juruasanga.png", "group": "other", "rarity": 1}, {"lat": -61.087, "lng": 100.0823, "id": "106656", "name": "Oithona similis", "sprite": "sp-anchoviella_juruasanga.png", "group": "other", "rarity": 1}, {"lat": -61.0104, "lng": 100.063, "id": "212639", "name": "Thalassoica antarctica", "sprite": "sp-anchoviella_juruasanga.png", "group": "other", "rarity": 1}, {"lat": -60.9654, "lng": 100.2542, "id": "343995", "name": "Thalassarche melanophris", "sprite": "sp-anchoviella_juruasanga.png", "group": "other", "rarity": 1}, {"lat": -60.9128, "lng": 101.0373, "id": "137092", "name": "Megaptera novaeangliae", "sprite": "sp-blue_whale.png", "group": "whale", "rarity": 1}, {"lat": -60.7637, "lng": 99.882, "id": "236219", "name": "Thysanoessa macrura", "sprite": "sp-antarctic_krill.png", "group": "shrimp", "rarity": 1}, {"lat": -61.1143, "lng": 100.1089, "id": "266545", "name": "Salpa thompsoni", "sprite": "sp-anchoviella_juruasanga.png", "group": "other", "rarity": 1}, {"lat": -61.5958, "lng": 98.9968, "id": "212637", "name": "Macronectes halli", "sprite": "sp-anchoviella_juruasanga.png", "group": "other", "rarity": 1}, {"lat": -61.3729, "lng": 101.201, "id": "101812", "name": "Vibilia", "sprite": "sp-american_lobster.png", "group": "crab_lobster", "rarity": 1}, {"lat": -61.1355, "lng": 99.8778, "id": "325384", "name": "Themisto gaudichaudii", "sprite": "sp-american_lobster.png", "group": "crab_lobster", "rarity": 1}, {"lat": -60.5579, "lng": 99.9033, "id": "225749", "name": "Pelecanoides", "sprite": "sp-anchoviella_juruasanga.png", "group": "other", "rarity": 1}, {"lat": -61.3, "lng": 99.3, "id": "220222", "name": "Eubalaena australis", "sprite": "sp-blue_whale.png", "group": "whale", "rarity": 1}, {"lat": -61.4594, "lng": 100.7502, "id": "103367", "name": "Oikopleura", "sprite": "sp-anchoviella_juruasanga.png", "group": "other", "rarity": 1}, {"lat": -61.0167, "lng": 100.35, "id": "137199", "name": "Pterodroma mollis", "sprite": "sp-anchoviella_juruasanga.png", "group": "other", "rarity": 1}]}