{"zoom": 7, "x": 9, "y": 45, "points": [{"lat": 46.69, "lng": -152.375, "id": "842517", "name": "Tripos trichoceros", "sprite": "sp-anchoviella_juruasanga.png", "group": "other", "rarity": 1}, {"lat": 46.8667, "lng": -154.2, "id": "156611", "name": "Chaetoceros convolutus", "sprite": "sp-anchoviella_juruasanga.png", "group": "other", "rarity": 1}, {"lat": 46.5855, "lng": -153.8085, "id": "1205", "name": "Hyperiidea", "sprite": "sp-american_lobster.png", "group": "crab_lobster", "rarity": 1}, {"lat": 46.8667, "lng": -154.2, "id": "157076", "name": "Rhabdonema arcuatum", "sprite": "sp-anchoviella_juruasanga.png", "group": "other", "rarity": 1}, {"lat": 46.8667, "lng": -154.2, "id": "375677", "name": "Cylindrotheca fusiformis", "sprite": "sp-anchoviella_juruasanga.png", "group": "other", "rarity": 1}, {"lat": 46.8667, "lng": -154.2, "id": "109475", "name": "Gymnodinium", "sprite": "sp-anchoviella_juruasanga.png", "group": "other", "rarity": 1}, {"lat": 46.8667, "lng": -154.2, "id": "149093", "name": "Thalassionema nitzschioides", "sprite": "sp-anchoviella_juruasanga.png", "group": "other", "rarity": 1}, {"lat": 46.69, "lng": -152.375, "id": "163030", "name": "Phaeoceros", "sprite": "sp-anchoviella_juruasanga.png", "group": "other", "rarity": 1}, {"lat": 46.69, "lng": -152.375, "id": "1080", "name": "Copepoda", "sprite": "sp-anchoviella_juruasanga.png", "group": "other", "rarity": 1}, {"lat": 46.8667, "lng": -154.2, "id": "115083", "name": "Acanthoica", "sprite": "sp-anchoviella_juruasanga.png", "group": "other", "rarity": 1}, {"lat": 46.664, "lng": -152.8525, "id": "495363", "name": "Tripos muelleri", "sprite": "sp-anchoviella_juruasanga.png", "group": "other", "rarity": 1}, {"lat": 46.8667, "lng": -154.2, "id": "149288", "name": "Chaetoceros atlanticus", "sprite": "sp-anchoviella_juruasanga.png", "group": "other", "rarity": 1}, {"lat": 46.638, "lng": -153.33, "id": "1100", "name": "Calanoida", "sprite": "sp-anchoviella_juruasanga.png", "group": "other", "rarity": 1}, {"lat": 46.8667, "lng": -154.2, "id": "149158", "name": "Coscinodiscus radiatus", "sprite": "sp-anchoviella_juruasanga.png", "group": "other", "rarity": 1}, {"lat": 46.664, "lng": -152.8525, "id": "841259", "name": "Tripos longipes", "sprite": "sp-anchoviella_juruasanga.png", "group": "other", "rarity": 1}, {"lat": 46.8667, "lng": -154.2, "id": "196794", "name": "Rhizosolenia hebetata f. hiemalis", "sprite": "sp-anchoviella_juruasanga.png", "group": "other", "rarity": 1}, {"lat": 46.8667, "lng": -154.2, "id": "148985", "name": "Chaetoceros", "sprite": "sp-anchoviella_juruasanga.png", "group": "other", "rarity": 1}, {"lat": 46.6203, "lng": -153.3307, "id": "104152", "name": "Calanus", "sprite": "sp-anchoviella_juruasanga.png", "group": "other", "rarity": 1}, {"lat": 46.8667, "lng": -154.2, "id": "149131", "name": "Eucampia zodiacus", "sprite": "sp-anchoviella_juruasanga.png", "group": "other", "rarity": 1}, {"lat": 46.8667, "lng": -154.2, "id": "162254", "name": "Asteromphalus", "sprite": "sp-anchoviella_juruasanga.png", "group": "other", "rarity": 1}, {"lat": 46.8667, "lng": -154.2, "id": "149074", "name": "Skeletonema costatum", "sprite": "sp-anchoviella_juruasanga.png", "group": "other", "rarity": 1}, {"lat": 46.8667, "lng": -154.2, "id": "975029", "name": "Coscinodiscus stellaris var. stellaris", "sprite": "sp-anchoviella_juruasanga.png", "group": "other", "rarity": 1}, {"lat": 46.8667, "lng": -154.2, "id": "109549", "name": "Peridinium", "sprite": "sp-anchoviella_juruasanga.png", "group": "other", "rarity": 1}, {"lat": 46.2128, "lng": -153.3161, "id": "344104", "name": "Phoebastria immutabilis", "sprite": "sp-anchoviella_juruasanga.png", "group": "other", "rarity": 1}, {"lat": 46.8667, "lng": -154.2, "id": "149045", "name": "Nitzschia", "sprite": "sp-anchoviella_juruasanga.png", "group": "other", "rarity": 1}, {"lat": 46.8667, "lng": -154.2, "id": "148917", "name": "Coscinodiscus", "sprite": "sp-anchoviella_juruasanga.png", "group": "other", "rarity": 1}, {"lat": 46.8667, "lng": -154.2, "id": "146230", "name": "Chrysophyceae", "sprite": "sp-anchoviella_juruasanga.png", "group": "other", "rarity": 1}, {"lat": 46.8667, "lng": -154.2, "id": "149110", "name": "Corethron criophilum", "sprite": "sp-anchoviella_juruasanga.png", "group": "other", "rarity": 1}, {"lat": 46.69, "lng": -152.375, "id": "840626", "name": "Tripos fusus", "sprite": "sp-anchoviella_juruasanga.png", "group": "other", "rarity": 1}, {"lat": 46.6819, "lng": -153.548, "id": "157083", "name": "Thalassiothrix longissima", "sprite": "sp-anchoviella_juruasanga.png", "group": "other", "rarity": 1}, {"lat": 46.8667, "lng": -154.2, "id": "109476", "name": "Gyrodinium", "sprite": "sp-anchoviella_juruasanga.png", "group": "other", "rarity": 1}, {"lat": 45.725, "lng": -153.45, "id": "255018", "name": "Mirounga angustirostris", "sprite": "sp-elephant_seal.png", "group": "seal", "rarity": 1}, {"lat": 46.8667, "lng": -154.2, "id": "571648", "name": "Denticula seminae", "sprite": "sp-anchoviella_juruasanga.png", "group": "other", "rarity": 1}, {"lat": 46.8667, "lng": -154.2, "id": "115104", "name": "Emiliania huxleyi", "sprite": "sp-anchoviella_juruasanga.png", "group": "other", "rarity": 1}, {"lat": 46.8078, "lng": -153.5917, "id": "163348", "name": "Rhizosolenia semispina", "sprite": "sp-anchoviella_juruasanga.png", "group": "other", "rarity": 1}, {"lat": 46.6115, "lng": -153.331, "id": "1128", "name": "Euphausiacea", "sprite": "sp-antarctic_krill.png", "group": "shrimp", "rarity": 1}, {"lat": 46.0, "lng": -153.5, "id": "344106", "name": "Phoebastria nigripes", "sprite": "sp-anchoviella_juruasanga.png", "group": "other", "rarity": 1}, {"lat": 46.64, "lng": -151.88, "id": "225986", "name": "Puffinus bulleri", "sprite": "sp-anchoviella_juruasanga.png", "group": "other", "rarity": 1}, {"lat": 46.8667, "lng": -154.2, "id": "148922", "name": "Thalassiosira eccentrica", "sprite": "sp-anchoviella_juruasanga.png", "group": "other", "rarity": 1}, {"lat": 46.7783, "lng": -153.2875, "id": "160595", "name": "Pterosperma", "sprite": "sp-anchoviella_juruasanga.png", "group": "other", "rarity": 1}, {"lat": 46.8667, "lng": -154.2, "id": "134528", "name": "Halosphaera", "sprite": "sp-anchoviella_juruasanga.png", "group": "other", "rarity": 1}, {"lat": 46.5855, "lng": -153.8085, "id": "106485", "name": "Oithona", "sprite": "sp-anchoviella_juruasanga.png", "group": "other", "rarity": 1}, {"lat": 46.6115, "lng": -153.331, "id": "837453", "name": "Tripos horridus", "sprite": "sp-anchoviella_juruasanga.png", "group": "other", "rarity": 1}, {"lat": 46.5855, "lng": -153.8085, "id": "104161", "name": "Clausocalanus", "sprite": "sp-anchoviella_juruasanga.png", "group": "other", "rarity": 1}, {"lat": 46.8667, "lng": -154.2, "id": "149262", "name": "Coscinodiscus lineatus", "sprite": "sp-anchoviella_juruasanga.png", "group": "other", "rarity": 1}, {"lat": 46.0, "lng": -153.0, "id": "137202", "name": "Puffinus griseus", "sprite": "sp-anchoviella_juruasanga.png", "group": "other", "rarity": 1}, {"lat": 46.7783, "lng": -153.2875, "id": "149152", "name": "Pseudo-nitzschia seriata", "sprite": "sp-anchoviella_juruasanga.png", "group": "other", "rarity": 1}, {"lat": 46.8667, "lng": -154.2, "id": "149142", "name": "Navicula", "sprite": "sp-anchoviella_juruasanga.png", "group": "other", "rarity": 1}, {"lat": 46.8667, "lng": -154.2, "id": "148919", "name": "Thalassiosira decipiens", "sprite": "sp-anchoviella_juruasanga.png", "group": "other", "rarity": 1}, {"lat": 46.8667, "lng": -154.2, "id": "573488", "name": "Navicula challengeri", "sprite": "sp-anchoviella_juruasanga.png", "group": "other", "rarity": 1}, {"lat": 46.638, "lng": -153.33, "id": "196813", "name": "Neodenticula seminae", "sprite": "sp-anchoviella_juruasanga.png", "group": "other", "rarity": 1}, {"lat": 46.6203, "lng": -153.3307, "id": "148912", "name": "Thalassiosira", "sprite": "sp-anchoviella_juruasanga.png", "group": "other", "rarity": 1}]}