{"zoom": 7, "x": 9, "y": 60, "points": [{"lat": 10.0545, "lng": -154.033, "id": "115805", "name": "Clytemnestra scutellata", "sprite": "sp-anchoviella_juruasanga.png", "group": "other", "rarity": 1}, {"lat": 10.0567, "lng": -154.0567, "id": "105430", "name": "Pterosagitta draco", "sprite": "sp-anchoviella_juruasanga.png", "group": "other", "rarity": 1}, {"lat": 10.1892, "lng": -153.99, "id": "2201", "name": "Oxystominidae", "sprite": "sp-anchoviella_juruasanga.png", "group": "other", "rarity": 1}, {"lat": 10.0567, "lng": -154.0567, "id": "421617", "name": "Pronoe capito", "sprite": "sp-american_lobster.png", "group": "crab_lobster", "rarity": 1}, {"lat": 10.0567, "lng": -154.0567, "id": "421608", "name": "Hyperietta stephenseni", "sprite": "sp-american_lobster.png", "group": "crab_lobster", "rarity": 1}, {"lat": 10.0046, "lng": -154.2404, "id": "104230", "name": "Scolecithrix", "sprite": "sp-anchoviella_juruasanga.png", "group": "other", "rarity": 1}, {"lat": 11.1588, "lng": -152.2459, "id": "1100", "name": "Calanoida", "sprite": "sp-anchoviella_juruasanga.png", "group": "other", "rarity": 1}, {"lat": 11.0, "lng": -154.25, "id": "163249", "name": "Hemiaulus hauckii", "sprite": "sp-anchoviella_juruasanga.png", "group": "other", "rarity": 1}, {"lat": 10.0046, "lng": -154.2404, "id": "104121", "name": "Gaetanus", "sprite": "sp-anchoviella_juruasanga.png", "group": "other", "rarity": 1}, {"lat": 10.0046, "lng": -154.2404, "id": "236623", "name": "Platyscelus serratulus", "sprite": "sp-american_lobster.png", "group": "crab_lobster", "rarity": 1}, {"lat": 10.0567, "lng": -154.0567, "id": "110686", "name": "Euphausia hemigibba", "sprite": "sp-antarctic_krill.png", "group": "shrimp", "rarity": 1}, {"lat": 10.0008, "lng": -154.3421, "id": "370469", "name": "Decipisagitta decipiens", "sprite": "sp-anchoviella_juruasanga.png", "group": "other", "rarity": 1}, {"lat": 10.167, "lng": -154.233, "id": "2570", "name": "Viscosia", "sprite": "sp-anchoviella_juruasanga.png", "group": "other", "rarity": 1}, {"lat": 11.0, "lng": -152.9, "id": "125822", "name": "Gonichthys", "sprite": "sp-anchoviella_juruasanga.png", "group": "other", "rarity": 1}, {"lat": 10.018, "lng": -154.2312, "id": "104149", "name": "Temorites", "sprite": "sp-anchoviella_juruasanga.png", "group": "other", "rarity": 1}, {"lat": 9.6258, "lng": -154.25, "id": "573666", "name": "Thalassiothrix vanhoeffenii", "sprite": "sp-anchoviella_juruasanga.png", "group": "other", "rarity": 1}, {"lat": 11.0, "lng": -152.9, "id": "158870", "name": "Lestidium", "sprite": "sp-anchoviella_juruasanga.png", "group": "other", "rarity": 1}, {"lat": 10.0046, "lng": -154.2404, "id": "128893", "name": "Lubbockia aculeata", "sprite": "sp-anchoviella_juruasanga.png", "group": "other", "rarity": 1}, {"lat": 9.5388, "lng": -154.3194, "id": "160528", "name": "Pseudo-nitzschia pungens", "sprite": "sp-anchoviella_juruasanga.png", "group": "other", "rarity": 1}, {"lat": 10.0276, "lng": -154.1875, "id": "135360", "name": "Chelophyes", "sprite": "sp-anchoviella_juruasanga.png", "group": "other", "rarity": 1}, {"lat": 11.1588, "lng": -152.2459, "id": "1205", "name": "Hyperiidea", "sprite": "sp-american_lobster.png", "group": "crab_lobster", "rarity": 1}, {"lat": 10.9667, "lng": -153.3583, "id": "136054", "name": "Nephasoma (Nephasoma) constricticervix", "sprite": "sp-anchoviella_juruasanga.png", "group": "other", "rarity": 1}, {"lat": 11.1588, "lng": -152.2459, "id": "104080", "name": "Candaciidae", "sprite": "sp-anchoviella_juruasanga.png", "group": "other", "rarity": 1}, {"lat": 10.0285, "lng": -154.1248, "id": "104492", "name": "Centropages calaninus", "sprite": "sp-anchoviella_juruasanga.png", "group": "other", "rarity": 1}, {"lat": 10.0523, "lng": -154.0092, "id": "104609", "name": "Lucicutia ovalis", "sprite": "sp-anchoviella_juruasanga.png", "group": "other", "rarity": 1}, {"lat": 10.0306, "lng": -154.1486, "id": "104397", "name": "Euaugaptilus laticeps", "sprite": "sp-anchoviella_juruasanga.png", "group": "other", "rarity": 1}, {"lat": 11.1588, "lng": -152.2459, "id": "104092", "name": "Metridinidae", "sprite": "sp-anchoviella_juruasanga.png", "group": "other", "rarity": 1}, {"lat": 9.997, "lng": -154.4439, "id": "356949", "name": "Amallothrix tenuiserrata", "sprite": "sp-anchoviella_juruasanga.png", "group": "other", "rarity": 1}, {"lat": 8.5003, "lng": -154.252, "id": "156617", "name": "Chaetoceros lorenzianus", "sprite": "sp-anchoviella_juruasanga.png", "group": "other", "rarity": 1}, {"lat": 10.0545, "lng": -154.033, "id": "220839", "name": "Acrocalanus monachus", "sprite": "sp-anchoviella_juruasanga.png", "group": "other", "rarity": 1}, {"lat": 10.0567, "lng": -154.0567, "id": "135423", "name": "Eudoxoides mitra", "sprite": "sp-anchoviella_juruasanga.png", "group": "other", "rarity": 1}, {"lat": 10.3034, "lng": -153.8266, "id": "126217", "name": "Photonectes", "sprite": "sp-anchoviella_juruasanga.png", "group": "other", "rarity": 1}, {"lat": 8.775, "lng": -152.47, "id": "137109", "name": "Stenella longirostris", "sprite": "sp-bottlenose_dolphin.png", "group": "dolphin", "rarity": 1}, {"lat": 10.0379, "lng": -154.1021, "id": "450942", "name": "Paravargula hirsuta", "sprite": "sp-anchoviella_juruasanga.png", "group": "other", "rarity": 1}, {"lat": 10.1892, "lng": -153.99, "id": "2171", "name": "Microlaimidae", "sprite": "sp-anchoviella_juruasanga.png", "group": "other", "rarity": 1}, {"lat": 11.1588, "lng": -152.2459, "id": "1066", "name": "Crustacea", "sprite": "sp-anchoviella_juruasanga.png", "group": "other", "rarity": 1}, {"lat": 10.0379, "lng": -154.1021, "id": "450882", "name": "Cypridina acuminata", "sprite": "sp-anchoviella_juruasanga.png", "group": "other", "rarity": 1}, {"lat": 10.0211, "lng": -154.2341, "id": "104173", "name": "Subeucalanus", "sprite": "sp-anchoviella_juruasanga.png", "group": "other", "rarity": 1}, {"lat": 10.0276, "lng": -154.1875, "id": "106646", "name": "Oithona hamata", "sprite": "sp-anchoviella_juruasanga.png", "group": "other", "rarity": 1}, {"lat": 11.1588, "lng": -152.2459, "id": "112203", "name": "Orbulina", "sprite": "sp-anchoviella_juruasanga.png", "group": "other", "rarity": 1}, {"lat": 10.0276, "lng": -154.1875, "id": "104832", "name": "Scottocalanus persecans", "sprite": "sp-anchoviella_juruasanga.png", "group": "other", "rarity": 1}, {"lat": 10.018, "lng": -154.2312, "id": "104790", "name": "Scaphocalanus brevicornis", "sprite": "sp-anchoviella_juruasanga.png", "group": "other", "rarity": 1}, {"lat": 10.0276, "lng": -154.1875, "id": "128939", "name": "Oncaea mediterranea", "sprite": "sp-anchoviella_juruasanga.png", "group": "other", "rarity": 1}, {"lat": 10.0567, "lng": -154.0567, "id": "104483", "name": "Candacia pachydactyla", "sprite": "sp-anchoviella_juruasanga.png", "group": "other", "rarity": 1}, {"lat": 10.1919, "lng": -154.594, "id": "110020", "name": "Gonyaulax fusiformis", "sprite": "sp-anchoviella_juruasanga.png", "group": "other", "rarity": 1}, {"lat": 10.2508, "lng": -154.2495, "id": "149241", "name": "Chaetoceros affinis", "sprite": "sp-anchoviella_juruasanga.png", "group": "other", "rarity": 1}, {"lat": 9.8467, "lng": -154.4215, "id": "149159", "name": "Coscinodiscus centralis", "sprite": "sp-anchoviella_juruasanga.png", "group": "other", "rarity": 1}, {"lat": 10.0125, "lng": -153.0085, "id": "125650", "name": "Serrivomer", "sprite": "sp-electric_eel.png", "group": "eel", "rarity": 1}, {"lat": 11.0, "lng": -154.25, "id": "149150", "name": "Nitzschia longissima", "sprite": "sp-anchoviella_juruasanga.png", "group": "other", "rarity": 1}, {"lat": 10.0046, "lng": -154.2404, "id": "105437", "name": "Mesosagitta minima", "sprite": "sp-anchoviella_juruasanga.png", "group": "other", "rarity": 1}, {"lat": 10.0276, "lng": -154.1875, "id": "104183", "name": "Lucicutia", "sprite": "sp-anchoviella_juruasanga.png", "group": "other", "rarity": 1}, {"lat": 10.0567, "lng": -154.0567, "id": "360544", "name": "Scolecithricella nicobarica", "sprite": "sp-anchoviella_juruasanga.png", "group": "other", "rarity": 1}, {"lat": 10.6078, "lng": -153.1513, "id": "135404", "name": "Bassia bassensis", "sprite": "sp-anchoviella_juruasanga.png", "group": "other", "rarity": 1}, {"lat": 10.0523, "lng": -154.0092, "id": "104438", "name": "Haloptilus tenuis", "sprite": "sp-anchoviella_juruasanga.png", "group": "other", "rarity": 1}, {"lat": 10.0567, "lng": -154.0567, "id": "104229", "name": "Scolecithricella", "sprite": "sp-anchoviella_juruasanga.png", "group": "other", "rarity": 1}, {"lat": 10.4234, "lng": -154.3357, "id": "163243", "name": "Eucampia striata", "sprite": "sp-anchoviella_juruasanga.png", "group": "other", "rarity": 1}, {"lat": 10.0276, "lng": -154.1875, "id": "11676", "name": "Pisces", "sprite": "sp-anchoviella_juruasanga.png", "group": "other", "rarity": 1}, {"lat": 10.0239, "lng": -154.2076, "id": "128634", "name": "Corycaeus", "sprite": "sp-anchoviella_juruasanga.png", "group": "other", "rarity": 1}, {"lat": 10.1472, "lng": -154.3837, "id": "101633", "name": "Orchomene", "sprite": "sp-american_lobster.png", "group": "crab_lobster", "rarity": 1}, {"lat": 10.1892, "lng": -153.99, "id": "227121", "name": "Plectidae", "sprite": "sp-anchoviella_juruasanga.png", "group": "other", "rarity": 1}, {"lat": 10.0046, "lng": -154.2404, "id": "421623", "name": "Leptocotis tenuirostris", "sprite": "sp-american_lobster.png", "group": "crab_lobster", "rarity": 1}, {"lat": 8.82, "lng": -152.61, "id": "137119", "name": "Physeter macrocephalus", "sprite": "sp-blue_whale.png", "group": "whale", "rarity": 1}, {"lat": 10.0046, "lng": -154.2404, "id": "146735", "name": "Bradyidius armatus", "sprite": "sp-anchoviella_juruasanga.png", "group": "other", "rarity": 1}, {"lat": 10.0008, "lng": -154.3421, "id": "105435", "name": "Flaccisagitta hexaptera", "sprite": "sp-anchoviella_juruasanga.png", "group": "other", "rarity": 1}, {"lat": 10.0304, "lng": -154.1642, "id": "5953", "name": "Sagittidae", "sprite": "sp-anchoviella_juruasanga.png", "group": "other", "rarity": 1}, {"lat": 9.5481, "lng": -154.337, "id": "162916", "name": "Bacteriastrum elongatum", "sprite": "sp-anchoviella_juruasanga.png", "group": "other", "rarity": 1}, {"lat": 9.266, "lng": -151.935, "id": "136190", "name": "Carpoapseudes", "sprite": "sp-american_lobster.png", "group": "crab_lobster", "rarity": 1}, {"lat": 10.167, "lng": -154.233, "id": "2505", "name": "Crenopharynx", "sprite": "sp-anchoviella_juruasanga.png", "group": "other", "rarity": 1}, {"lat": 10.0379, "lng": -154.1021, "id": "180699", "name": "Lestrigonus schizogeneios", "sprite": "sp-american_lobster.png", "group": "crab_lobster", "rarity": 1}, {"lat": 10.0306, "lng": -154.1486, "id": "236628", "name": "Eupronoe minuta", "sprite": "sp-american_lobster.png", "group": "crab_lobster", "rarity": 1}, {"lat": 11.1588, "lng": -152.2459, "id": "104079", "name": "Calanidae", "sprite": "sp-anchoviella_juruasanga.png", "group": "other", "rarity": 1}, {"lat": 9.2888, "lng": -154.3196, "id": "1590706", "name": "Sundstroemia setigera", "sprite": "sp-anchoviella_juruasanga.png", "group": "other", "rarity": 1}, {"lat": 10.1919, "lng": -154.594, "id": "109599", "name": "Triposolenia bicornis", "sprite": "sp-anchoviella_juruasanga.png", "group": "other", "rarity": 1}, {"lat": 10.0, "lng": -152.5, "id": "217718", "name": "Evermann's lantern fish", "thumb": "tn_Syeve_u2.gif", "sprite": "sp-anchoviella_juruasanga.png", "group": "other", "rarity": 1, "waterType": "Saltwater"}, {"lat": 10.0046, "lng": -154.2404, "id": "127734", "name": "Alacia valdiviae", "sprite": "sp-anchoviella_juruasanga.png", "group": "other", "rarity": 1}, {"lat": 10.1892, "lng": -153.99, "id": "2187", "name": "Diplopeltidae", "sprite": "sp-anchoviella_juruasanga.png", "group": "other", "rarity": 1}, {"lat": 9.0389, "lng": -154.3198, "id": "149288", "name": "Chaetoceros atlanticus", "sprite": "sp-anchoviella_juruasanga.png", "group": "other", "rarity": 1}, {"lat": 10.1892, "lng": -153.99, "id": "2164", "name": "Ethmolaimidae", "sprite": "sp-anchoviella_juruasanga.png", "group": "other", "rarity": 1}, {"lat": 10.0545, "lng": -154.033, "id": "128961", "name": "Triconia similis", "sprite": "sp-anchoviella_juruasanga.png", "group": "other", "rarity": 1}, {"lat": 10.0247, "lng": -154.2223, "id": "104193", "name": "Calocalanus", "sprite": "sp-anchoviella_juruasanga.png", "group": "other", "rarity": 1}, {"lat": 10.0276, "lng": -154.1875, "id": "128797", "name": "Agetus typicus", "sprite": "sp-anchoviella_juruasanga.png", "group": "other", "rarity": 1}, {"lat": 10.0285, "lng": -154.1248, "id": "104504", "name": "Clausocalanus jobei", "sprite": "sp-anchoviella_juruasanga.png", "group": "other", "rarity": 1}, {"lat": 10.0379, "lng": -154.1021, "id": "104433", "name": "Haloptilus ornatus", "sprite": "sp-anchoviella_juruasanga.png", "group": "other", "rarity": 1}, {"lat": 10.0306, "lng": -154.1486, "id": "137272", "name": "Salpa fusiformis", "sprite": "sp-anchoviella_juruasanga.png", "group": "other", "rarity": 1}, {"lat": 10.1919, "lng": -154.594, "id": "629513", "name": "Actinoptychus annulatus", "sprite": "sp-anchoviella_juruasanga.png", "group": "other", "rarity": 1}, {"lat": 9.9267, "lng": -152.0267, "id": "2688", "name": "Cetacea", "sprite": "sp-anchoviella_juruasanga.png", "group": "other", "rarity": 1}, {"lat": 11.1, "lng": -153.0, "id": "275027", "name": "Astronesthes lampara", "sprite": "sp-anchoviella_juruasanga.png", "group": "other", "rarity": 1, "waterType": "Saltwater"}, {"lat": 10.0194, "lng": -154.247, "id": "158535", "name": "Iasis", "sprite": "sp-anchoviella_juruasanga.png", "group": "other", "rarity": 1}, {"lat": 10.0379, "lng": -154.1021, "id": "1070", "name": "Maxillopoda", "sprite": "sp-anchoviella_juruasanga.png", "group": "other", "rarity": 1}, {"lat": 11.1588, "lng": -152.2459, "id": "135338", "name": "Diphyidae", "sprite": "sp-anchoviella_juruasanga.png", "group": "other", "rarity": 1}, {"lat": 10.1107, "lng": -154.0523, "id": "104140", "name": "Haloptilus", "sprite": "sp-anchoviella_juruasanga.png", "group": "other", "rarity": 1}, {"lat": 10.0311, "lng": -154.1926, "id": "127546", "name": "Metaconchoecia", "sprite": "sp-anchoviella_juruasanga.png", "group": "other", "rarity": 1}, {"lat": 10.0523, "lng": -154.0092, "id": "104673", "name": "Calocalanus styliremis", "sprite": "sp-anchoviella_juruasanga.png", "group": "other", "rarity": 1}, {"lat": 10.0046, "lng": -154.2404, "id": "137275", "name": "Soestia zonaria", "sprite": "sp-anchoviella_juruasanga.png", "group": "other", "rarity": 1}, {"lat": 10.018, "lng": -154.2312, "id": "104120", "name": "Euchirella", "sprite": "sp-anchoviella_juruasanga.png", "group": "other", "rarity": 1}, {"lat": 10.0185, "lng": -154.2364, "id": "104159", "name": "Centropages", "sprite": "sp-anchoviella_juruasanga.png", "group": "other", "rarity": 1}, {"lat": 10.0125, "lng": -153.0085, "id": "282973", "name": "Broomfin dragonfish", "thumb": "tn_Thden_u0.gif", "sprite": "sp-anchoviella_juruasanga.png", "group": "other", "rarity": 1, "waterType": "Saltwater"}, {"lat": 10.0008, "lng": -154.3421, "id": "364138", "name": "Pachos dentatum", "sprite": "sp-anchoviella_juruasanga.png", "group": "other", "rarity": 1}, {"lat": 10.0837, "lng": -154.327, "id": "101443", "name": "Acanthonotozoma", "sprite": "sp-american_lobster.png", "group": "crab_lobster", "rarity": 1}, {"lat": 10.0545, "lng": -154.033, "id": "220847", "name": "Euchaeta tenuis", "sprite": "sp-anchoviella_juruasanga.png", "group": "other", "rarity": 1}, {"lat": 10.0, "lng": -152.5, "id": "125825", "name": "Lampanyctus", "sprite": "sp-anchoviella_juruasanga.png", "group": "other", "rarity": 1}, {"lat": 9.3979, "lng": -154.365, "id": "149093", "name": "Thalassionema nitzschioides", "sprite": "sp-anchoviella_juruasanga.png", "group": "other", "rarity": 1}, {"lat": 9.6272, "lng": -154.388, "id": "555052", "name": "Thalassionema frauenfeldii", "sprite": "sp-anchoviella_juruasanga.png", "group": "other", "rarity": 1}, {"lat": 11.1588, "lng": -152.2459, "id": "1080", "name": "Copepoda", "sprite": "sp-anchoviella_juruasanga.png", "group": "other", "rarity": 1}, {"lat": 10.0567, "lng": -154.0567, "id": "104462", "name": "Calanoides carinatus", "sprite": "sp-anchoviella_juruasanga.png", "group": "other", "rarity": 1}, {"lat": 10.1472, "lng": -154.3837, "id": "101641", "name": "Paralicella", "sprite": "sp-american_lobster.png", "group": "crab_lobster", "rarity": 1}, {"lat": 10.0523, "lng": -154.0092, "id": "104614", "name": "Lucicutia tenuicauda", "sprite": "sp-anchoviella_juruasanga.png", "group": "other", "rarity": 1}, {"lat": 10.0388, "lng": -154.319, "id": "178241", "name": "Chaetoceros tetrastichon", "sprite": "sp-anchoviella_juruasanga.png", "group": "other", "rarity": 1}, {"lat": 10.0008, "lng": -154.3421, "id": "104112", "name": "Aetideus", "sprite": "sp-anchoviella_juruasanga.png", "group": "other", "rarity": 1}, {"lat": 10.0268, "lng": -154.2503, "id": "127552", "name": "Paraconchoecia", "sprite": "sp-anchoviella_juruasanga.png", "group": "other", "rarity": 1}, {"lat": 10.0567, "lng": -154.0567, "id": "744978", "name": "Atlanta rosea", "sprite": "sp-cowrie_shell.png", "group": "sea_snail", "rarity": 1}, {"lat": 10.0046, "lng": -154.2404, "id": "767266", "name": "Ivellopsis denticauda", "sprite": "sp-anchoviella_juruasanga.png", "group": "other", "rarity": 1}, {"lat": 10.0567, "lng": -154.0567, "id": "103271", "name": "Phronima atlantica", "sprite": "sp-american_lobster.png", "group": "crab_lobster", "rarity": 1}, {"lat": 10.0194, "lng": -154.247, "id": "137233", "name": "Salpa", "sprite": "sp-anchoviella_juruasanga.png", "group": "other", "rarity": 1}, {"lat": 10.0379, "lng": -154.1021, "id": "221056", "name": "Euphausia diomedeae", "sprite": "sp-antarctic_krill.png", "group": "shrimp", "rarity": 1}, {"lat": 10.0268, "lng": -154.2503, "id": "745865", "name": "Paracalanus parvus parvus", "sprite": "sp-anchoviella_juruasanga.png", "group": "other", "rarity": 1}, {"lat": 10.0426, "lng": -154.0908, "id": "105410", "name": "Sagitta", "sprite": "sp-anchoviella_juruasanga.png", "group": "other", "rarity": 1}, {"lat": 10.1704, "lng": -154.2997, "id": "178185", "name": "Chaetoceros peruvianus", "sprite": "sp-anchoviella_juruasanga.png", "group": "other", "rarity": 1}, {"lat": 10.1919, "lng": -154.594, "id": "163043", "name": "Chaetoceros distans", "sprite": "sp-anchoviella_juruasanga.png", "group": "other", "rarity": 1}, {"lat": 10.0046, "lng": -154.2404, "id": "137755", "name": "Diacria", "sprite": "sp-cowrie_shell.png", "group": "sea_snail", "rarity": 1}]}