[{"id":"137090","name":"蓝鲸","lat":36.3852,"lng":-121.1532,"wt":"star"},{"id":"137090","name":"Balaenoptera musculus","lat":36.3852,"lng":-121.1532,"wt":"star"},{"id":"137092","name":"座头鲸","lat":-20.5569,"lng":-174.9833,"wt":"star"},{"id":"137092","name":"Megaptera novaeangliae","lat":-20.5569,"lng":-174.9833,"wt":"star"},{"id":"137102","name":"虎鲸","lat":68.4677,"lng":15.366,"wt":"star"},{"id":"137102","name":"Orcinus orca","lat":68.4677,"lng":15.366,"wt":"star"},{"id":"105838","name":"大白鲨","lat":-34.58,"lng":19.35,"wt":"star"},{"id":"105838","name":"Carcharodon carcharias","lat":-34.58,"lng":19.35,"wt":"star"},{"id":"105847","name":"鲸鲨","lat":3.5,"lng":72.8,"wt":"star"},{"id":"105847","name":"Rhincodon typus","lat":3.5,"lng":72.8,"wt":"star"},{"id":"137206","name":"绿海龟","lat":-18.4858,"lng":148.0336,"wt":"star"},{"id":"137206","name":"Chelonia mydas","lat":-18.4858,"lng":148.0336,"wt":"star"},{"id":"278400","name":"公子小丑鱼","lat":-1.2136,"lng":130.1213,"wt":"star"},{"id":"278400","name":"Amphiprion ocellaris","lat":-1.2136,"lng":130.1213,"wt":"star"},{"id":"137111","name":"宽吻海豚","lat":36.7287,"lng":-122.1441,"wt":"star"},{"id":"137111","name":"Tursiops truncatus","lat":36.7287,"lng":-122.1441,"wt":"star"},{"id":"140605","name":"普通章鱼","lat":36.39,"lng":25.46,"wt":"star"},{"id":"140605","name":"Octopus vulgaris","lat":36.39,"lng":25.46,"wt":"star"},{"id":"137119","name":"抹香鲸","lat":38.016,"lng":-25.3332,"wt":"star"},{"id":"137119","name":"Physeter macrocephalus","lat":38.016,"lng":-25.3332,"wt":"star"},{"id":"137209","name":"棱皮龟","lat":10.83,"lng":-61.05,"wt":"star"},{"id":"137209","name":"Dermochelys coriacea","lat":10.83,"lng":-61.05,"wt":"star"},{"id":"137115","name":"白鲸","lat":78.3701,"lng":15.743,"wt":"star"},{"id":"137115","name":"Delphinapterus leucas","lat":78.3701,"lng":15.743,"wt":"star"},{"id":"137116","name":"独角鲸","lat":72.68,"lng":-77.95,"wt":"star"},{"id":"137116","name":"Monodon monoceros","lat":72.68,"lng":-77.95,"wt":"star"},{"id":"220227","name":"儒艮","lat":25.2297,"lng":34.8898,"wt":"star"},{"id":"220227","name":"Dugong dugon","lat":25.2297,"lng":34.8898,"wt":"star"},{"id":"242598","name":"海獭","lat":37.1671,"lng":-121.9493,"wt":"star"},{"id":"242598","name":"Enhydra lutris","lat":37.1671,"lng":-121.9493,"wt":"star"},{"id":"1026118","name":"巨型蝠鲼","lat":4.9556,"lng":73.1633,"wt":"star"},{"id":"1026118","name":"Mobula birostris","lat":4.9556,"lng":73.1633,"wt":"star"},{"id":"105817","name":"大锤头鲨","lat":1.38,"lng":-91.82,"wt":"star"},{"id":"105817","name":"Sphyrna mokarran","lat":1.38,"lng":-91.82,"wt":"star"},{"id":"105799","name":"虎鲨","lat":-30.27,"lng":30.85,"wt":"star"},{"id":"105799","name":"Galeocerdo cuvier","lat":-30.27,"lng":30.85,"wt":"star"},{"id":"105792","name":"公牛鲨","lat":27.0888,"lng":-80.0677,"wt":"star"},{"id":"105792","name":"Carcharhinus leucas","lat":27.0888,"lng":-80.0677,"wt":"star"},{"id":"105837","name":"姥鲨","lat":56.2748,"lng":-5.6114,"wt":"star"},{"id":"105837","name":"Cetorhinus maximus","lat":56.2748,"lng":-5.6114,"wt":"star"},{"id":"137207","name":"玳瑁","lat":27.514,"lng":34.2703,"wt":"star"},{"id":"137207","name":"Eretmochelys imbricata","lat":27.514,"lng":34.2703,"wt":"star"},{"id":"137205","name":"蠵龟","lat":37.79,"lng":20.9,"wt":"star"},{"id":"137205","name":"Caretta caretta","lat":37.79,"lng":20.9,"wt":"star"},{"id":"225773","name":"帝企鹅","lat":-77.3406,"lng":169.9344,"wt":"star"},{"id":"225773","name":"Aptenodytes forsteri","lat":-77.3406,"lng":169.9344,"wt":"star"},{"id":"137112","name":"灰鲸","lat":26.75,"lng":-113.2,"wt":"star"},{"id":"137112","name":"Eschrichtius robustus","lat":26.75,"lng":-113.2,"wt":"star"},{"id":"137091","name":"长须鲸","lat":66.2313,"lng":-16.5337,"wt":"star"},{"id":"137091","name":"Balaenoptera physalus","lat":66.2313,"lng":-16.5337,"wt":"star"},{"id":"219676","name":"蓝刀鲷","lat":-18.4796,"lng":147.1282,"wt":"star"},{"id":"219676","name":"Paracanthurus hepatus","lat":-18.4796,"lng":147.1282,"wt":"star"},{"id":"212237","name":"库达海马","lat":0.9505,"lng":124.8521,"wt":"star"},{"id":"212237","name":"Hippocampus kuda","lat":0.9505,"lng":124.8521,"wt":"star"},{"id":"127405","name":"翻车鱼","lat":-0.6223,"lng":-91.299,"wt":"star"},{"id":"127405","name":"Mola mola","lat":-0.6223,"lng":-91.299,"wt":"star"},{"id":"159559","name":"红色狮子鱼","lat":26.6706,"lng":33.7848,"wt":"star"},{"id":"159559","name":"Pterois volitans","lat":26.6706,"lng":33.7848,"wt":"star"},{"id":"127029","name":"大西洋蓝鳍金枪鱼","lat":37.2,"lng":12.5,"wt":"star"},{"id":"127029","name":"Thunnus thynnus","lat":37.2,"lng":12.5,"wt":"star"},{"id":"127094","name":"剑鱼","lat":37.9511,"lng":15.7752,"wt":"star"},{"id":"127094","name":"Xiphias gladius","lat":37.9511,"lng":15.7752,"wt":"star"},{"id":"105849","name":"大齿锯鳐","lat":-15.77,"lng":124.87,"wt":"star"},{"id":"105849","name":"Pristis pristis","lat":-15.77,"lng":124.87,"wt":"star"},{"id":"218224","name":"鞍带石斑鱼","lat":-14.65,"lng":145.59,"wt":"star"},{"id":"218224","name":"Epinephelus lanceolatus","lat":-14.65,"lng":145.59,"wt":"star"},{"id":"218945","name":"苏眉鱼","lat":7.333,"lng":134.9358,"wt":"star"},{"id":"218945","name":"Cheilinus undulatus","lat":7.333,"lng":134.9358,"wt":"star"},{"id":"220001","name":"皇帝神仙鱼","lat":27.2764,"lng":33.8579,"wt":"star"},{"id":"220001","name":"Pomacanthus imperator","lat":27.2764,"lng":33.8579,"wt":"star"},{"id":"159509","name":"美洲海牛","lat":29.0093,"lng":-82.6024,"wt":"star"},{"id":"159509","name":"Trichechus manatus","lat":29.0093,"lng":-82.6024,"wt":"star"},{"id":"217426","name":"花点鹰鳐","lat":-0.8132,"lng":-90.94,"wt":"star"},{"id":"217426","name":"Aetobatus narinari","lat":-0.8132,"lng":-90.94,"wt":"star"},{"id":"220083","name":"镰鱼","lat":20.837,"lng":-156.6659,"wt":"star"},{"id":"220083","name":"Zanclus cornutus","lat":20.837,"lng":-156.6659,"wt":"star"},{"id":"345843","name":"大梭鱼","lat":19.1735,"lng":-80.9977,"wt":"star"},{"id":"345843","name":"Sphyraena barracuda","lat":19.1735,"lng":-80.9977,"wt":"star"},{"id":"137086","name":"弓头鲸","lat":71.29,"lng":-156.79,"wt":"star"},{"id":"137086","name":"Balaena mysticetus","lat":71.29,"lng":-156.79,"wt":"star"},{"id":"137077","name":"海象","lat":78.3638,"lng":17.363,"wt":"star"},{"id":"137077","name":"Odobenus rosmarus","lat":78.3638,"lng":17.363,"wt":"star"},{"id":"137084","name":"斑海豹","lat":65.6,"lng":-20.63,"wt":"star"},{"id":"137084","name":"Phoca vitulina","lat":65.6,"lng":-20.63,"wt":"star"},{"id":"158812","name":"旗鱼","lat":5.6264,"lng":-87.3756,"wt":"star"},{"id":"158812","name":"Istiophorus platypterus","lat":5.6264,"lng":-87.3756,"wt":"star"},{"id":"137109","name":"飞旋海豚","lat":19.7775,"lng":-156.0078,"wt":"star"},{"id":"137109","name":"Stenella longirostris","lat":19.7775,"lng":-156.0078,"wt":"star"},{"id":"137094","name":"短吻真海豚","lat":37.5454,"lng":-25.4693,"wt":"star"},{"id":"137094","name":"Delphinus delphis","lat":37.5454,"lng":-25.4693,"wt":"star"},{"id":"220226","name":"中华白海豚","lat":22.29,"lng":113.87,"wt":"star"},{"id":"220226","name":"Sousa chinensis","lat":22.29,"lng":113.87,"wt":"star"},{"id":"231413","name":"南象海豹","lat":-54.1097,"lng":-36.5302,"wt":"star"},{"id":"231413","name":"Mirounga leonina","lat":-54.1097,"lng":-36.5302,"wt":"star"},{"id":"236217","name":"南极磷虾","lat":-64.9504,"lng":-62.0576,"wt":"ecosystem"},{"id":"236217","name":"Euphausia superba","lat":-64.9504,"lng":-62.0576,"wt":"ecosystem"},{"id":"126417","name":"大西洋鲱鱼","lat":68.3868,"lng":14.6287,"wt":"ecosystem"},{"id":"126417","name":"Clupea harengus","lat":68.3868,"lng":14.6287,"wt":"ecosystem"},{"id":"272287","name":"秘鲁鳀鱼","lat":-13.86,"lng":-76.25,"wt":"ecosystem"},{"id":"272287","name":"Engraulis ringens","lat":-13.86,"lng":-76.25,"wt":"ecosystem"},{"id":"126436","name":"大西洋鳕鱼","lat":68.0693,"lng":14.9961,"wt":"ecosystem"},{"id":"126436","name":"Gadus morhua","lat":68.0693,"lng":14.9961,"wt":"ecosystem"},{"id":"127186","name":"大西洋鲑鱼","lat":69.97,"lng":23.27,"wt":"ecosystem"},{"id":"127186","name":"Salmo salar","lat":69.97,"lng":23.27,"wt":"ecosystem"},{"id":"158075","name":"大鳞大马哈鱼","lat":60.54,"lng":-149.44,"wt":"ecosystem"},{"id":"158075","name":"Oncorhynchus tshawytscha","lat":60.54,"lng":-149.44,"wt":"ecosystem"},{"id":"207023","name":"千孔鹿角珊瑚","lat":-18.3361,"lng":148.3776,"wt":"ecosystem"},{"id":"207023","name":"Acropora millepora","lat":-18.3361,"lng":148.3776,"wt":"ecosystem"},{"id":"206953","name":"鹿角珊瑚","lat":-18.1888,"lng":147.6784,"wt":"ecosystem"},{"id":"206953","name":"Pocillopora damicornis","lat":-18.1888,"lng":147.6784,"wt":"ecosystem"},{"id":"207225","name":"团块滨珊瑚","lat":19.8105,"lng":-155.8394,"wt":"ecosystem"},{"id":"207225","name":"Porites lobata","lat":19.8105,"lng":-155.8394,"wt":"ecosystem"},{"id":"212811","name":"蓝绿光鳃鱼","lat":26.9483,"lng":33.7116,"wt":"ecosystem"},{"id":"212811","name":"Chromis viridis","lat":26.9483,"lng":33.7116,"wt":"ecosystem"},{"id":"278402","name":"眼斑双锯鱼","lat":-17.9206,"lng":147.9231,"wt":"ecosystem"},{"id":"278402","name":"Amphiprion percula","lat":-17.9206,"lng":147.9231,"wt":"ecosystem"},{"id":"219014","name":"裂唇鱼","lat":27.5447,"lng":33.1483,"wt":"ecosystem"},{"id":"219014","name":"Labroides dimidiatus","lat":27.5447,"lng":33.1483,"wt":"ecosystem"},{"id":"213289","name":"棘冠海星","lat":-18.4209,"lng":147.8285,"wt":"ecosystem"},{"id":"213289","name":"Acanthaster planci","lat":-18.4209,"lng":147.8285,"wt":"ecosystem"},{"id":"207610","name":"蓝指海星","lat":-1.3674,"lng":130.433,"wt":"ecosystem"},{"id":"207610","name":"Linckia laevigata","lat":-1.3674,"lng":130.433,"wt":"ecosystem"},{"id":"207670","name":"大砗磲","lat":7.8656,"lng":134.5604,"wt":"ecosystem"},{"id":"207670","name":"Tridacna gigas","lat":7.8656,"lng":134.5604,"wt":"ecosystem"},{"id":"382891","name":"加勒比龙虾","lat":24.5365,"lng":-82.161,"wt":"ecosystem"},{"id":"382891","name":"Panulirus argus","lat":24.5365,"lng":-82.161,"wt":"ecosystem"},{"id":"156134","name":"美洲龙虾","lat":43.66,"lng":-70.26,"wt":"ecosystem"},{"id":"156134","name":"Homarus americanus","lat":43.66,"lng":-70.26,"wt":"ecosystem"},{"id":"107379","name":"美味优游蟹","lat":38.5,"lng":-76.3,"wt":"ecosystem"},{"id":"107379","name":"Callinectes sapidus","lat":38.5,"lng":-76.3,"wt":"ecosystem"},{"id":"233889","name":"堪察加帝王蟹","lat":53.89,"lng":-166.54,"wt":"ecosystem"},{"id":"233889","name":"Paralithodes camtschaticus","lat":53.89,"lng":-166.54,"wt":"ecosystem"},{"id":"210378","name":"斑节对虾","lat":9.78,"lng":106.7,"wt":"ecosystem"},{"id":"210378","name":"Penaeus monodon","lat":9.78,"lng":106.7,"wt":"ecosystem"},{"id":"232231","name":"巨藻","lat":36.4399,"lng":-121.9987,"wt":"ecosystem"},{"id":"232231","name":"Macrocystis pyrifera","lat":36.4399,"lng":-121.9987,"wt":"ecosystem"},{"id":"240747","name":"紫色海胆","lat":36.807,"lng":-121.6278,"wt":"ecosystem"},{"id":"240747","name":"Strongylocentrotus purpuratus","lat":36.807,"lng":-121.6278,"wt":"ecosystem"},{"id":"126281","name":"欧洲鳗鲡","lat":28.0,"lng":-64.0,"wt":"ecosystem"},{"id":"126281","name":"Anguilla anguilla","lat":28.0,"lng":-64.0,"wt":"ecosystem"},{"id":"127138","name":"大西洋大比目鱼","lat":66.4579,"lng":-17.9105,"wt":"ecosystem"},{"id":"127138","name":"Hippoglossus hippoglossus","lat":66.4579,"lng":-17.9105,"wt":"ecosystem"},{"id":"126421","name":"沙丁鱼","lat":-31.633,"lng":29.1646,"wt":"ecosystem"},{"id":"126421","name":"Sardina pilchardus","lat":-31.633,"lng":29.1646,"wt":"ecosystem"},{"id":"135306","name":"海月水母","lat":6.9281,"lng":134.4848,"wt":"ecosystem"},{"id":"135306","name":"Aurelia aurita","lat":6.9281,"lng":134.4848,"wt":"ecosystem"},{"id":"135301","name":"狮鬃水母","lat":43.1585,"lng":-68.5295,"wt":"ecosystem"},{"id":"135301","name":"Cyanea capillata","lat":43.1585,"lng":-68.5295,"wt":"ecosystem"},{"id":"135479","name":"僧帽水母","lat":28.2868,"lng":-15.1106,"wt":"ecosystem"},{"id":"135479","name":"Physalia physalis","lat":28.2868,"lng":-15.1106,"wt":"ecosystem"},{"id":"141444","name":"欧洲乌贼","lat":-33.03,"lng":137.52,"wt":"ecosystem"},{"id":"141444","name":"Sepia officinalis","lat":-33.03,"lng":137.52,"wt":"ecosystem"},{"id":"342291","name":"茎柔鱼","lat":27.1598,"lng":-111.0099,"wt":"ecosystem"},{"id":"342291","name":"Dosidicus gigas","lat":27.1598,"lng":-111.0099,"wt":"ecosystem"},{"id":"140271","name":"欧洲枪乌贼","lat":43.51,"lng":16.44,"wt":"ecosystem"},{"id":"140271","name":"Loligo vulgaris","lat":43.51,"lng":16.44,"wt":"ecosystem"},{"id":"137117","name":"普通鼠海豚","lat":55.45,"lng":8.3,"wt":"ecosystem"},{"id":"137117","name":"Phocoena phocoena","lat":55.45,"lng":8.3,"wt":"ecosystem"},{"id":"137080","name":"灰海豹","lat":53.47,"lng":0.15,"wt":"ecosystem"},{"id":"137080","name":"Halichoerus grypus","lat":53.47,"lng":0.15,"wt":"ecosystem"},{"id":"231404","name":"南极毛皮海豹","lat":-54.1836,"lng":-37.0292,"wt":"ecosystem"},{"id":"231404","name":"Arctocephalus gazella","lat":-54.1836,"lng":-37.0292,"wt":"ecosystem"},{"id":"195932","name":"威德尔海豹","lat":-77.85,"lng":166.67,"wt":"ecosystem"},{"id":"195932","name":"Leptonychotes weddellii","lat":-77.85,"lng":166.67,"wt":"ecosystem"},{"id":"159019","name":"格陵兰海豹","lat":47.39,"lng":-61.85,"wt":"ecosystem"},{"id":"159019","name":"Pagophilus groenlandicus","lat":47.39,"lng":-61.85,"wt":"ecosystem"},{"id":"234836","name":"南极犬牙鱼","lat":-77.6991,"lng":170.8908,"wt":"ecosystem"},{"id":"234836","name":"Dissostichus mawsoni","lat":-77.6991,"lng":170.8908,"wt":"ecosystem"},{"id":"234679","name":"厚皮南极鱼","lat":-64.5101,"lng":-61.9672,"wt":"ecosystem"},{"id":"234679","name":"Notothenia coriiceps","lat":-64.5101,"lng":-61.9672,"wt":"ecosystem"},{"id":"266010","name":"管虫","lat":9.83,"lng":-104.3,"wt":"ecosystem"},{"id":"266010","name":"Riftia pachyptila","lat":9.83,"lng":-104.3,"wt":"ecosystem"},{"id":"107542","name":"深海热泉虾","lat":37.0176,"lng":-31.9141,"wt":"ecosystem"},{"id":"107542","name":"Rimicaris exoculata","lat":37.0176,"lng":-31.9141,"wt":"ecosystem"},{"id":"336171","name":"庞贝蠕虫","lat":13.0,"lng":-104.0,"wt":"ecosystem"},{"id":"336171","name":"Alvinella pompejana","lat":13.0,"lng":-104.0,"wt":"ecosystem"},{"id":"836033","name":"太平洋牡蛎","lat":44.64,"lng":-1.17,"wt":"ecosystem"},{"id":"836033","name":"Magallana gigas","lat":44.64,"lng":-1.17,"wt":"ecosystem"},{"id":"140480","name":"紫贻贝","lat":48.64,"lng":-1.51,"wt":"ecosystem"},{"id":"140480","name":"Mytilus edulis","lat":48.64,"lng":-1.51,"wt":"ecosystem"},{"id":"150514","name":"美洲鲎","lat":39.15,"lng":-75.3,"wt":"ecosystem"},{"id":"150514","name":"Limulus polyphemus","lat":39.15,"lng":-75.3,"wt":"ecosystem"},{"id":"127403","name":"刺鲀","lat":20.9497,"lng":-86.6011,"wt":"ecosystem"},{"id":"127403","name":"Diodon hystrix","lat":20.9497,"lng":-86.6011,"wt":"ecosystem"},{"id":"159795","name":"红笛鲷","lat":29.0,"lng":-87.0,"wt":"ecosystem"},{"id":"159795","name":"Lutjanus campechanus","lat":29.0,"lng":-87.0,"wt":"ecosystem"},{"id":"159353","name":"伊氏石斑鱼","lat":26.7331,"lng":-79.8713,"wt":"ecosystem"},{"id":"159353","name":"Epinephelus itajara","lat":26.7331,"lng":-79.8713,"wt":"ecosystem"},{"id":"276064","name":"女王鹦哥鱼","lat":11.8178,"lng":-68.7589,"wt":"ecosystem"},{"id":"276064","name":"Scarus vetula","lat":11.8178,"lng":-68.7589,"wt":"ecosystem"},{"id":"158583","name":"绿海鳗","lat":20.5903,"lng":-86.9059,"wt":"ecosystem"},{"id":"158583","name":"Gymnothorax funebris","lat":20.5903,"lng":-86.9059,"wt":"ecosystem"},{"id":"105846","name":"铰口鲨","lat":17.86,"lng":-87.95,"wt":"ecosystem"},{"id":"105846","name":"Ginglymostoma cirratum","lat":17.86,"lng":-87.95,"wt":"ecosystem"},{"id":"281931","name":"斑纹须鲨","lat":-28.64,"lng":153.63,"wt":"ecosystem"},{"id":"281931","name":"Orectolobus maculatus","lat":-28.64,"lng":153.63,"wt":"ecosystem"},{"id":"313100","name":"豹纹鲨","lat":-18.1112,"lng":147.9176,"wt":"ecosystem"},{"id":"313100","name":"Stegostoma tigrinum","lat":-18.1112,"lng":147.9176,"wt":"ecosystem"},{"id":"218174","name":"驼背鲈","lat":27.1473,"lng":34.4478,"wt":"ecosystem"},{"id":"218174","name":"Cephalopholis argus","lat":27.1473,"lng":34.4478,"wt":"ecosystem"},{"id":"127397","name":"女王鳞鲀","lat":12.2896,"lng":-68.2526,"wt":"ecosystem"},{"id":"127397","name":"Balistes vetula","lat":12.2896,"lng":-68.2526,"wt":"ecosystem"},{"id":"273780","name":"绿鹦哥鱼","lat":11.9367,"lng":-68.1093,"wt":"ecosystem"},{"id":"273780","name":"Sparisoma viride","lat":11.9367,"lng":-68.1093,"wt":"ecosystem"},{"id":"212209","name":"月亮锦鱼","lat":27.4034,"lng":33.4415,"wt":"ecosystem"},{"id":"212209","name":"Thalassoma lunare","lat":27.4034,"lng":33.4415,"wt":"ecosystem"},{"id":"211773","name":"甲尻鱼","lat":27.1391,"lng":34.6281,"wt":"ecosystem"},{"id":"211773","name":"Pygoplites diacanthus","lat":27.1391,"lng":34.6281,"wt":"ecosystem"},{"id":"219683","name":"黄三角倒吊","lat":19.4547,"lng":-155.8281,"wt":"ecosystem"},{"id":"219683","name":"Zebrasoma flavescens","lat":19.4547,"lng":-155.8281,"wt":"ecosystem"},{"id":"219628","name":"粉蓝吊","lat":3.5933,"lng":73.2933,"wt":"ecosystem"},{"id":"219628","name":"Acanthurus leucosternon","lat":3.5933,"lng":73.2933,"wt":"ecosystem"},{"id":"219890","name":"毕加索鳞鲀","lat":27.7425,"lng":33.4562,"wt":"ecosystem"},{"id":"219890","name":"Rhinecanthus aculeatus","lat":27.7425,"lng":33.4562,"wt":"ecosystem"},{"id":"402161","name":"火焰神仙鱼","lat":7.09,"lng":171.38,"wt":"ecosystem"},{"id":"402161","name":"Centropyge loriculus","lat":7.09,"lng":171.38,"wt":"ecosystem"},{"id":"275187","name":"豆丁海马","lat":-0.6109,"lng":130.6029,"wt":"ecosystem"},{"id":"275187","name":"Hippocampus bargibanti","lat":-0.6109,"lng":130.6029,"wt":"ecosystem"},{"id":"280408","name":"贝加尔湖杜父鱼","lat":52.0035,"lng":104.8951,"wt":"ecosystem"},{"id":"280408","name":"Cottocomephorus grewingkii","lat":52.0035,"lng":104.8951,"wt":"ecosystem"},{"id":"None","name":"巨骨舌鱼","lat":-2.8,"lng":-65.0,"wt":"ecosystem"},{"id":"None","name":"Arapaima gigas","lat":-2.8,"lng":-65.0,"wt":"ecosystem"},{"id":"None","name":"电鳗","lat":-3.2779,"lng":-59.8201,"wt":"ecosystem"},{"id":"None","name":"Electrophorus electricus","lat":-3.2779,"lng":-59.8201,"wt":"ecosystem"},{"id":"None","name":"红腹食人鱼","lat":-2.9732,"lng":-60.0137,"wt":"ecosystem"},{"id":"None","name":"Pygocentrus nattereri","lat":-2.9732,"lng":-60.0137,"wt":"ecosystem"},{"id":"None","name":"银龙鱼","lat":-1.3026,"lng":-61.6821,"wt":"ecosystem"},{"id":"None","name":"Osteoglossum bicirrhosum","lat":-1.3026,"lng":-61.6821,"wt":"ecosystem"},{"id":"None","name":"圆斑淡水魟","lat":-3.0378,"lng":-60.3387,"wt":"ecosystem"},{"id":"None","name":"Potamotrygon motoro","lat":-3.0378,"lng":-60.3387,"wt":"ecosystem"},{"id":"None","name":"铁饼鱼","lat":-1.4939,"lng":-62.3163,"wt":"ecosystem"},{"id":"None","name":"Symphysodon discus","lat":-1.4939,"lng":-62.3163,"wt":"ecosystem"},{"id":"293639","name":"尼罗罗非鱼","lat":-1.0,"lng":33.0,"wt":"ecosystem"},{"id":"293639","name":"Oreochromis niloticus","lat":-1.0,"lng":33.0,"wt":"ecosystem"},{"id":"None","name":"尼罗尖吻鲈","lat":-0.5,"lng":34.5,"wt":"ecosystem"},{"id":"None","name":"Lates niloticus","lat":-0.5,"lng":34.5,"wt":"ecosystem"},{"id":"None","name":"非洲肺鱼","lat":13.45,"lng":-16.58,"wt":"ecosystem"},{"id":"None","name":"Protopterus annectens","lat":13.45,"lng":-16.58,"wt":"ecosystem"},{"id":"None","name":"皇帝孔雀鲈","lat":-1.7082,"lng":-61.8709,"wt":"ecosystem"},{"id":"None","name":"Cichla temensis","lat":-1.7082,"lng":-61.8709,"wt":"ecosystem"},{"id":"217995","name":"网纹海龙","lat":0.9501,"lng":125.5298,"wt":"ecosystem"},{"id":"217995","name":"Corythoichthys intestinalis","lat":0.9501,"lng":125.5298,"wt":"ecosystem"},{"id":"127387","name":"大海龙","lat":40.267,"lng":9.5186,"wt":"ecosystem"},{"id":"127387","name":"Syngnathus acus","lat":40.267,"lng":9.5186,"wt":"ecosystem"},{"id":"1042871","name":"阿氏前口蝠鲼","lat":5.3349,"lng":72.9596,"wt":"ecosystem"},{"id":"1042871","name":"Mobula alfredi","lat":5.3349,"lng":72.9596,"wt":"ecosystem"},{"id":"220293","name":"太平洋丽龟","lat":10.04,"lng":-85.7,"wt":"ecosystem"},{"id":"220293","name":"Lepidochelys olivacea","lat":10.04,"lng":-85.7,"wt":"ecosystem"},{"id":"254983","name":"印太瓶鼻海豚","lat":24.6543,"lng":35.2467,"wt":"ecosystem"},{"id":"254983","name":"Tursiops aduncus","lat":24.6543,"lng":35.2467,"wt":"ecosystem"},{"id":"141887","name":"吸血鬼乌贼","lat":36.1613,"lng":-121.2181,"wt":"surprise"},{"id":"141887","name":"Vampyroteuthis infernalis","lat":36.1613,"lng":-121.2181,"wt":"surprise"},{"id":"138293","name":"小飞象章鱼","lat":36.7878,"lng":-122.8532,"wt":"surprise"},{"id":"138293","name":"Grimpoteuthis","lat":36.7878,"lng":-122.8532,"wt":"surprise"},{"id":"281482","name":"大鳍后肛鱼","lat":35.9961,"lng":-121.7885,"wt":"surprise"},{"id":"281482","name":"Macropinna microstoma","lat":35.9961,"lng":-121.7885,"wt":"surprise"},{"id":"274674","name":"水滴鱼","lat":-33.7132,"lng":151.2817,"wt":"surprise"},{"id":"274674","name":"Psychrolutes marcidus","lat":-33.7132,"lng":151.2817,"wt":"surprise"},{"id":"126525","name":"皇带鱼","lat":51.6449,"lng":-0.1505,"wt":"surprise"},{"id":"126525","name":"Regalecus glesne","lat":51.6449,"lng":-0.1505,"wt":"surprise"},{"id":"342218","name":"大王乌贼","lat":-41.1337,"lng":174.8254,"wt":"surprise"},{"id":"342218","name":"Architeuthis dux","lat":-41.1337,"lng":174.8254,"wt":"surprise"},{"id":"140022","name":"大西洋海神海蛞蝓","lat":-28.1651,"lng":153.6821,"wt":"surprise"},{"id":"140022","name":"Glaucus atlanticus","lat":-28.1651,"lng":153.6821,"wt":"surprise"},{"id":"282254","name":"叶海龙","lat":-35.3639,"lng":138.2232,"wt":"surprise"},{"id":"282254","name":"Phyllopteryx taeniolatus","lat":-35.3639,"lng":138.2232,"wt":"surprise"},{"id":"282248","name":"草海龙","lat":-35.55,"lng":138.63,"wt":"surprise"},{"id":"282248","name":"Phycodurus eques","lat":-35.55,"lng":138.63,"wt":"surprise"},{"id":"342333","name":"蓝环章鱼","lat":1.6033,"lng":125.2734,"wt":"surprise"},{"id":"342333","name":"Hapalochlaena lunulata","lat":1.6033,"lng":125.2734,"wt":"surprise"},{"id":"273264","name":"花斑连鳍","lat":6.9708,"lng":134.0739,"wt":"surprise"},{"id":"273264","name":"Synchiropus splendidus","lat":6.9708,"lng":134.0739,"wt":"surprise"},{"id":"217616","name":"黑柔骨鱼","lat":37.022,"lng":-122.4506,"wt":"surprise"},{"id":"217616","name":"Idiacanthus atlanticus","lat":37.022,"lng":-122.4506,"wt":"surprise"},{"id":"126556","name":"约翰黑角鮟鱇","lat":36.7362,"lng":-121.3546,"wt":"surprise"},{"id":"126556","name":"Melanocetus johnsonii","lat":36.7362,"lng":-121.3546,"wt":"surprise"},{"id":"126393","name":"角高体金眼鲷","lat":36.311,"lng":-121.7995,"wt":"surprise"},{"id":"126393","name":"Anoplogaster cornuta","lat":36.311,"lng":-121.7995,"wt":"surprise"},{"id":"127338","name":"斯隆蝰鱼","lat":36.7864,"lng":-121.9214,"wt":"surprise"},{"id":"127338","name":"Chauliodus sloani","lat":36.7864,"lng":-121.9214,"wt":"surprise"},{"id":"127165","name":"宽咽鱼","lat":37.1354,"lng":-121.542,"wt":"surprise"},{"id":"127165","name":"Eurypharynx pelecanoides","lat":37.1354,"lng":-121.542,"wt":"surprise"},{"id":"126545","name":"格陵兰鞭冠鮟鱇","lat":51.334,"lng":0.1267,"wt":"surprise"},{"id":"126545","name":"Himantolophus groenlandicus","lat":51.334,"lng":0.1267,"wt":"surprise"},{"id":"126733","name":"后肛鱼","lat":36.8071,"lng":-121.202,"wt":"surprise"},{"id":"126733","name":"Opisthoproctus soleatus","lat":36.8071,"lng":-121.202,"wt":"surprise"},{"id":"344083","name":"阔带青斑海蛇","lat":9.07,"lng":123.27,"wt":"surprise"},{"id":"344083","name":"Laticauda colubrina","lat":9.07,"lng":123.27,"wt":"surprise"},{"id":"1476906","name":"黄腹海蛇","lat":9.5,"lng":-84.5,"wt":"surprise"},{"id":"1476906","name":"Hydrophis platurus","lat":9.5,"lng":-84.5,"wt":"surprise"},{"id":"527322","name":"库巴里海蛞蝓","lat":1.9499,"lng":125.5382,"wt":"surprise"},{"id":"527322","name":"Nembrotha kubaryana","lat":1.9499,"lng":125.5382,"wt":"surprise"},{"id":"558198","name":"洛氏多彩海蛞蝓","lat":-1.3201,"lng":131.0304,"wt":"surprise"},{"id":"558198","name":"Chromodoris lochi","lat":-1.3201,"lng":131.0304,"wt":"surprise"},{"id":"256755","name":"缩头鱼虱","lat":52.232,"lng":-0.5018,"wt":"surprise"},{"id":"256755","name":"Cymothoa exigua","lat":52.232,"lng":-0.5018,"wt":"surprise"},{"id":"216384","name":"鹦鹉螺","lat":6.5435,"lng":134.5463,"wt":"surprise"},{"id":"216384","name":"Nautilus pompilius","lat":6.5435,"lng":134.5463,"wt":"surprise"},{"id":"217438","name":"腔棘鱼","lat":-12.17,"lng":44.27,"wt":"surprise"},{"id":"217438","name":"Latimeria chalumnae","lat":-12.17,"lng":44.27,"wt":"surprise"},{"id":"287206","name":"太平洋海荨麻","lat":36.9007,"lng":-122.3465,"wt":"surprise"},{"id":"287206","name":"Chrysaora fuscescens","lat":36.9007,"lng":-122.3465,"wt":"surprise"},{"id":"151801","name":"灯塔水母","lat":40.85,"lng":14.27,"wt":"surprise"},{"id":"151801","name":"Turritopsis dohrnii","lat":40.85,"lng":14.27,"wt":"surprise"},{"id":"220297","name":"雀尾螳螂虾","lat":1.3078,"lng":125.4345,"wt":"surprise"},{"id":"220297","name":"Odontodactylus scyllarus","lat":1.3078,"lng":125.4345,"wt":"surprise"},{"id":"217850","name":"斑纹躄鱼","lat":0.6813,"lng":125.2808,"wt":"surprise"},{"id":"217850","name":"Antennarius maculatus","lat":0.6813,"lng":125.2808,"wt":"surprise"},{"id":"218087","name":"前鳍吻鲉","lat":1.6978,"lng":125.5394,"wt":"surprise"},{"id":"218087","name":"Rhinopias frondosa","lat":1.6978,"lng":125.5394,"wt":"surprise"},{"id":"215627","name":"玫瑰毒鲉","lat":1.9762,"lng":125.845,"wt":"surprise"},{"id":"215627","name":"Synanceia verrucosa","lat":1.9762,"lng":125.845,"wt":"surprise"},{"id":"217422","name":"蓝点魟","lat":27.1728,"lng":32.9812,"wt":"surprise"},{"id":"217422","name":"Taeniura lymma","lat":27.1728,"lng":32.9812,"wt":"surprise"},{"id":"276442","name":"黄头颚鱼","lat":16.1417,"lng":-86.3089,"wt":"surprise"},{"id":"276442","name":"Opistognathus aurifrons","lat":16.1417,"lng":-86.3089,"wt":"surprise"},{"id":"206503","name":"树珊瑚","lat":27.4458,"lng":33.6655,"wt":"surprise"},{"id":"206503","name":"Dendronephthya","lat":27.4458,"lng":33.6655,"wt":"surprise"},{"id":"137250","name":"火体虫","lat":36.1855,"lng":-121.701,"wt":"surprise"},{"id":"137250","name":"Pyrosoma atlanticum","lat":36.1855,"lng":-121.701,"wt":"surprise"},{"id":"280873","name":"颗粒犁头鳐","lat":24.6078,"lng":54.6792,"wt":"surprise"},{"id":"280873","name":"Glaucostegus granulatus","lat":24.6078,"lng":54.6792,"wt":"surprise"},{"id":"282352","name":"须锯鲨","lat":-38.4438,"lng":145.0676,"wt":"surprise"},{"id":"282352","name":"Pristiophorus cirratus","lat":-38.4438,"lng":145.0676,"wt":"surprise"},{"id":"126534","name":"约旦氏角鮟鱇","lat":36.5145,"lng":-122.2669,"wt":"surprise"},{"id":"126534","name":"Caulophryne jordani","lat":36.5145,"lng":-122.2669,"wt":"surprise"},{"id":"159181","name":"树状线鮟鱇","lat":50.9179,"lng":-0.8885,"wt":"surprise"},{"id":"159181","name":"Linophryne arborifera","lat":50.9179,"lng":-0.8885,"wt":"surprise"},{"id":"105824","name":"欧洲银鲛","lat":60.8564,"lng":6.4889,"wt":"surprise"},{"id":"105824","name":"Chimaera monstrosa","lat":60.8564,"lng":6.4889,"wt":"surprise"},{"id":"220063","name":"尖嘴单角鲀","lat":-18.5986,"lng":147.7292,"wt":"surprise"},{"id":"220063","name":"Oxymonacanthus longirostris","lat":-18.5986,"lng":147.7292,"wt":"surprise"},{"id":"218760","name":"黄镊口鱼","lat":19.6539,"lng":-156.3186,"wt":"surprise"},{"id":"218760","name":"Forcipiger flavissimus","lat":19.6539,"lng":-156.3186,"wt":"surprise"},{"id":"213527","name":"紫翼海蛞蝓","lat":1.556,"lng":124.6649,"wt":"surprise"},{"id":"213527","name":"Pteraeolidia ianthina","lat":1.556,"lng":124.6649,"wt":"surprise"},{"id":"421713","name":"尤卡坦岩虾","lat":20.8665,"lng":-87.179,"wt":"surprise"},{"id":"421713","name":"Periclimenes yucatanicus","lat":20.8665,"lng":-87.179,"wt":"surprise"},{"id":"107534","name":"安波虾","lat":1.8546,"lng":125.0517,"wt":"surprise"},{"id":"107534","name":"Thor amboinensis","lat":1.8546,"lng":125.0517,"wt":"surprise"},{"id":"514833","name":"美丽鼓虾","lat":1.4437,"lng":124.9729,"wt":"surprise"},{"id":"514833","name":"Alpheus bellulus","lat":1.4437,"lng":124.9729,"wt":"surprise"},{"id":"278326","name":"黄鳍虾虎鱼","lat":0.9144,"lng":125.725,"wt":"surprise"},{"id":"278326","name":"Cryptocentrus cinctus","lat":0.9144,"lng":125.725,"wt":"surprise"},{"id":"278394","name":"白条双锯鱼","lat":13.3178,"lng":120.812,"wt":"surprise"},{"id":"278394","name":"Amphiprion frenatus","lat":13.3178,"lng":120.812,"wt":"surprise"},{"id":"217976","name":"美丽剃刀鱼","lat":1.339,"lng":124.539,"wt":"surprise"},{"id":"217976","name":"Solenostomus paradoxus","lat":1.339,"lng":124.539,"wt":"surprise"},{"id":"218163","name":"飞海蛾鱼","lat":2.1628,"lng":125.267,"wt":"surprise"},{"id":"218163","name":"Pegasus volitans","lat":2.1628,"lng":125.267,"wt":"surprise"},{"id":"259252","name":"大王具足虫","lat":35.4586,"lng":139.5061,"wt":"surprise"},{"id":"259252","name":"Bathynomus giganteus","lat":35.4586,"lng":139.5061,"wt":"surprise"},{"id":"341442","name":"大鳍鱿鱼","lat":36.0608,"lng":-122.0301,"wt":"surprise"},{"id":"341442","name":"Magnapinna","lat":36.0608,"lng":-122.0301,"wt":"surprise"},{"id":"105851","name":"普通魟","lat":28.0286,"lng":-15.8063,"wt":"surprise"},{"id":"105851","name":"Dasyatis pastinaca","lat":28.0286,"lng":-15.8063,"wt":"surprise"},{"id":"271684","name":"大理石电鳐","lat":37.3739,"lng":-26.2083,"wt":"surprise"},{"id":"271684","name":"Torpedo marmorata","lat":37.3739,"lng":-26.2083,"wt":"surprise"},{"id":"217925","name":"赤鳍锯鳞鱼","lat":26.5019,"lng":33.847,"wt":"surprise"},{"id":"217925","name":"Myripristis murdjan","lat":26.5019,"lng":33.847,"wt":"surprise"},{"id":"204396","name":"脉冲珊瑚","lat":26.9445,"lng":33.1331,"wt":"surprise"},{"id":"204396","name":"Xenia","lat":26.9445,"lng":33.1331,"wt":"surprise"},{"id":"137214","name":"樽海鞘","lat":36.5633,"lng":-121.7949,"wt":"surprise"},{"id":"137214","name":"Salpida","lat":36.5633,"lng":-121.7949,"wt":"surprise"},{"id":"276694","name":"加州异齿鲨","lat":32.6947,"lng":-117.5788,"wt":"surprise"},{"id":"276694","name":"Heterodontus francisci","lat":32.6947,"lng":-117.5788,"wt":"surprise"},{"id":"None","name":"神仙鱼","lat":-1.3596,"lng":-61.9826,"wt":"surprise"},{"id":"None","name":"Pterophyllum scalare","lat":-1.3596,"lng":-61.9826,"wt":"surprise"},{"id":"None","name":"贝加尔湖油鱼","lat":53.5,"lng":108.0,"wt":"surprise"},{"id":"None","name":"Comephorus baicalensis","lat":53.5,"lng":108.0,"wt":"surprise"},{"id":"219964","name":"网纹刺鲀","lat":12.3857,"lng":-67.5828,"wt":"surprise"},{"id":"219964","name":"Chilomycterus reticulatus","lat":12.3857,"lng":-67.5828,"wt":"surprise"},{"id":"275193","name":"丹尼斯豆丁海马","lat":-0.9998,"lng":131.0298,"wt":"surprise"},{"id":"275193","name":"Hippocampus denise","lat":-0.9998,"lng":131.0298,"wt":"surprise"},{"id":"137087","name":"小须鲸","lat":65.9588,"lng":-16.1041,"wt":"star"},{"id":"137087","name":"Balaenoptera acutorostrata","lat":65.9588,"lng":-16.1041,"wt":"star"},{"id":"105801","name":"大青鲨","lat":37.5506,"lng":-25.0539,"wt":"star"},{"id":"105801","name":"Prionace glauca","lat":37.5506,"lng":-25.0539,"wt":"star"},{"id":"105842","name":"欧氏剑吻鲨","lat":36.5532,"lng":-122.4967,"wt":"star"},{"id":"105842","name":"Mitsukurina owstoni","lat":36.5532,"lng":-122.4967,"wt":"star"},{"id":"218758","name":"长吻蝴蝶鱼","lat":-17.6099,"lng":148.1302,"wt":"ecosystem"},{"id":"218758","name":"Chelmon rostratus","lat":-17.6099,"lng":148.1302,"wt":"ecosystem"},{"id":"219611","name":"华丽线塘鳢","lat":3.2152,"lng":73.0033,"wt":"ecosystem"},{"id":"219611","name":"Nemateleotris magnifica","lat":3.2152,"lng":73.0033,"wt":"ecosystem"},{"id":"105831","name":"皱鳃鲨","lat":34.7666,"lng":138.8868,"wt":"surprise"},{"id":"105831","name":"Chlamydoselachus anguineus","lat":34.7666,"lng":138.8868,"wt":"surprise"},{"id":"126522","name":"斑点月鱼","lat":20.0,"lng":-157.0,"wt":"surprise"},{"id":"126522","name":"Lampris guttatus","lat":20.0,"lng":-157.0,"wt":"surprise"},{"id":"103272","name":"冥虫","lat":36.271,"lng":-122.3833,"wt":"surprise"},{"id":"103272","name":"Phronima sedentaria","lat":36.271,"lng":-122.3833,"wt":"surprise"},{"id":"141548","name":"旋壳乌贼","lat":28.2038,"lng":-15.4427,"wt":"surprise"},{"id":"141548","name":"Spirula spirula","lat":28.2038,"lng":-15.4427,"wt":"surprise"},{"id":"218710","name":"尖翅燕鱼","lat":2.5533,"lng":72.9712,"wt":"surprise"},{"id":"218710","name":"Platax teira","lat":2.5533,"lng":72.9712,"wt":"surprise"},{"id":"218765","name":"马夫鱼","lat":26.4503,"lng":33.575,"wt":"surprise"},{"id":"218765","name":"Heniochus acuminatus","lat":26.4503,"lng":33.575,"wt":"surprise"},{"id":"127232","name":"飞角鱼","lat":12.3231,"lng":-67.9119,"wt":"surprise"},{"id":"127232","name":"Dactylopterus volitans","lat":12.3231,"lng":-67.9119,"wt":"surprise"},{"id":"138074","name":"草莓鱿鱼","lat":36.5096,"lng":-122.7141,"wt":"surprise"},{"id":"138074","name":"Histioteuthis","lat":36.5096,"lng":-122.7141,"wt":"surprise"},{"id":"289826","name":"迷宫脑珊瑚","lat":-18.1094,"lng":147.2392,"wt":"ecosystem"},{"id":"289826","name":"Diploria labyrinthiformis","lat":-18.1094,"lng":147.2392,"wt":"ecosystem"},{"id":"207350","name":"蘑菇珊瑚","lat":-0.944,"lng":130.4851,"wt":"surprise"},{"id":"207350","name":"Fungia fungites","lat":-0.944,"lng":130.4851,"wt":"surprise"},{"id":"290045","name":"紫海扇","lat":19.929,"lng":-86.5698,"wt":"ecosystem"},{"id":"290045","name":"Gorgonia ventalina","lat":19.929,"lng":-86.5698,"wt":"ecosystem"},{"id":"210726","name":"火珊瑚","lat":20.0257,"lng":-87.0062,"wt":"surprise"},{"id":"210726","name":"Millepora alcicornis","lat":20.0257,"lng":-87.0062,"wt":"surprise"},{"id":"207498","name":"气泡珊瑚","lat":-0.5037,"lng":130.3633,"wt":"surprise"},{"id":"207498","name":"Plerogyra sinuosa","lat":-0.5037,"lng":130.3633,"wt":"surprise"},{"id":"207409","name":"管风琴珊瑚","lat":-18.3094,"lng":147.4576,"wt":"surprise"},{"id":"207409","name":"Tubipora musica","lat":-18.3094,"lng":147.4576,"wt":"surprise"},{"id":"210725","name":"蓝珊瑚","lat":6.7446,"lng":134.1234,"wt":"ecosystem"},{"id":"210725","name":"Heliopora coerulea","lat":6.7446,"lng":134.1234,"wt":"ecosystem"},{"id":"103309","name":"黑珊瑚","lat":19.5667,"lng":-155.2956,"wt":"ecosystem"},{"id":"103309","name":"Antipathes dichotoma","lat":19.5667,"lng":-155.2956,"wt":"ecosystem"},{"id":"125416","name":"红珊瑚","lat":39.23,"lng":9.12,"wt":"surprise"},{"id":"125416","name":"Corallium rubrum","lat":39.23,"lng":9.12,"wt":"surprise"},{"id":"288227","name":"鹿角珊瑚","lat":17.6352,"lng":-87.7474,"wt":"star"},{"id":"288227","name":"Acropora palmata","lat":17.6352,"lng":-87.7474,"wt":"star"},{"id":"205483","name":"皮革珊瑚","lat":-18.1334,"lng":146.9727,"wt":"ecosystem"},{"id":"205483","name":"Sarcophyton","lat":-18.1334,"lng":146.9727,"wt":"ecosystem"},{"id":"205476","name":"花形珊瑚","lat":-1.021,"lng":130.2683,"wt":"surprise"},{"id":"205476","name":"Goniopora","lat":-1.021,"lng":130.2683,"wt":"surprise"},{"id":"207392","name":"叶片脑珊瑚","lat":-18.7013,"lng":147.8927,"wt":"ecosystem"},{"id":"207392","name":"Lobophyllia hemprichii","lat":-18.7013,"lng":147.8927,"wt":"ecosystem"},{"id":"207507","name":"叶片珊瑚","lat":-1.3009,"lng":129.9581,"wt":"surprise"},{"id":"207507","name":"Turbinaria reniformis","lat":-1.3009,"lng":129.9581,"wt":"surprise"},{"id":"9000001","name":"鹿角珊瑚","lat":17.5,"lng":-87.8,"wt":"ecosystem"},{"id":"9000001","name":"Acropora cervicornis","lat":17.5,"lng":-87.8,"wt":"ecosystem"},{"id":"9000002","name":"脑珊瑚","lat":17.5,"lng":-87.8,"wt":"ecosystem"},{"id":"9000002","name":"Diploria labyrinthiformis","lat":17.5,"lng":-87.8,"wt":"ecosystem"},{"id":"9000003","name":"桌形珊瑚","lat":-0.5,"lng":130.5,"wt":"ecosystem"},{"id":"9000003","name":"Acropora hyacinthus","lat":-0.5,"lng":130.5,"wt":"ecosystem"},{"id":"9000004","name":"鹿角珊瑚","lat":17.5,"lng":-87.8,"wt":"ecosystem"},{"id":"9000004","name":"Acropora palmata","lat":17.5,"lng":-87.8,"wt":"ecosystem"},{"id":"9000005","name":"扇珊瑚","lat":17.5,"lng":-87.8,"wt":"ecosystem"},{"id":"9000005","name":"Gorgonia ventalina","lat":17.5,"lng":-87.8,"wt":"ecosystem"},{"id":"9000006","name":"火珊瑚","lat":17.5,"lng":-87.8,"wt":"ecosystem"},{"id":"9000006","name":"Millepora alcicornis","lat":17.5,"lng":-87.8,"wt":"ecosystem"},{"id":"9000007","name":"柱珊瑚","lat":17.5,"lng":-87.8,"wt":"ecosystem"},{"id":"9000007","name":"Dendrogyra cylindrus","lat":17.5,"lng":-87.8,"wt":"ecosystem"},{"id":"9000008","name":"蘑菇珊瑚","lat":-0.5,"lng":130.5,"wt":"ecosystem"},{"id":"9000008","name":"Fungia fungites","lat":-0.5,"lng":130.5,"wt":"ecosystem"},{"id":"9000009","name":"星珊瑚","lat":17.5,"lng":-87.8,"wt":"ecosystem"},{"id":"9000009","name":"Orbicella faveolata","lat":17.5,"lng":-87.8,"wt":"ecosystem"},{"id":"9000010","name":"公主海葵","lat":-0.5,"lng":130.5,"wt":"ecosystem"},{"id":"9000010","name":"Heteractis magnifica","lat":-0.5,"lng":130.5,"wt":"ecosystem"},{"id":"9000011","name":"奶嘴海葵","lat":27.7,"lng":34.3,"wt":"ecosystem"},{"id":"9000011","name":"Entacmaea quadricolor","lat":27.7,"lng":34.3,"wt":"ecosystem"},{"id":"9000012","name":"桶状海绵","lat":17.5,"lng":-87.8,"wt":"ecosystem"},{"id":"9000012","name":"Xestospongia testudinaria","lat":17.5,"lng":-87.8,"wt":"ecosystem"},{"id":"9000013","name":"管状海绵","lat":17.5,"lng":-87.8,"wt":"ecosystem"},{"id":"9000013","name":"Aplysina fistularis","lat":17.5,"lng":-87.8,"wt":"ecosystem"},{"id":"9000014","name":"扇形柳珊瑚","lat":17.5,"lng":-87.8,"wt":"ecosystem"},{"id":"9000014","name":"Gorgonia flabellum","lat":17.5,"lng":-87.8,"wt":"ecosystem"}]