{"zoom": 7, "x": 28, "y": 49, "points": [{"lat": 38.7889, "lng": -100.1694, "id": "366440", "name": "Ankylosauria", "era": "Cretaceous", "type": "Ornithischian", "early_age": 89.8, "late_age": 85.7, "country": "US"}, {"lat": 38.748, "lng": -100.2141, "id": "487783", "name": "Niobrarasaurus coleii", "era": "Cretaceous", "type": "Ornithischian", "early_age": 89.8, "late_age": 85.7, "country": "US"}, {"lat": 38.68, "lng": -100.2799, "id": "487789", "name": "Niobrarasaurus coleii", "era": "Cretaceous", "type": "Ornithischian", "early_age": 85.7, "late_age": 83.6, "country": "US"}, {"lat": 36.8282, "lng": -100.6221, "id": "515157", "name": "Caririchnium", "era": "Cretaceous", "type": "Ornithischian", "early_age": 113.2, "late_age": 100.5, "country": "US"}, {"lat": 38.7161, "lng": -100.176, "id": "624160", "name": "Hadrosauridae", "era": "Cretaceous", "type": "Ornithischian", "early_age": 89.8, "late_age": 85.7, "country": "US"}, {"lat": 38.75, "lng": -101.05, "id": "788957", "name": "Baptornis advenus", "era": "Cretaceous", "type": "Theropod", "early_age": 89.8, "late_age": 83.6, "country": "US"}, {"lat": 38.7833, "lng": -100.9333, "id": "788996", "name": "Apatornis celer", "era": "Cretaceous", "type": "Theropod", "early_age": 89.8, "late_age": 83.6, "country": "US"}, {"lat": 37.3159, "lng": -99.8125, "id": "883959", "name": "Theropoda", "era": "Cretaceous", "type": "Theropod", "early_age": 113.2, "late_age": 100.5, "country": "US"}, {"lat": 38.748, "lng": -100.2141, "id": "1069568", "name": "Parahesperornis alexi", "era": "Cretaceous", "type": "Theropod", "early_age": 89.8, "late_age": 83.6, "country": "US"}, {"lat": 37.2, "lng": -100.3, "id": "1199270", "name": "Agriocharis progenes", "era": "Cretaceous", "type": "Theropod", "early_age": 4.7, "late_age": 1.4, "country": "US"}, {"lat": 38.7667, "lng": -100.7667, "id": "1630993", "name": "Ichthyornis dispar", "era": "Cretaceous", "type": "Theropod", "early_age": 85.7, "late_age": 83.6, "country": "US"}, {"lat": 38.4667, "lng": -100.4667, "id": "1630999", "name": "Ichthyornis dispar", "era": "Cretaceous", "type": "Theropod", "early_age": 85.7, "late_age": 83.6, "country": "US"}, {"lat": 38.4703, "lng": -100.4761, "id": "1631000", "name": "Ichthyornis dispar", "era": "Cretaceous", "type": "Theropod", "early_age": 85.7, "late_age": 83.6, "country": "US"}, {"lat": 38.79, "lng": -100.76, "id": "1705252", "name": "Hesperornithiformes", "era": "Cretaceous", "type": "Theropod", "early_age": 85.7, "late_age": 83.6, "country": "US"}]}