{"zoom": 7, "x": 29, "y": 57, "points": [{"lat": 17.7539, "lng": -97.8032, "id": "382134", "name": "Coelurosauria", "era": "Jurassic", "type": "Theropod", "early_age": 170.9, "late_age": 165.3, "country": "MX"}, {"lat": 17.7539, "lng": -97.8032, "id": "382135", "name": "Sauropoda", "era": "Jurassic", "type": "Theropod", "early_age": 170.9, "late_age": 165.3, "country": "MX"}, {"lat": 17.7539, "lng": -97.8032, "id": "534094", "name": "Ankylopollexia", "era": "Jurassic", "type": "Ornithischian", "early_age": 170.9, "late_age": 165.3, "country": "MX"}, {"lat": 17.7539, "lng": -97.8032, "id": "534095", "name": "Allosauridae", "era": "Jurassic", "type": "Theropod", "early_age": 170.9, "late_age": 165.3, "country": "MX"}, {"lat": 17.7198, "lng": -97.861, "id": "792154", "name": "Dinosauria", "era": "Cretaceous", "type": "Marine Reptile", "early_age": 143.1, "late_age": 137.0, "country": "MX"}, {"lat": 18.401, "lng": -97.908, "id": "1130817", "name": "Eusauropoda", "era": "Jurassic", "type": "Theropod", "early_age": 168.2, "late_age": 161.5, "country": "MX"}, {"lat": 18.4001, "lng": -97.7421, "id": "1130850", "name": "Allosauroidea", "era": "Cretaceous", "type": "Theropod", "early_age": 121.4, "late_age": 113.2, "country": "MX"}, {"lat": 18.4001, "lng": -97.7421, "id": "1130852", "name": "Iguanodontidae", "era": "Cretaceous", "type": "Ornithischian", "early_age": 121.4, "late_age": 113.2, "country": "MX"}, {"lat": 18.3508, "lng": -97.8784, "id": "1359974", "name": "Sauropoda", "era": "Jurassic", "type": "Theropod", "early_age": 174.7, "late_age": 143.1, "country": "MX"}, {"lat": 18.3508, "lng": -97.8784, "id": "1359975", "name": "Dinosauria", "era": "Jurassic", "type": "Marine Reptile", "early_age": 174.7, "late_age": 143.1, "country": "MX"}, {"lat": 17.324, "lng": -97.7184, "id": "1585945", "name": "Tetrapodosaurus", "era": "Jurassic", "type": "Ornithischian", "early_age": 170.9, "late_age": 168.2, "country": "MX"}, {"lat": 17.324, "lng": -97.7184, "id": "1585947", "name": "Theropoda", "era": "Jurassic", "type": "Theropod", "early_age": 170.9, "late_age": 168.2, "country": "MX"}, {"lat": 17.324, "lng": -97.7184, "id": "1585948", "name": "Sauropoda", "era": "Jurassic", "type": "Theropod", "early_age": 170.9, "late_age": 168.2, "country": "MX"}, {"lat": 18.4001, "lng": -97.7421, "id": "1600996", "name": "Theropoda", "era": "Cretaceous", "type": "Theropod", "early_age": 121.4, "late_age": 113.2, "country": "MX"}, {"lat": 18.4001, "lng": -97.7421, "id": "1600997", "name": "Ornithopoda", "era": "Cretaceous", "type": "Ornithischian", "early_age": 121.4, "late_age": 113.2, "country": "MX"}, {"lat": 18.4001, "lng": -97.7421, "id": "1600998", "name": "Sauropoda", "era": "Cretaceous", "type": "Theropod", "early_age": 121.4, "late_age": 113.2, "country": "MX"}, {"lat": 18.4001, "lng": -97.7421, "id": "1600999", "name": "Sauropoda", "era": "Cretaceous", "type": "Theropod", "early_age": 121.4, "late_age": 113.2, "country": "MX"}, {"lat": 18.4001, "lng": -97.7421, "id": "1601000", "name": "Sauropoda", "era": "Cretaceous", "type": "Theropod", "early_age": 121.4, "late_age": 113.2, "country": "MX"}, {"lat": 18.4001, "lng": -97.7421, "id": "1601001", "name": "Ornithopoda", "era": "Cretaceous", "type": "Ornithischian", "early_age": 121.4, "late_age": 113.2, "country": "MX"}, {"lat": 18.4001, "lng": -97.7421, "id": "1601002", "name": "Sauropoda", "era": "Cretaceous", "type": "Theropod", "early_age": 121.4, "late_age": 113.2, "country": "MX"}, {"lat": 18.3167, "lng": -97.625, "id": "1601061", "name": "Theropoda", "era": "Cretaceous", "type": "Theropod", "early_age": 121.4, "late_age": 113.2, "country": "MX"}, {"lat": 18.3167, "lng": -97.625, "id": "1601062", "name": "Sauropoda", "era": "Cretaceous", "type": "Theropod", "early_age": 121.4, "late_age": 113.2, "country": "MX"}, {"lat": 18.2833, "lng": -97.8, "id": "1629053", "name": "Callipepla", "era": "Cretaceous", "type": "Theropod", "early_age": 0.2, "late_age": 0.0, "country": "MX"}]}