{"zoom": 7, "x": 39, "y": 82, "points": [{"lat": -45.3167, "lng": -69.6167, "id": "405527", "name": "Epachthosaurus sciuttoi", "era": "Cretaceous", "type": "Theropod", "early_age": 100.5, "late_age": 89.8, "country": "AR"}, {"lat": -45.6204, "lng": -68.5879, "id": "465788", "name": "Notoceratops bonarelli", "era": "Cretaceous", "type": "Ornithischian", "early_age": 72.2, "late_age": 66.0, "country": "AR"}, {"lat": -45.3167, "lng": -69.6167, "id": "488653", "name": "Xenotarsosaurus bonapartei", "era": "Cretaceous", "type": "Theropod", "early_age": 100.5, "late_age": 89.8, "country": "AR"}, {"lat": -45.3167, "lng": -69.6167, "id": "488658", "name": "Abelisauridae", "era": "Cretaceous", "type": "Theropod", "early_age": 100.5, "late_age": 89.8, "country": "AR"}, {"lat": -45.45, "lng": -69.2167, "id": "508502", "name": "Argyrosaurus superbus", "era": "Cretaceous", "type": "Theropod", "early_age": 83.6, "late_age": 66.0, "country": "AR"}, {"lat": -45.45, "lng": -69.2167, "id": "508503", "name": "Titanosauridae", "era": "Cretaceous", "type": "Theropod", "early_age": 100.5, "late_age": 89.8, "country": "AR"}, {"lat": -45.972, "lng": -69.4285, "id": "508504", "name": "Elaltitan lilloi", "era": "Cretaceous", "type": "Theropod", "early_age": 89.8, "late_age": 85.7, "country": "AR"}, {"lat": -45.972, "lng": -69.4285, "id": "508505", "name": "Carnosauria", "era": "Cretaceous", "type": "Theropod", "early_age": 89.8, "late_age": 85.7, "country": "AR"}, {"lat": -45.5234, "lng": -69.6956, "id": "508506", "name": "Sauropoda", "era": "Cretaceous", "type": "Theropod", "early_age": 100.5, "late_age": 89.8, "country": "AR"}, {"lat": -45.603, "lng": -69.703, "id": "513601", "name": "Titanosauria", "era": "Cretaceous", "type": "Theropod", "early_age": 100.5, "late_age": 72.2, "country": "AR"}, {"lat": -45.9906, "lng": -69.5716, "id": "513602", "name": "Titanosauriformes", "era": "Cretaceous", "type": "Theropod", "early_age": 100.5, "late_age": 89.8, "country": "AR"}, {"lat": -45.5978, "lng": -68.6222, "id": "519937", "name": "Aeolosaurus colhuehuapensis", "era": "Cretaceous", "type": "Theropod", "early_age": 83.6, "late_age": 66.0, "country": "AR"}, {"lat": -45.5978, "lng": -68.6222, "id": "519938", "name": "Sektensaurus sanjuanboscoi", "era": "Cretaceous", "type": "Ornithischian", "early_age": 83.6, "late_age": 66.0, "country": "AR"}, {"lat": -45.6197, "lng": -68.5097, "id": "561811", "name": "Secernosaurus koerneri", "era": "Cretaceous", "type": "Ornithischian", "early_age": 72.2, "late_age": 66.0, "country": "AR"}, {"lat": -45.3167, "lng": -69.6167, "id": "795304", "name": "Sauropoda", "era": "Cretaceous", "type": "Theropod", "early_age": 100.5, "late_age": 89.8, "country": "AR"}, {"lat": -45.5978, "lng": -68.6222, "id": "899539", "name": "Sektensaurus sanjuanboscoi", "era": "Cretaceous", "type": "Ornithischian", "early_age": 83.6, "late_age": 66.0, "country": "AR"}, {"lat": -46.7181, "lng": -69.6653, "id": "941813", "name": "Drusilasaura deseadensis", "era": "Cretaceous", "type": "Theropod", "early_age": 100.5, "late_age": 89.8, "country": "AR"}, {"lat": -45.2936, "lng": -69.5914, "id": "973062", "name": "Epachthosaurus", "era": "Cretaceous", "type": "Theropod", "early_age": 100.5, "late_age": 89.8, "country": "AR"}, {"lat": -45.3167, "lng": -69.6167, "id": "973069", "name": "Epachthosaurus sciuttoi", "era": "Cretaceous", "type": "Theropod", "early_age": 100.5, "late_age": 89.8, "country": "AR"}, {"lat": -45.2936, "lng": -69.5914, "id": "1010384", "name": "Rebbachisauridae", "era": "Cretaceous", "type": "Theropod", "early_age": 100.5, "late_age": 89.8, "country": "AR"}, {"lat": -45.9611, "lng": -67.5729, "id": "1377836", "name": "Dinosauria", "era": "Cretaceous", "type": "Marine Reptile", "early_age": 100.5, "late_age": 72.2, "country": "AR"}, {"lat": -45.9611, "lng": -67.5729, "id": "1377837", "name": "Saurischia", "era": "Cretaceous", "type": "Theropod", "early_age": 100.5, "late_age": 72.2, "country": "AR"}, {"lat": -45.4403, "lng": -68.7456, "id": "1418112", "name": "Megaraptoridae", "era": "Cretaceous", "type": "Theropod", "early_age": 83.6, "late_age": 66.0, "country": "AR"}, {"lat": -45.6567, "lng": -68.4228, "id": "1472797", "name": "Hadrosauridae", "era": "Cretaceous", "type": "Ornithischian", "early_age": 72.2, "late_age": 66.0, "country": "AR"}, {"lat": -45.3953, "lng": -68.6597, "id": "1472800", "name": "Abelisauroidea", "era": "Cretaceous", "type": "Theropod", "early_age": 85.7, "late_age": 66.0, "country": "AR"}, {"lat": -45.3953, "lng": -68.6597, "id": "1472801", "name": "Theropoda", "era": "Cretaceous", "type": "Theropod", "early_age": 85.7, "late_age": 66.0, "country": "AR"}, {"lat": -45.6197, "lng": -68.5097, "id": "1555689", "name": "Lithostrotia", "era": "Cretaceous", "type": "Theropod", "early_age": 83.6, "late_age": 66.0, "country": "AR"}, {"lat": -45.315, "lng": -69.595, "id": "1555728", "name": "Rebbachisauridae", "era": "Cretaceous", "type": "Theropod", "early_age": 89.8, "late_age": 85.7, "country": "AR"}, {"lat": -45.6208, "lng": -68.4789, "id": "1559927", "name": "Hadrosauridae", "era": "Cretaceous", "type": "Ornithischian", "early_age": 72.2, "late_age": 66.0, "country": "AR"}, {"lat": -45.6208, "lng": -68.4789, "id": "1559928", "name": "Theropoda", "era": "Cretaceous", "type": "Theropod", "early_age": 72.2, "late_age": 66.0, "country": "AR"}, {"lat": -45.2936, "lng": -69.5914, "id": "1576225", "name": "Titanosauria", "era": "Cretaceous", "type": "Theropod", "early_age": 100.5, "late_age": 89.8, "country": "AR"}, {"lat": -45.9906, "lng": -69.5716, "id": "1581468", "name": "Megaraptora", "era": "Cretaceous", "type": "Theropod", "early_age": 100.5, "late_age": 89.8, "country": "AR"}, {"lat": -45.5978, "lng": -68.6222, "id": "1628235", "name": "Lithostrotia", "era": "Cretaceous", "type": "Theropod", "early_age": 83.6, "late_age": 66.0, "country": "AR"}, {"lat": -45.2936, "lng": -69.5914, "id": "1639706", "name": "Abelisauridae", "era": "Cretaceous", "type": "Theropod", "early_age": 100.5, "late_age": 89.8, "country": "AR"}, {"lat": -45.6167, "lng": -68.4333, "id": "1648591", "name": "Hadrosauridae", "era": "Cretaceous", "type": "Ornithischian", "early_age": 72.2, "late_age": 66.0, "country": "AR"}, {"lat": -45.5978, "lng": -68.6222, "id": "1697992", "name": "Megaraptoridae", "era": "Cretaceous", "type": "Theropod", "early_age": 83.6, "late_age": 66.0, "country": "AR"}, {"lat": -45.6217, "lng": -68.4425, "id": "2037715", "name": "Joaquinraptor casali", "era": "Cretaceous", "type": "Theropod", "early_age": 72.2, "late_age": 66.0, "country": "AR"}]}