{"zoom": 7, "x": 45, "y": 72, "points": [{"lat": -21.9442, "lng": -51.3731, "id": "513418", "name": "Gondwanatitan faustoi", "era": "Cretaceous", "type": "Theropod", "early_age": 83.6, "late_age": 66.0, "country": "BR"}, {"lat": -22.1178, "lng": -51.4425, "id": "536069", "name": "Brasilotitan nemophagus", "era": "Cretaceous", "type": "Theropod", "early_age": 83.6, "late_age": 66.0, "country": "BR"}, {"lat": -21.9442, "lng": -51.3731, "id": "544648", "name": "Theropoda", "era": "Cretaceous", "type": "Theropod", "early_age": 83.6, "late_age": 66.0, "country": "BR"}, {"lat": -21.9442, "lng": -51.3731, "id": "544649", "name": "Theropoda", "era": "Cretaceous", "type": "Theropod", "early_age": 83.6, "late_age": 66.0, "country": "BR"}, {"lat": -21.9442, "lng": -51.3731, "id": "544651", "name": "Titanosauridae", "era": "Cretaceous", "type": "Theropod", "early_age": 83.6, "late_age": 66.0, "country": "BR"}, {"lat": -21.9442, "lng": -51.3731, "id": "544652", "name": "Theropoda", "era": "Cretaceous", "type": "Theropod", "early_age": 83.6, "late_age": 66.0, "country": "BR"}, {"lat": -21.9442, "lng": -51.3731, "id": "544653", "name": "Abelisauridae", "era": "Cretaceous", "type": "Theropod", "early_age": 83.6, "late_age": 66.0, "country": "BR"}, {"lat": -21.9442, "lng": -51.3731, "id": "544654", "name": "Abelisauridae", "era": "Cretaceous", "type": "Theropod", "early_age": 83.6, "late_age": 66.0, "country": "BR"}, {"lat": -22.05, "lng": -51.55, "id": "602412", "name": "Carnosauria", "era": "Cretaceous", "type": "Theropod", "early_age": 83.6, "late_age": 66.0, "country": "BR"}, {"lat": -22.05, "lng": -51.55, "id": "602414", "name": "Coelurosauria", "era": "Cretaceous", "type": "Theropod", "early_age": 83.6, "late_age": 66.0, "country": "BR"}, {"lat": -22.05, "lng": -51.55, "id": "602415", "name": "Brasileosaurus pachecoi", "era": "Cretaceous", "type": "Theropod", "early_age": 83.6, "late_age": 66.0, "country": "BR"}, {"lat": -21.9442, "lng": -51.3731, "id": "775800", "name": "Abelisauridae", "era": "Cretaceous", "type": "Theropod", "early_age": 83.6, "late_age": 66.0, "country": "BR"}, {"lat": -21.9442, "lng": -51.3731, "id": "775801", "name": "Titanosauridae", "era": "Cretaceous", "type": "Theropod", "early_age": 83.6, "late_age": 66.0, "country": "BR"}, {"lat": -21.9442, "lng": -51.3731, "id": "775803", "name": "Carnosauria", "era": "Cretaceous", "type": "Theropod", "early_age": 83.6, "late_age": 66.0, "country": "BR"}, {"lat": -21.9442, "lng": -51.3731, "id": "775804", "name": "Dromaeosauridae", "era": "Cretaceous", "type": "Theropod", "early_age": 83.6, "late_age": 66.0, "country": "BR"}, {"lat": -23.6772, "lng": -52.5583, "id": "792141", "name": "Carnosauria", "era": "Cretaceous", "type": "Theropod", "early_age": 100.5, "late_age": 66.0, "country": "BR"}, {"lat": -23.6772, "lng": -52.5583, "id": "792142", "name": "Coelurosauria", "era": "Cretaceous", "type": "Theropod", "early_age": 100.5, "late_age": 66.0, "country": "BR"}, {"lat": -23.0667, "lng": -52.65, "id": "792145", "name": "Coelurosauria", "era": "Cretaceous", "type": "Theropod", "early_age": 100.5, "late_age": 66.0, "country": "BR"}, {"lat": -22.4825, "lng": -52.9581, "id": "898229", "name": "Theropoda", "era": "Cretaceous", "type": "Theropod", "early_age": 89.8, "late_age": 66.0, "country": "BR"}, {"lat": -21.9442, "lng": -51.3731, "id": "1106703", "name": "Coelurosauria", "era": "Cretaceous", "type": "Theropod", "early_age": 83.6, "late_age": 66.0, "country": "BR"}, {"lat": -21.9442, "lng": -51.3731, "id": "1106704", "name": "Carcharodontosauridae", "era": "Cretaceous", "type": "Theropod", "early_age": 83.6, "late_age": 66.0, "country": "BR"}, {"lat": -22.1178, "lng": -51.4425, "id": "1163951", "name": "Theropoda", "era": "Cretaceous", "type": "Theropod", "early_age": 83.6, "late_age": 66.0, "country": "BR"}, {"lat": -21.9442, "lng": -51.3731, "id": "1252536", "name": "Maniraptora", "era": "Cretaceous", "type": "Theropod", "early_age": 93.9, "late_age": 83.6, "country": "BR"}, {"lat": -22.1178, "lng": -51.4425, "id": "1344156", "name": "Austroposeidon magnificus", "era": "Cretaceous", "type": "Theropod", "early_age": 83.6, "late_age": 66.0, "country": "BR"}, {"lat": -22.4825, "lng": -52.9581, "id": "1587205", "name": "Ornithopoda", "era": "Cretaceous", "type": "Ornithischian", "early_age": 89.8, "late_age": 66.0, "country": "BR"}, {"lat": -21.9442, "lng": -51.3731, "id": "1605162", "name": "Abelisauroidea", "era": "Cretaceous", "type": "Theropod", "early_age": 89.8, "late_age": 66.0, "country": "BR"}, {"lat": -21.9442, "lng": -51.3731, "id": "1605165", "name": "Abelisauroidea", "era": "Cretaceous", "type": "Theropod", "early_age": 83.6, "late_age": 66.0, "country": "BR"}, {"lat": -22.1278, "lng": -51.3833, "id": "1630759", "name": "Enantiornithes", "era": "Cretaceous", "type": "Theropod", "early_age": 83.6, "late_age": 66.0, "country": "BR"}, {"lat": -21.9442, "lng": -51.3731, "id": "1639173", "name": "Titanosauria", "era": "Cretaceous", "type": "Theropod", "early_age": 83.6, "late_age": 66.0, "country": "BR"}, {"lat": -21.9442, "lng": -51.3731, "id": "1639174", "name": "Titanosauridae", "era": "Cretaceous", "type": "Theropod", "early_age": 83.6, "late_age": 66.0, "country": "BR"}, {"lat": -21.9442, "lng": -51.3731, "id": "1646509", "name": "Abelisauridae", "era": "Cretaceous", "type": "Theropod", "early_age": 83.6, "late_age": 66.0, "country": "BR"}, {"lat": -22.1278, "lng": -51.3833, "id": "1671494", "name": "Navaornis hestiae", "era": "Cretaceous", "type": "Theropod", "early_age": 83.6, "late_age": 66.0, "country": "BR"}, {"lat": -22.2189, "lng": -51.4331, "id": "1699546", "name": "Abelisauridae", "era": "Cretaceous", "type": "Theropod", "early_age": 83.6, "late_age": 66.0, "country": "BR"}, {"lat": -22.2189, "lng": -51.4331, "id": "1699547", "name": "Abelisauridae", "era": "Cretaceous", "type": "Theropod", "early_age": 83.6, "late_age": 66.0, "country": "BR"}, {"lat": -22.016, "lng": -51.557, "id": "1699548", "name": "Abelisauridae", "era": "Cretaceous", "type": "Theropod", "early_age": 83.6, "late_age": 66.0, "country": "BR"}]}