{"zoom": 7, "x": 61, "y": 51, "points": [{"lat": 32.1082, "lng": -6.451, "id": "464972", "name": "Sauropoda", "era": "Jurassic", "type": "Theropod", "early_age": 168.2, "late_age": 165.3, "country": "MA"}, {"lat": 32.1082, "lng": -6.451, "id": "464973", "name": "Theropoda", "era": "Jurassic", "type": "Theropod", "early_age": 168.2, "late_age": 165.3, "country": "MA"}, {"lat": 32.467, "lng": -5.767, "id": "464974", "name": "Sauropoda", "era": "Jurassic", "type": "Theropod", "early_age": 168.2, "late_age": 165.3, "country": "MA"}, {"lat": 32.467, "lng": -5.767, "id": "464975", "name": "Theropoda", "era": "Jurassic", "type": "Theropod", "early_age": 168.2, "late_age": 165.3, "country": "MA"}, {"lat": 32.0, "lng": -6.8333, "id": "464976", "name": "Theropoda", "era": "Jurassic", "type": "Theropod", "early_age": 168.2, "late_age": 165.3, "country": "MA"}, {"lat": 32.0, "lng": -6.8333, "id": "464977", "name": "Sauropoda", "era": "Jurassic", "type": "Theropod", "early_age": 168.2, "late_age": 165.3, "country": "MA"}, {"lat": 32.2167, "lng": -6.15, "id": "464979", "name": "Sauropoda", "era": "Jurassic", "type": "Theropod", "early_age": 161.5, "late_age": 149.2, "country": "MA"}, {"lat": 32.2356, "lng": -6.2289, "id": "464980", "name": "Sauropoda", "era": "Jurassic", "type": "Theropod", "early_age": 161.5, "late_age": 149.2, "country": "MA"}, {"lat": 32.0419, "lng": -6.2821, "id": "464981", "name": "Atlasaurus imelakei", "era": "Jurassic", "type": "Theropod", "early_age": 168.2, "late_age": 165.3, "country": "MA"}, {"lat": 32.2121, "lng": -6.2355, "id": "464985", "name": "Rebbachisaurus garasbae", "era": "Cretaceous", "type": "Theropod", "early_age": 106.3, "late_age": 93.9, "country": "MA"}, {"lat": 32.2356, "lng": -6.2289, "id": "464986", "name": "Sauropoda", "era": "Cretaceous", "type": "Theropod", "early_age": 121.4, "late_age": 93.9, "country": "MA"}, {"lat": 32.2121, "lng": -6.2355, "id": "490115", "name": "Sauropoda", "era": "Jurassic", "type": "Theropod", "early_age": 168.2, "late_age": 165.3, "country": "MA"}, {"lat": 32.8667, "lng": -6.5667, "id": "528633", "name": "Chenanisaurus barbaricus", "era": "Cretaceous", "type": "Theropod", "early_age": 72.2, "late_age": 66.0, "country": "MA"}, {"lat": 32.2488, "lng": -6.1106, "id": "825663", "name": "Dinosauria", "era": "Jurassic", "type": "Marine Reptile", "early_age": 168.2, "late_age": 165.3, "country": "MA"}, {"lat": 32.0167, "lng": -6.1833, "id": "825664", "name": "Dinosauria", "era": "Jurassic", "type": "Marine Reptile", "early_age": 168.2, "late_age": 165.3, "country": "MA"}, {"lat": 32.1054, "lng": -6.4665, "id": "825665", "name": "Dinosauria", "era": "Jurassic", "type": "Marine Reptile", "early_age": 168.2, "late_age": 165.3, "country": "MA"}, {"lat": 31.9545, "lng": -6.5396, "id": "825666", "name": "Dinosauria", "era": "Jurassic", "type": "Marine Reptile", "early_age": 174.7, "late_age": 161.5, "country": "MA"}, {"lat": 33.5833, "lng": -7.65, "id": "971780", "name": "Phasianidae", "era": "Cretaceous", "type": "Theropod", "early_age": 3.6, "late_age": 2.6, "country": "MA"}, {"lat": 32.8322, "lng": -6.23, "id": "1421957", "name": "Chenanisaurus barbaricus", "era": "Cretaceous", "type": "Theropod", "early_age": 72.2, "late_age": 66.0, "country": "MA"}, {"lat": 32.8322, "lng": -6.23, "id": "1533655", "name": "Ajnabia odysseus", "era": "Cretaceous", "type": "Ornithischian", "early_age": 72.2, "late_age": 66.0, "country": "MA"}, {"lat": 32.0812, "lng": -6.3956, "id": "1561172", "name": "Jurabrontes", "era": "Jurassic", "type": "Theropod", "early_age": 161.5, "late_age": 149.2, "country": "MA"}, {"lat": 32.665, "lng": -6.675, "id": "1640416", "name": "Abelisauridae", "era": "Cretaceous", "type": "Theropod", "early_age": 72.2, "late_age": 66.0, "country": "MA"}, {"lat": 32.8322, "lng": -6.23, "id": "1646619", "name": "Minqaria bata", "era": "Cretaceous", "type": "Ornithischian", "early_age": 72.2, "late_age": 66.0, "country": "MA"}, {"lat": 32.8833, "lng": -6.6333, "id": "1648781", "name": "Abelisauridae", "era": "Cretaceous", "type": "Theropod", "early_age": 72.2, "late_age": 66.0, "country": "MA"}, {"lat": 32.85, "lng": -6.6333, "id": "1648790", "name": "Titanosauriformes", "era": "Cretaceous", "type": "Theropod", "early_age": 72.2, "late_age": 66.0, "country": "MA"}, {"lat": 32.7736, "lng": -6.7931, "id": "1648791", "name": "Lambeosaurinae", "era": "Cretaceous", "type": "Ornithischian", "early_age": 72.2, "late_age": 66.0, "country": "MA"}, {"lat": 32.8833, "lng": -6.6333, "id": "1648793", "name": "Lambeosaurinae", "era": "Cretaceous", "type": "Ornithischian", "early_age": 72.2, "late_age": 66.0, "country": "MA"}]}