{"zoom": 7, "x": 71, "y": 42, "points": [{"lat": 50.9333, "lng": 21.6333, "id": "296427", "name": "Anomoepus", "era": "Triassic", "type": "Ornithischian", "early_age": 201.4, "late_age": 199.5, "country": "PL"}, {"lat": 51.5, "lng": 21.0333, "id": "343505", "name": "Stegosauria", "era": "Jurassic", "type": "Ornithischian", "early_age": 161.5, "late_age": 154.8, "country": "PL"}, {"lat": 51.5, "lng": 21.0333, "id": "343506", "name": "Theropoda", "era": "Jurassic", "type": "Theropod", "early_age": 161.5, "late_age": 154.8, "country": "PL"}, {"lat": 50.9333, "lng": 21.6333, "id": "544547", "name": "Kayentapus", "era": "Triassic", "type": "Theropod", "early_age": 201.4, "late_age": 199.5, "country": "PL"}, {"lat": 51.2333, "lng": 20.9167, "id": "544548", "name": "Grallator", "era": "Jurassic", "type": "Theropod", "early_age": 192.9, "late_age": 184.2, "country": "PL"}, {"lat": 50.9333, "lng": 21.6333, "id": "544549", "name": "Grallator", "era": "Triassic", "type": "Theropod", "early_age": 201.4, "late_age": 199.5, "country": "PL"}, {"lat": 51.3333, "lng": 20.5833, "id": "544550", "name": "Anomoepus", "era": "Triassic", "type": "Ornithischian", "early_age": 201.4, "late_age": 199.5, "country": "PL"}, {"lat": 51.3333, "lng": 20.5833, "id": "544551", "name": "Anchisauripus", "era": "Triassic", "type": "Theropod", "early_age": 201.4, "late_age": 199.5, "country": "PL"}, {"lat": 50.8833, "lng": 21.3333, "id": "544552", "name": "Anomoepus scambus", "era": "Triassic", "type": "Ornithischian", "early_age": 201.4, "late_age": 199.5, "country": "PL"}, {"lat": 50.8833, "lng": 21.3333, "id": "544553", "name": "Parabrontopodus", "era": "Triassic", "type": "Theropod", "early_age": 201.4, "late_age": 199.5, "country": "PL"}, {"lat": 50.8833, "lng": 21.3333, "id": "544554", "name": "Shenmuichnus", "era": "Triassic", "type": "Ornithischian", "early_age": 201.4, "late_age": 199.5, "country": "PL"}, {"lat": 50.8833, "lng": 21.3333, "id": "544555", "name": "Kalosauropus pollex", "era": "Triassic", "type": "Theropod", "early_age": 201.4, "late_age": 199.5, "country": "PL"}, {"lat": 50.8833, "lng": 21.3333, "id": "544556", "name": "Kayentapus", "era": "Triassic", "type": "Theropod", "early_age": 201.4, "late_age": 199.5, "country": "PL"}, {"lat": 50.85, "lng": 21.45, "id": "544644", "name": "Anchisauripus", "era": "Triassic", "type": "Theropod", "early_age": 201.4, "late_age": 199.5, "country": "PL"}, {"lat": 50.85, "lng": 21.45, "id": "544645", "name": "Kayentapus", "era": "Triassic", "type": "Theropod", "early_age": 201.4, "late_age": 199.5, "country": "PL"}, {"lat": 50.85, "lng": 21.45, "id": "544646", "name": "Parabrontopodus", "era": "Triassic", "type": "Theropod", "early_age": 201.4, "late_age": 199.5, "country": "PL"}, {"lat": 50.85, "lng": 21.45, "id": "544647", "name": "Anomoepus", "era": "Triassic", "type": "Ornithischian", "early_age": 201.4, "late_age": 199.5, "country": "PL"}, {"lat": 50.9333, "lng": 21.6333, "id": "775071", "name": "Carmelopodus", "era": "Triassic", "type": "Theropod", "early_age": 201.4, "late_age": 199.5, "country": "PL"}, {"lat": 50.9333, "lng": 21.6333, "id": "775072", "name": "Anomoepus pienkovskii", "era": "Triassic", "type": "Ornithischian", "early_age": 201.4, "late_age": 199.5, "country": "PL"}, {"lat": 50.9333, "lng": 21.6333, "id": "775073", "name": "Moyenisauropus karaszevskii", "era": "Triassic", "type": "Ornithischian", "early_age": 201.4, "late_age": 199.5, "country": "PL"}, {"lat": 51.1411, "lng": 20.6852, "id": "775074", "name": "Kayentapus soltykovensis", "era": "Triassic", "type": "Theropod", "early_age": 201.4, "late_age": 199.5, "country": "PL"}, {"lat": 51.1411, "lng": 20.6852, "id": "775075", "name": "Grallator", "era": "Triassic", "type": "Theropod", "early_age": 201.4, "late_age": 199.5, "country": "PL"}, {"lat": 51.1411, "lng": 20.6852, "id": "775076", "name": "Anomoepus", "era": "Triassic", "type": "Ornithischian", "early_age": 201.4, "late_age": 199.5, "country": "PL"}, {"lat": 50.8852, "lng": 21.665, "id": "775078", "name": "Dinehichnus", "era": "Jurassic", "type": "Ornithischian", "early_age": 154.8, "late_age": 152.2, "country": "PL"}, {"lat": 50.9333, "lng": 21.6333, "id": "775079", "name": "Stenonyx", "era": "Triassic", "type": "Theropod", "early_age": 201.4, "late_age": 199.5, "country": "PL"}, {"lat": 51.1411, "lng": 20.6852, "id": "775080", "name": "Stenonyx", "era": "Triassic", "type": "Theropod", "early_age": 201.4, "late_age": 199.5, "country": "PL"}, {"lat": 51.1314, "lng": 21.2579, "id": "775081", "name": "Megalosauripus", "era": "Jurassic", "type": "Theropod", "early_age": 157.9, "late_age": 154.8, "country": "PL"}, {"lat": 51.1314, "lng": 21.2579, "id": "775082", "name": "Brontopodus", "era": "Jurassic", "type": "Theropod", "early_age": 157.9, "late_age": 154.8, "country": "PL"}, {"lat": 51.1411, "lng": 20.6852, "id": "782127", "name": "Grallator", "era": "Triassic", "type": "Theropod", "early_age": 201.4, "late_age": 199.5, "country": "PL"}, {"lat": 51.5, "lng": 21.0333, "id": "837484", "name": "Wildeichnus", "era": "Jurassic", "type": "Theropod", "early_age": 161.5, "late_age": 154.8, "country": "PL"}, {"lat": 51.1411, "lng": 20.6852, "id": "1277130", "name": "Megalosauripus", "era": "Triassic", "type": "Theropod", "early_age": 201.4, "late_age": 199.5, "country": "PL"}, {"lat": 51.1411, "lng": 20.6852, "id": "1277131", "name": "Anomoepus", "era": "Triassic", "type": "Ornithischian", "early_age": 201.4, "late_age": 199.5, "country": "PL"}, {"lat": 51.1411, "lng": 20.6852, "id": "1277134", "name": "Parabrontopodus", "era": "Triassic", "type": "Theropod", "early_age": 201.4, "late_age": 199.5, "country": "PL"}, {"lat": 51.1411, "lng": 20.6852, "id": "1277135", "name": "Anchisauripus", "era": "Triassic", "type": "Theropod", "early_age": 201.4, "late_age": 199.5, "country": "PL"}, {"lat": 51.1411, "lng": 20.6852, "id": "1277137", "name": "Delatorrichnus", "era": "Triassic", "type": "Ornithischian", "early_age": 201.4, "late_age": 199.5, "country": "PL"}, {"lat": 51.1411, "lng": 20.6852, "id": "1277138", "name": "Parabrontopodus", "era": "Triassic", "type": "Theropod", "early_age": 201.4, "late_age": 199.5, "country": "PL"}, {"lat": 51.1411, "lng": 20.6852, "id": "1277140", "name": "Eubrontes", "era": "Triassic", "type": "Theropod", "early_age": 201.4, "late_age": 199.5, "country": "PL"}, {"lat": 51.1411, "lng": 20.6852, "id": "1277141", "name": "Anchisauripus", "era": "Triassic", "type": "Theropod", "early_age": 201.4, "late_age": 199.5, "country": "PL"}, {"lat": 51.1411, "lng": 20.6852, "id": "1277142", "name": "Sauropoda", "era": "Triassic", "type": "Theropod", "early_age": 201.4, "late_age": 199.5, "country": "PL"}, {"lat": 51.1411, "lng": 20.6852, "id": "1277143", "name": "Dinosauria", "era": "Triassic", "type": "Marine Reptile", "early_age": 201.4, "late_age": 199.5, "country": "PL"}, {"lat": 51.0554, "lng": 20.5112, "id": "1405293", "name": "Moyenisauropus karaszevskii", "era": "Triassic", "type": "Ornithischian", "early_age": 201.4, "late_age": 199.5, "country": "PL"}, {"lat": 50.9333, "lng": 21.6333, "id": "1558277", "name": "Plesiornis pilulatus", "era": "Triassic", "type": "Theropod", "early_age": 201.4, "late_age": 199.5, "country": "PL"}, {"lat": 50.9333, "lng": 21.6333, "id": "1558278", "name": "Anomoepus scambus", "era": "Triassic", "type": "Ornithischian", "early_age": 201.4, "late_age": 199.5, "country": "PL"}, {"lat": 50.9333, "lng": 21.6333, "id": "1558281", "name": "Wintonopus", "era": "Triassic", "type": "Ornithischian", "early_age": 201.4, "late_age": 199.5, "country": "PL"}, {"lat": 51.358, "lng": 20.608, "id": "1558282", "name": "Anchisauripus", "era": "Triassic", "type": "Theropod", "early_age": 201.4, "late_age": 199.5, "country": "PL"}]}