{"zoom": 7, "x": 73, "y": 75, "points": [{"lat": -29.85, "lng": 27.25, "id": "297698", "name": "Lesothosaurus diagnosticus", "era": "Triassic", "type": "Ornithischian", "early_age": 201.4, "late_age": 192.9, "country": "LS"}, {"lat": -31.2917, "lng": 27.75, "id": "297836", "name": "Lesothosaurus diagnosticus", "era": "Triassic", "type": "Ornithischian", "early_age": 201.4, "late_age": 192.9, "country": "LS"}, {"lat": -30.5667, "lng": 27.6167, "id": "372891", "name": "Blikanasaurus cromptoni", "era": "Triassic", "type": "Theropod", "early_age": 227.3, "late_age": 201.4, "country": "ZA"}, {"lat": -30.4333, "lng": 27.6, "id": "378116", "name": "Sauropodomorpha", "era": "Triassic", "type": "Theropod", "early_age": 227.3, "late_age": 201.4, "country": "LS"}, {"lat": -31.2333, "lng": 27.0, "id": "384555", "name": "Melanorosaurus readi", "era": "Triassic", "type": "Theropod", "early_age": 227.3, "late_age": 201.4, "country": "ZA"}, {"lat": -30.95, "lng": 26.6167, "id": "384558", "name": "Sauropodomorpha", "era": "Triassic", "type": "Theropod", "early_age": 227.3, "late_age": 201.4, "country": "ZA"}, {"lat": -30.6167, "lng": 27.1667, "id": "385100", "name": "Prosauropoda", "era": "Triassic", "type": "Theropod", "early_age": 201.4, "late_age": 192.9, "country": "ZA"}, {"lat": -31.45, "lng": 27.85, "id": "385300", "name": "Heterodontosauridae", "era": "Jurassic", "type": "Ornithischian", "early_age": 199.5, "late_age": 192.9, "country": "ZA"}, {"lat": -30.6155, "lng": 27.3476, "id": "385301", "name": "Melanorosaurus readi", "era": "Triassic", "type": "Theropod", "early_age": 227.3, "late_age": 201.4, "country": "ZA"}, {"lat": -30.55, "lng": 27.4333, "id": "385302", "name": "Sauropodomorpha", "era": "Triassic", "type": "Theropod", "early_age": 227.3, "late_age": 201.4, "country": "ZA"}, {"lat": -30.5333, "lng": 27.4167, "id": "385606", "name": "Prosauropoda", "era": "Triassic", "type": "Theropod", "early_age": 227.3, "late_age": 205.7, "country": "ZA"}, {"lat": -30.5333, "lng": 27.4167, "id": "385607", "name": "Plateosauravus cullingworthi", "era": "Triassic", "type": "Theropod", "early_age": 227.3, "late_age": 205.7, "country": "ZA"}, {"lat": -30.7, "lng": 27.2333, "id": "385610", "name": "Plateosauravus cullingworthi", "era": "Triassic", "type": "Theropod", "early_age": 227.3, "late_age": 201.4, "country": "ZA"}, {"lat": -31.0833, "lng": 26.7833, "id": "385611", "name": "Prosauropoda", "era": "Triassic", "type": "Theropod", "early_age": 227.3, "late_age": 201.4, "country": "ZA"}, {"lat": -30.95, "lng": 26.6167, "id": "385656", "name": "Prosauropoda", "era": "Triassic", "type": "Theropod", "early_age": 227.3, "late_age": 201.4, "country": "ZA"}, {"lat": -30.9667, "lng": 27.6, "id": "385678", "name": "Prosauropoda", "era": "Jurassic", "type": "Theropod", "early_age": 192.9, "late_age": 184.2, "country": "ZA"}, {"lat": -29.85, "lng": 27.25, "id": "463669", "name": "Fabrosauridae", "era": "Triassic", "type": "Ornithischian", "early_age": 201.4, "late_age": 192.9, "country": "LS"}, {"lat": -30.5667, "lng": 27.4333, "id": "474089", "name": "Massospondylus kaalae", "era": "Triassic", "type": "Theropod", "early_age": 201.4, "late_age": 192.9, "country": "ZA"}, {"lat": -30.5667, "lng": 27.4333, "id": "474090", "name": "Massospondylus", "era": "Triassic", "type": "Theropod", "early_age": 201.4, "late_age": 192.9, "country": "ZA"}, {"lat": -30.95, "lng": 26.6167, "id": "479382", "name": "Eucnemesaurus fortis", "era": "Triassic", "type": "Theropod", "early_age": 227.3, "late_age": 201.4, "country": "ZA"}, {"lat": -30.6, "lng": 27.6167, "id": "487120", "name": "Massospondylus carinatus", "era": "Triassic", "type": "Theropod", "early_age": 201.4, "late_age": 192.9, "country": "ZA"}, {"lat": -30.8333, "lng": 27.75, "id": "487123", "name": "Massospondylus carinatus", "era": "Jurassic", "type": "Theropod", "early_age": 192.9, "late_age": 184.2, "country": "ZA"}, {"lat": -30.6167, "lng": 27.8, "id": "534735", "name": "Lesothosaurus diagnosticus", "era": "Triassic", "type": "Ornithischian", "early_age": 201.4, "late_age": 192.9, "country": "ZA"}, {"lat": -29.85, "lng": 27.25, "id": "534887", "name": "Ornithischia", "era": "Triassic", "type": "Ornithischian", "early_age": 201.4, "late_age": 192.9, "country": "LS"}, {"lat": -30.6167, "lng": 27.8, "id": "534893", "name": "Stormbergia", "era": "Triassic", "type": "Ornithischian", "early_age": 201.4, "late_age": 192.9, "country": "ZA"}, {"lat": -30.6167, "lng": 27.8, "id": "534894", "name": "Fabrosauridae", "era": "Triassic", "type": "Ornithischian", "early_age": 201.4, "late_age": 192.9, "country": "ZA"}, {"lat": -30.35, "lng": 27.75, "id": "534896", "name": "Lesothosaurus diagnosticus", "era": "Triassic", "type": "Ornithischian", "early_age": 201.4, "late_age": 192.9, "country": "LS"}, {"lat": -30.65, "lng": 26.0, "id": "534910", "name": "Ornithischia", "era": "Triassic", "type": "Ornithischian", "early_age": 201.4, "late_age": 192.9, "country": "ZA"}, {"lat": -30.65, "lng": 26.0, "id": "534911", "name": "Sauropodomorpha", "era": "Triassic", "type": "Theropod", "early_age": 201.4, "late_age": 192.9, "country": "ZA"}, {"lat": -30.65, "lng": 26.0, "id": "534912", "name": "Ornithischia", "era": "Triassic", "type": "Ornithischian", "early_age": 201.4, "late_age": 192.9, "country": "ZA"}, {"lat": -30.4, "lng": 27.65, "id": "534935", "name": "Lesothosaurus", "era": "Triassic", "type": "Ornithischian", "early_age": 201.4, "late_age": 192.9, "country": "LS"}, {"lat": -30.4, "lng": 27.5167, "id": "534936", "name": "Lesothosaurus", "era": "Triassic", "type": "Ornithischian", "early_age": 201.4, "late_age": 192.9, "country": "LS"}, {"lat": -30.4, "lng": 27.5167, "id": "534941", "name": "Massospondylus", "era": "Triassic", "type": "Theropod", "early_age": 201.4, "late_age": 192.9, "country": "LS"}, {"lat": -29.85, "lng": 27.25, "id": "534993", "name": "Lesothosaurus", "era": "Triassic", "type": "Ornithischian", "early_age": 201.4, "late_age": 192.9, "country": "LS"}, {"lat": -29.6333, "lng": 27.5167, "id": "538535", "name": "Grallator morijensis", "era": "Jurassic", "type": "Theropod", "early_age": 192.9, "late_age": 184.2, "country": "LS"}, {"lat": -30.2167, "lng": 27.4833, "id": "538668", "name": "Trisauropodiscus galliforma", "era": "Triassic", "type": "Theropod", "early_age": 201.4, "late_age": 192.9, "country": "LS"}, {"lat": -30.2167, "lng": 27.5167, "id": "538678", "name": "Kholumolumo ellenbergerorum", "era": "Triassic", "type": "Theropod", "early_age": 227.3, "late_age": 205.7, "country": "LS"}, {"lat": -30.2167, "lng": 27.5167, "id": "538681", "name": "Grallator socialis", "era": "Triassic", "type": "Theropod", "early_age": 227.3, "late_age": 201.4, "country": "LS"}, {"lat": -30.2167, "lng": 27.5167, "id": "538683", "name": "Trisauropodiscus aviforma", "era": "Triassic", "type": "Theropod", "early_age": 227.3, "late_age": 201.4, "country": "LS"}, {"lat": -30.3953, "lng": 27.6931, "id": "538694", "name": "Eubrontes", "era": "Triassic", "type": "Theropod", "early_age": 201.4, "late_age": 192.9, "country": "LS"}, {"lat": -30.3953, "lng": 27.6931, "id": "538695", "name": "Grallator deambulator", "era": "Triassic", "type": "Theropod", "early_age": 201.4, "late_age": 192.9, "country": "LS"}, {"lat": -30.3644, "lng": 27.55, "id": "538699", "name": "Pseudotetrasauropus bipedoida", "era": "Triassic", "type": "Theropod", "early_age": 227.3, "late_age": 205.7, "country": "LS"}, {"lat": -29.9333, "lng": 27.4, "id": "566225", "name": "Meroktenos thabanensis", "era": "Triassic", "type": "Theropod", "early_age": 227.3, "late_age": 201.4, "country": "LS"}, {"lat": -30.5333, "lng": 27.5333, "id": "566780", "name": "Heterodontosaurus tucki", "era": "Jurassic", "type": "Ornithischian", "early_age": 199.5, "late_age": 192.9, "country": "ZA"}, {"lat": -30.8167, "lng": 27.7, "id": "699840", "name": "Dracovenator regenti", "era": "Triassic", "type": "Theropod", "early_age": 201.4, "late_age": 192.9, "country": "ZA"}, {"lat": -30.5333, "lng": 27.5333, "id": "699867", "name": "Massospondylus", "era": "Triassic", "type": "Theropod", "early_age": 227.3, "late_age": 192.9, "country": "ZA"}, {"lat": -31.15, "lng": 26.6167, "id": "699887", "name": "Massospondylus", "era": "Triassic", "type": "Theropod", "early_age": 201.4, "late_age": 192.9, "country": "ZA"}, {"lat": -31.1333, "lng": 27.1, "id": "699888", "name": "Sauropodomorpha", "era": "Triassic", "type": "Theropod", "early_age": 227.3, "late_age": 201.4, "country": "ZA"}, {"lat": -31.1167, "lng": 27.1167, "id": "699889", "name": "Sauropodomorpha", "era": "Triassic", "type": "Theropod", "early_age": 227.3, "late_age": 201.4, "country": "ZA"}, {"lat": -31.1, "lng": 27.1333, "id": "699890", "name": "Sauropodomorpha", "era": "Triassic", "type": "Theropod", "early_age": 227.3, "late_age": 201.4, "country": "ZA"}, {"lat": -30.6333, "lng": 27.4667, "id": "699891", "name": "Dinosauria", "era": "Triassic", "type": "Marine Reptile", "early_age": 201.4, "late_age": 192.9, "country": "ZA"}, {"lat": -30.5667, "lng": 27.6167, "id": "717652", "name": "Massospondylus carinatus", "era": "Triassic", "type": "Theropod", "early_age": 201.4, "late_age": 192.9, "country": "ZA"}, {"lat": -30.3667, "lng": 27.5167, "id": "780851", "name": "Senqutrisauropus priscus", "era": "Triassic", "type": "Theropod", "early_age": 237.0, "late_age": 205.7, "country": "LS"}, {"lat": -30.4, "lng": 27.5167, "id": "780858", "name": "Kalosauropus masitisii", "era": "Triassic", "type": "Theropod", "early_age": 201.4, "late_age": 192.9, "country": "LS"}, {"lat": -30.4, "lng": 27.5167, "id": "780864", "name": "Grallator lambereshei", "era": "Jurassic", "type": "Theropod", "early_age": 192.9, "late_age": 184.2, "country": "LS"}, {"lat": -30.4333, "lng": 27.7333, "id": "780868", "name": "Qomoqomosauropus acutus", "era": "Jurassic", "type": "Theropod", "early_age": 192.9, "late_age": 184.2, "country": "LS"}, {"lat": -30.4333, "lng": 27.7333, "id": "780869", "name": "Cridotrisauropus cruentus", "era": "Jurassic", "type": "Theropod", "early_age": 192.9, "late_age": 184.2, "country": "LS"}, {"lat": -29.85, "lng": 27.25, "id": "780870", "name": "Kainomoyenisauropus ranivorus", "era": "Jurassic", "type": "Theropod", "early_age": 192.9, "late_age": 184.2, "country": "LS"}, {"lat": -29.85, "lng": 27.25, "id": "780871", "name": "Grallator morijensis", "era": "Jurassic", "type": "Theropod", "early_age": 192.9, "late_age": 184.2, "country": "LS"}, {"lat": -30.35, "lng": 27.6, "id": "780878", "name": "Grallator angustidigitus", "era": "Triassic", "type": "Theropod", "early_age": 201.4, "late_age": 192.9, "country": "LS"}, {"lat": -30.35, "lng": 27.6, "id": "780879", "name": "Grallator crassidigitus", "era": "Triassic", "type": "Theropod", "early_age": 201.4, "late_age": 192.9, "country": "LS"}, {"lat": -30.35, "lng": 27.6, "id": "780880", "name": "Grallator graciosus", "era": "Triassic", "type": "Theropod", "early_age": 201.4, "late_age": 192.9, "country": "LS"}, {"lat": -30.35, "lng": 27.6, "id": "780882", "name": "Prosauropoda", "era": "Triassic", "type": "Theropod", "early_age": 201.4, "late_age": 192.9, "country": "LS"}, {"lat": -30.3953, "lng": 27.6931, "id": "780898", "name": "Anomoepus scambus", "era": "Triassic", "type": "Ornithischian", "early_age": 201.4, "late_age": 192.9, "country": "LS"}, {"lat": -30.3953, "lng": 27.6931, "id": "780902", "name": "Anomoepus palmipes", "era": "Triassic", "type": "Ornithischian", "early_age": 201.4, "late_age": 192.9, "country": "LS"}, {"lat": -30.3953, "lng": 27.6931, "id": "780903", "name": "Anomoepus scambus", "era": "Triassic", "type": "Ornithischian", "early_age": 201.4, "late_age": 192.9, "country": "LS"}, {"lat": -30.3953, "lng": 27.6931, "id": "780904", "name": "Anomoepus scambus", "era": "Triassic", "type": "Ornithischian", "early_age": 201.4, "late_age": 192.9, "country": "LS"}, {"lat": -30.4, "lng": 27.7167, "id": "780908", "name": "Plastisauropus ingens", "era": "Triassic", "type": "Theropod", "early_age": 201.4, "late_age": 192.9, "country": "LS"}, {"lat": -30.4, "lng": 27.7167, "id": "780909", "name": "Grallator deambulator", "era": "Triassic", "type": "Theropod", "early_age": 201.4, "late_age": 192.9, "country": "LS"}, {"lat": -30.4, "lng": 27.7167, "id": "780910", "name": "Anomoepus palmipes", "era": "Triassic", "type": "Ornithischian", "early_age": 201.4, "late_age": 192.9, "country": "LS"}, {"lat": -30.4, "lng": 27.7167, "id": "780913", "name": "Trisauropodiscus superavipes", "era": "Triassic", "type": "Theropod", "early_age": 201.4, "late_age": 192.9, "country": "LS"}, {"lat": -30.35, "lng": 27.75, "id": "780921", "name": "Anchisauridae", "era": "Jurassic", "type": "Theropod", "early_age": 192.9, "late_age": 184.2, "country": "LS"}, {"lat": -29.6167, "lng": 27.5667, "id": "780923", "name": "Grallator matsiengensis", "era": "Jurassic", "type": "Theropod", "early_age": 192.9, "late_age": 184.2, "country": "LS"}, {"lat": -29.6167, "lng": 27.5667, "id": "780924", "name": "Grallator damanei", "era": "Jurassic", "type": "Theropod", "early_age": 192.9, "late_age": 184.2, "country": "LS"}, {"lat": -29.6167, "lng": 27.5667, "id": "780925", "name": "Grallator moshoeshoei", "era": "Jurassic", "type": "Theropod", "early_age": 192.9, "late_age": 184.2, "country": "LS"}, {"lat": -30.2167, "lng": 27.5167, "id": "780928", "name": "Mafatrisauropus errans", "era": "Triassic", "type": "Theropod", "early_age": 227.3, "late_age": 201.4, "country": "LS"}, {"lat": -30.5667, "lng": 27.4333, "id": "790006", "name": "Heterodontosaurus tucki", "era": "Triassic", "type": "Ornithischian", "early_age": 201.4, "late_age": 192.9, "country": "ZA"}, {"lat": -30.5167, "lng": 27.4833, "id": "923798", "name": "Melanorosaurus", "era": "Triassic", "type": "Theropod", "early_age": 227.3, "late_age": 201.4, "country": "LS"}, {"lat": -30.7333, "lng": 27.1833, "id": "931121", "name": "Plateosaurus", "era": "Triassic", "type": "Theropod", "early_age": 227.3, "late_age": 201.4, "country": "ZA"}, {"lat": -30.75, "lng": 27.1, "id": "931122", "name": "Sauropodomorpha", "era": "Triassic", "type": "Theropod", "early_age": 227.3, "late_age": 201.4, "country": "ZA"}, {"lat": -30.5833, "lng": 27.3333, "id": "931123", "name": "Sauropodomorpha", "era": "Triassic", "type": "Theropod", "early_age": 227.3, "late_age": 201.4, "country": "ZA"}, {"lat": -30.6, "lng": 27.3333, "id": "931124", "name": "Sauropodomorpha", "era": "Triassic", "type": "Theropod", "early_age": 227.3, "late_age": 201.4, "country": "ZA"}, {"lat": -30.6333, "lng": 27.4667, "id": "931125", "name": "Sauropodomorpha", "era": "Triassic", "type": "Theropod", "early_age": 227.3, "late_age": 201.4, "country": "ZA"}, {"lat": -30.4333, "lng": 27.5667, "id": "932958", "name": "Sauropodomorpha", "era": "Triassic", "type": "Theropod", "early_age": 227.3, "late_age": 201.4, "country": "ZA"}, {"lat": -29.8833, "lng": 27.35, "id": "933037", "name": "Melanorosaurus", "era": "Triassic", "type": "Theropod", "early_age": 227.3, "late_age": 201.4, "country": "LS"}, {"lat": -29.85, "lng": 27.2667, "id": "933038", "name": "Sauropodomorpha", "era": "Triassic", "type": "Theropod", "early_age": 227.3, "late_age": 201.4, "country": "LS"}, {"lat": -31.45, "lng": 27.85, "id": "1092060", "name": "Heterodontosauridae", "era": "Jurassic", "type": "Ornithischian", "early_age": 199.5, "late_age": 192.9, "country": "ZA"}, {"lat": -30.5667, "lng": 27.4333, "id": "1092062", "name": "Pegomastax africanus", "era": "Triassic", "type": "Ornithischian", "early_age": 201.4, "late_age": 192.9, "country": "ZA"}, {"lat": -30.78, "lng": 27.95, "id": "1092063", "name": "Heterodontosaurus", "era": "Triassic", "type": "Ornithischian", "early_age": 201.4, "late_age": 192.9, "country": "ZA"}, {"lat": -29.88, "lng": 27.35, "id": "1092064", "name": "Lycorhinus", "era": "Jurassic", "type": "Ornithischian", "early_age": 192.9, "late_age": 184.2, "country": "LS"}, {"lat": -30.75, "lng": 27.2, "id": "1092066", "name": "Lycorhinus angustidens", "era": "Triassic", "type": "Ornithischian", "early_age": 201.4, "late_age": 192.9, "country": "ZA"}, {"lat": -30.8114, "lng": 27.7178, "id": "1095788", "name": "Massospondylus", "era": "Triassic", "type": "Theropod", "early_age": 201.4, "late_age": 192.9, "country": "ZA"}, {"lat": -30.3953, "lng": 27.6931, "id": "1163956", "name": "Anomoepus scambus", "era": "Triassic", "type": "Ornithischian", "early_age": 201.4, "late_age": 192.9, "country": "LS"}, {"lat": -30.3953, "lng": 27.6931, "id": "1163957", "name": "Anomoepus scambus", "era": "Triassic", "type": "Ornithischian", "early_age": 201.4, "late_age": 192.9, "country": "LS"}, {"lat": -30.3953, "lng": 27.6931, "id": "1163958", "name": "Plastisauropus ingens", "era": "Triassic", "type": "Theropod", "early_age": 201.4, "late_age": 192.9, "country": "LS"}, {"lat": -30.3953, "lng": 27.6931, "id": "1163959", "name": "Anomoepus scambus", "era": "Triassic", "type": "Ornithischian", "early_age": 201.4, "late_age": 192.9, "country": "LS"}, {"lat": -30.4, "lng": 27.7167, "id": "1163961", "name": "Grallator mokanametsongensis", "era": "Triassic", "type": "Theropod", "early_age": 201.4, "late_age": 192.9, "country": "LS"}, {"lat": -30.4, "lng": 27.7167, "id": "1163962", "name": "Anomoepus scambus", "era": "Triassic", "type": "Ornithischian", "early_age": 201.4, "late_age": 192.9, "country": "LS"}, {"lat": -30.4, "lng": 27.7167, "id": "1163963", "name": "Grallator rapidus", "era": "Triassic", "type": "Theropod", "early_age": 201.4, "late_age": 192.9, "country": "LS"}, {"lat": -30.4, "lng": 27.7167, "id": "1163964", "name": "Grallator digitigradus", "era": "Triassic", "type": "Theropod", "early_age": 201.4, "late_age": 192.9, "country": "LS"}, {"lat": -30.4, "lng": 27.7167, "id": "1163967", "name": "Anomoepus minutus", "era": "Triassic", "type": "Ornithischian", "early_age": 201.4, "late_age": 192.9, "country": "LS"}, {"lat": -30.4, "lng": 27.7167, "id": "1163968", "name": "Anomoepus turda", "era": "Triassic", "type": "Ornithischian", "early_age": 201.4, "late_age": 192.9, "country": "LS"}, {"lat": -30.4, "lng": 27.7167, "id": "1163969", "name": "Anomoepus fringilla", "era": "Triassic", "type": "Ornithischian", "early_age": 201.4, "late_age": 192.9, "country": "LS"}, {"lat": -30.4333, "lng": 27.7333, "id": "1163972", "name": "Anomoepus scambus", "era": "Triassic", "type": "Ornithischian", "early_age": 201.4, "late_age": 192.9, "country": "LS"}, {"lat": -30.4333, "lng": 27.7333, "id": "1163973", "name": "Anomoepus scambus", "era": "Triassic", "type": "Ornithischian", "early_age": 201.4, "late_age": 192.9, "country": "LS"}, {"lat": -30.4103, "lng": 27.6172, "id": "1163974", "name": "Anomoepus scambus", "era": "Triassic", "type": "Ornithischian", "early_age": 201.4, "late_age": 192.9, "country": "LS"}, {"lat": -30.1664, "lng": 27.4789, "id": "1163975", "name": "Neotrisauropus minor", "era": "Triassic", "type": "Theropod", "early_age": 201.4, "late_age": 192.9, "country": "LS"}, {"lat": -30.1664, "lng": 27.4789, "id": "1163976", "name": "Anomoepus scambus", "era": "Triassic", "type": "Ornithischian", "early_age": 201.4, "late_age": 192.9, "country": "LS"}, {"lat": -30.1664, "lng": 27.4789, "id": "1163978", "name": "Anomoepus scambus", "era": "Triassic", "type": "Ornithischian", "early_age": 201.4, "late_age": 192.9, "country": "LS"}, {"lat": -30.1664, "lng": 27.4789, "id": "1163979", "name": "Plastisauropus ingens", "era": "Triassic", "type": "Theropod", "early_age": 201.4, "late_age": 192.9, "country": "LS"}, {"lat": -29.85, "lng": 27.2667, "id": "1163995", "name": "Dinosauria", "era": "Triassic", "type": "Marine Reptile", "early_age": 227.3, "late_age": 201.4, "country": "LS"}, {"lat": -29.6914, "lng": 27.3753, "id": "1163996", "name": "Melanorosauridae", "era": "Triassic", "type": "Theropod", "early_age": 201.4, "late_age": 192.9, "country": "LS"}, {"lat": -30.185, "lng": 27.4253, "id": "1163997", "name": "Melanorosauridae", "era": "Triassic", "type": "Theropod", "early_age": 201.4, "late_age": 192.9, "country": "LS"}, {"lat": -29.8019, "lng": 27.4006, "id": "1163998", "name": "Melanorosaurus", "era": "Triassic", "type": "Theropod", "early_age": 201.4, "late_age": 192.9, "country": "LS"}, {"lat": -29.8167, "lng": 27.25, "id": "1163999", "name": "Thecodontosaurus minimus", "era": "Triassic", "type": "Theropod", "early_age": 201.4, "late_age": 192.9, "country": "LS"}, {"lat": -30.4967, "lng": 27.5306, "id": "1164000", "name": "Anchisauridae", "era": "Triassic", "type": "Theropod", "early_age": 201.4, "late_age": 192.9, "country": "ZA"}, {"lat": -30.3792, "lng": 27.5892, "id": "1164003", "name": "Anomoepus palmipes", "era": "Jurassic", "type": "Ornithischian", "early_age": 192.9, "late_age": 184.2, "country": "LS"}, {"lat": -30.3697, "lng": 27.5672, "id": "1164059", "name": "Tetrasauropus unguiferus", "era": "Triassic", "type": "Theropod", "early_age": 227.3, "late_age": 205.7, "country": "LS"}, {"lat": -30.6167, "lng": 27.8, "id": "1164075", "name": "Massospondylus", "era": "Triassic", "type": "Theropod", "early_age": 201.4, "late_age": 192.9, "country": "ZA"}, {"lat": -30.3, "lng": 27.0833, "id": "1283498", "name": "Sefapanosaurus zastronensis", "era": "Triassic", "type": "Theropod", "early_age": 227.3, "late_age": 199.5, "country": "ZA"}, {"lat": -30.8847, "lng": 26.9106, "id": "1293849", "name": "Eucnemesaurus entaxonis", "era": "Triassic", "type": "Theropod", "early_age": 227.3, "late_age": 201.4, "country": "ZA"}, {"lat": -30.8847, "lng": 26.9106, "id": "1293850", "name": "Sauropodomorpha", "era": "Triassic", "type": "Theropod", "early_age": 227.3, "late_age": 201.4, "country": "ZA"}, {"lat": -30.3825, "lng": 27.5597, "id": "1453504", "name": "Otozoum", "era": "Triassic", "type": "Theropod", "early_age": 237.0, "late_age": 205.7, "country": "LS"}, {"lat": -30.6748, "lng": 26.7038, "id": "1484768", "name": "Rotodactylopus archaeus", "era": "Triassic", "type": "Theropod", "early_age": 246.7, "late_age": 237.0, "country": "ZA"}, {"lat": -30.2131, "lng": 27.4808, "id": "1484788", "name": "Grallator minor", "era": "Triassic", "type": "Theropod", "early_age": 227.3, "late_age": 205.7, "country": "LS"}, {"lat": -30.2131, "lng": 27.4808, "id": "1484789", "name": "Anatrisauropus ginsburgi", "era": "Triassic", "type": "Theropod", "early_age": 227.3, "late_age": 205.7, "country": "LS"}, {"lat": -30.2131, "lng": 27.4808, "id": "1484791", "name": "Pseudotrisauropus humilis", "era": "Triassic", "type": "Theropod", "early_age": 227.3, "late_age": 205.7, "country": "LS"}, {"lat": -30.2131, "lng": 27.4808, "id": "1484792", "name": "Pseudotrisauropus minusculus", "era": "Triassic", "type": "Theropod", "early_age": 227.3, "late_age": 205.7, "country": "LS"}, {"lat": -30.2131, "lng": 27.4808, "id": "1484793", "name": "Prosauropoda", "era": "Triassic", "type": "Theropod", "early_age": 227.3, "late_age": 205.7, "country": "LS"}, {"lat": -30.3697, "lng": 27.5672, "id": "1484815", "name": "Grallator minimus", "era": "Triassic", "type": "Theropod", "early_age": 227.3, "late_age": 205.7, "country": "LS"}, {"lat": -30.3667, "lng": 27.5167, "id": "1484818", "name": "Pseudotrisauropus molekoi", "era": "Triassic", "type": "Theropod", "early_age": 237.0, "late_age": 205.7, "country": "LS"}, {"lat": -30.291, "lng": 27.5056, "id": "1484824", "name": "Pseudotetrasauropus", "era": "Triassic", "type": "Theropod", "early_age": 237.0, "late_age": 227.3, "country": "LS"}, {"lat": -30.3697, "lng": 27.5672, "id": "1484825", "name": "Prosauropoda", "era": "Triassic", "type": "Theropod", "early_age": 227.3, "late_age": 205.7, "country": "LS"}, {"lat": -30.2167, "lng": 27.5167, "id": "1484829", "name": "Trisauropodiscus superaviforma", "era": "Triassic", "type": "Theropod", "early_age": 227.3, "late_age": 201.4, "country": "LS"}, {"lat": -30.2167, "lng": 27.4833, "id": "1484834", "name": "Tritotrisauropus medius", "era": "Triassic", "type": "Theropod", "early_age": 201.4, "late_age": 192.9, "country": "LS"}, {"lat": -30.2167, "lng": 27.4833, "id": "1484835", "name": "Trisauropodiscus phasianiforma", "era": "Triassic", "type": "Theropod", "early_age": 201.4, "late_age": 192.9, "country": "LS"}, {"lat": -30.2167, "lng": 27.4833, "id": "1484836", "name": "Trisauropodiscus levis", "era": "Triassic", "type": "Theropod", "early_age": 201.4, "late_age": 192.9, "country": "LS"}, {"lat": -30.2167, "lng": 27.4833, "id": "1484837", "name": "Trisauropodiscus pompompoi", "era": "Triassic", "type": "Theropod", "early_age": 201.4, "late_age": 192.9, "country": "LS"}, {"lat": -30.4, "lng": 27.7167, "id": "1528941", "name": "Kayentapus", "era": "Triassic", "type": "Theropod", "early_age": 201.4, "late_age": 192.9, "country": "LS"}, {"lat": -30.4, "lng": 27.7167, "id": "1528942", "name": "Eubrontes", "era": "Triassic", "type": "Theropod", "early_age": 201.4, "late_age": 192.9, "country": "LS"}, {"lat": -30.4, "lng": 27.7167, "id": "1528943", "name": "Grallator", "era": "Triassic", "type": "Theropod", "early_age": 201.4, "late_age": 192.9, "country": "LS"}, {"lat": -29.85, "lng": 27.25, "id": "1540437", "name": "Ignavusaurus rachelis", "era": "Triassic", "type": "Theropod", "early_age": 201.4, "late_age": 192.9, "country": "LS"}, {"lat": -30.5667, "lng": 27.4333, "id": "1586684", "name": "Heterodontosauridae", "era": "Triassic", "type": "Ornithischian", "early_age": 201.4, "late_age": 192.9, "country": "ZA"}, {"lat": -30.5667, "lng": 27.4333, "id": "1586685", "name": "Heterodontosaurus tucki", "era": "Triassic", "type": "Ornithischian", "early_age": 201.4, "late_age": 192.9, "country": "ZA"}, {"lat": -29.852, "lng": 27.36, "id": "1639129", "name": "Ornithischia", "era": "Triassic", "type": "Ornithischian", "early_age": 201.4, "late_age": 192.9, "country": "LS"}, {"lat": -29.852, "lng": 27.36, "id": "1639131", "name": "Massospondylus", "era": "Triassic", "type": "Theropod", "early_age": 201.4, "late_age": 192.9, "country": "LS"}, {"lat": -30.3928, "lng": 27.4957, "id": "1639681", "name": "Sauropodomorpha", "era": "Triassic", "type": "Theropod", "early_age": 227.3, "late_age": 205.7, "country": "ZA"}, {"lat": -30.3928, "lng": 27.4957, "id": "1639683", "name": "Theropoda", "era": "Triassic", "type": "Theropod", "early_age": 227.3, "late_age": 205.7, "country": "ZA"}, {"lat": -30.6155, "lng": 27.3476, "id": "1685061", "name": "Sauropodomorpha", "era": "Triassic", "type": "Theropod", "early_age": 227.3, "late_age": 201.4, "country": "ZA"}, {"lat": -30.3792, "lng": 27.5892, "id": "1685803", "name": "Ralikhomopus aviator", "era": "Jurassic", "type": "Theropod", "early_age": 192.9, "late_age": 184.2, "country": "LS"}]}