{"zoom": 7, "x": 88, "y": 48, "points": [{"lat": 39.2158, "lng": 68.561, "id": "520757", "name": "Ravatichnus kotshnevi", "era": "Jurassic", "type": "Theropod", "early_age": 174.7, "late_age": 143.1, "country": "TJ"}, {"lat": 39.2158, "lng": 68.561, "id": "520758", "name": "Theropoda", "era": "Jurassic", "type": "Theropod", "early_age": 174.7, "late_age": 143.1, "country": "TJ"}, {"lat": 39.2158, "lng": 68.561, "id": "520759", "name": "Coelurosaurichnus romanovskyi", "era": "Jurassic", "type": "Theropod", "early_age": 174.7, "late_age": 143.1, "country": "TJ"}, {"lat": 39.2158, "lng": 68.561, "id": "520760", "name": "Ornithopoda", "era": "Jurassic", "type": "Ornithischian", "early_age": 174.7, "late_age": 143.1, "country": "TJ"}, {"lat": 39.0833, "lng": 70.1, "id": "559745", "name": "Dinosauria", "era": "Jurassic", "type": "Marine Reptile", "early_age": 161.5, "late_age": 143.1, "country": "TJ"}, {"lat": 40.4924, "lng": 69.7026, "id": "562665", "name": "Dromaeosauridae", "era": "Cretaceous", "type": "Theropod", "early_age": 85.7, "late_age": 83.6, "country": "TJ"}, {"lat": 40.4924, "lng": 69.7026, "id": "562666", "name": "Ornithomimidae", "era": "Cretaceous", "type": "Theropod", "early_age": 85.7, "late_age": 83.6, "country": "TJ"}, {"lat": 40.4924, "lng": 69.7026, "id": "562667", "name": "Alectrosaurus", "era": "Cretaceous", "type": "Theropod", "early_age": 85.7, "late_age": 83.6, "country": "TJ"}, {"lat": 40.4924, "lng": 69.7026, "id": "562668", "name": "Titanosauria", "era": "Cretaceous", "type": "Theropod", "early_age": 85.7, "late_age": 83.6, "country": "TJ"}, {"lat": 40.4924, "lng": 69.7026, "id": "562669", "name": "Ankylosauridae", "era": "Cretaceous", "type": "Ornithischian", "early_age": 85.7, "late_age": 83.6, "country": "TJ"}, {"lat": 40.4924, "lng": 69.7026, "id": "562670", "name": "Hadrosauridae", "era": "Cretaceous", "type": "Ornithischian", "early_age": 85.7, "late_age": 83.6, "country": "TJ"}, {"lat": 40.4924, "lng": 69.7026, "id": "562671", "name": "Hypsilophodontidae", "era": "Cretaceous", "type": "Ornithischian", "early_age": 85.7, "late_age": 83.6, "country": "TJ"}, {"lat": 40.7167, "lng": 68.5167, "id": "562759", "name": "Dinosauria", "era": "Cretaceous", "type": "Marine Reptile", "early_age": 85.7, "late_age": 83.6, "country": "UZ"}, {"lat": 38.8678, "lng": 70.0347, "id": "567825", "name": "Dinosauria", "era": "Jurassic", "type": "Marine Reptile", "early_age": 165.3, "late_age": 154.8, "country": "TJ"}, {"lat": 40.4924, "lng": 69.7026, "id": "575065", "name": "Therizinosauridae", "era": "Cretaceous", "type": "Theropod", "early_age": 85.7, "late_age": 83.6, "country": "TJ"}, {"lat": 40.4924, "lng": 69.7026, "id": "575066", "name": "Tyrannosauridae", "era": "Cretaceous", "type": "Theropod", "early_age": 85.7, "late_age": 83.6, "country": "TJ"}, {"lat": 40.4924, "lng": 69.7026, "id": "575067", "name": "Coeluroidea", "era": "Cretaceous", "type": "Theropod", "early_age": 85.7, "late_age": 83.6, "country": "TJ"}, {"lat": 40.4924, "lng": 69.7026, "id": "575068", "name": "Hadrosaurinae", "era": "Cretaceous", "type": "Ornithischian", "early_age": 85.7, "late_age": 83.6, "country": "TJ"}, {"lat": 40.4924, "lng": 69.7026, "id": "575069", "name": "Troodontidae", "era": "Cretaceous", "type": "Theropod", "early_age": 85.7, "late_age": 83.6, "country": "TJ"}, {"lat": 40.4924, "lng": 69.7026, "id": "575070", "name": "Oviraptoridae", "era": "Cretaceous", "type": "Theropod", "early_age": 85.7, "late_age": 83.6, "country": "TJ"}, {"lat": 40.4924, "lng": 69.7026, "id": "575071", "name": "Neoceratopsia", "era": "Cretaceous", "type": "Ornithischian", "early_age": 85.7, "late_age": 83.6, "country": "TJ"}, {"lat": 39.2158, "lng": 68.561, "id": "994447", "name": "Brontozoum thianschanicum", "era": "Jurassic", "type": "Theropod", "early_age": 174.7, "late_age": 143.1, "country": "TJ"}, {"lat": 38.8397, "lng": 70.1564, "id": "1125676", "name": "Dinosauria", "era": "Jurassic", "type": "Marine Reptile", "early_age": 165.3, "late_age": 154.8, "country": "TJ"}, {"lat": 40.4924, "lng": 69.7026, "id": "1581455", "name": "Kansaignathus sogdianus", "era": "Cretaceous", "type": "Theropod", "early_age": 85.7, "late_age": 83.6, "country": "TJ"}]}