{"zoom": 6, "x": 17, "y": 24, "points": [{"lat": 38.25, "lng": -83.75, "id": "4975", "name": "Bath Furnace", "fall": "Fell", "recclass": "L6", "massRange": "10-100kg"}, {"lat": 40.5, "lng": -80.0833, "id": "5128", "name": "Bradford Woods", "fall": "Fell", "recclass": "L", "massRange": "100g-1kg"}, {"lat": 37.6219, "lng": -82.2372, "id": "5175", "name": "Burnwell", "fall": "Fell", "recclass": "H4-an", "massRange": "1-10kg"}, {"lat": 40.9333, "lng": -79.7333, "id": "5349", "name": "Chicora", "fall": "Fell", "recclass": "LL6", "massRange": "100g-1kg"}, {"lat": 36.8333, "lng": -84.35, "id": "5496", "name": "Cumberland Falls", "fall": "Fell", "recclass": "Aubrite", "massRange": "10-100kg"}, {"lat": 38.4, "lng": -84.25, "id": "5500", "name": "Cynthiana", "fall": "Fell", "recclass": "L/LL4", "massRange": "1-10kg"}, {"lat": 40.0, "lng": -81.7667, "id": "16953", "name": "New Concord", "fall": "Fell", "recclass": "L6", "massRange": ">100kg"}, {"lat": 39.1167, "lng": -83.85, "id": "18888", "name": "Pricetown", "fall": "Fell", "recclass": "L6", "massRange": "100g-1kg"}, {"lat": 38.1667, "lng": -79.0833, "id": "4897", "name": "Augusta County", "fall": "Found", "recclass": "Iron, IIIAB", "massRange": "10-100kg"}, {"lat": 37.5, "lng": -79.75, "id": "5116", "name": "Botetourt County", "fall": "Found", "recclass": "Iron", "massRange": "100g-1kg"}, {"lat": 38.0, "lng": -84.1667, "id": "5373", "name": "Clark County", "fall": "Found", "recclass": "Iron, IIIF", "massRange": "10-100kg"}, {"lat": 37.2333, "lng": -80.7333, "id": "5462", "name": "Cranberry Plains", "fall": "Found", "recclass": "Iron, IVA", "massRange": "<100g"}, {"lat": 39.75, "lng": -84.1667, "id": "6620", "name": "Dayton", "fall": "Found", "recclass": "Iron, IAB-sLH", "massRange": "10-100kg"}, {"lat": 36.85, "lng": -82.45, "id": "7747", "name": "Dungannon", "fall": "Found", "recclass": "Iron, IAB-MG", "massRange": "10-100kg"}, {"lat": 39.8667, "lng": -83.95, "id": "10037", "name": "Enon", "fall": "Found", "recclass": "Iron, ungrouped", "massRange": "100g-1kg"}, {"lat": 40.0167, "lng": -82.8667, "id": "10842", "name": "Gahanna", "fall": "Found", "recclass": "Iron, IAB-MG", "massRange": "1-10kg"}, {"lat": 37.8333, "lng": -80.3167, "id": "11194", "name": "Greenbrier County", "fall": "Found", "recclass": "Iron, IIIAB", "massRange": "1-10kg"}, {"lat": 36.9333, "lng": -80.5, "id": "12029", "name": "Indian Valley", "fall": "Found", "recclass": "Iron, IIAB", "massRange": "10-100kg"}, {"lat": 37.9, "lng": -82.3833, "id": "12081", "name": "Jenny's Creek", "fall": "Found", "recclass": "Iron, IAB-MG", "massRange": "10-100kg"}, {"lat": 37.2167, "lng": -82.0, "id": "12271", "name": "Keen Mountain", "fall": "Found", "recclass": "Iron, IIAB", "massRange": "1-10kg"}, {"lat": 40.6667, "lng": -84.35, "id": "12350", "name": "Kossuth", "fall": "Found", "recclass": "Iron, IVA", "massRange": "1-10kg"}, {"lat": 38.9, "lng": -79.1833, "id": "12457", "name": "Landes", "fall": "Found", "recclass": "Iron, IAB-MG", "massRange": "10-100kg"}, {"lat": 39.4167, "lng": -79.15, "id": "14680", "name": "Lonaconing", "fall": "Found", "recclass": "Iron, IAB-sHL", "massRange": "1-10kg"}, {"lat": 40.0, "lng": -78.85, "id": "16952", "name": "New Baltimore", "fall": "Found", "recclass": "Iron, ungrouped", "massRange": "10-100kg"}, {"lat": 40.4333, "lng": -80.0, "id": "18838", "name": "Pittsburg", "fall": "Found", "recclass": "Iron, IAB-MG", "massRange": "100g-1kg"}, {"lat": 38.6667, "lng": -82.7833, "id": "18880", "name": "Powellsville", "fall": "Found", "recclass": "H5", "massRange": "1-10kg"}, {"lat": 38.2167, "lng": -79.05, "id": "23716", "name": "Staunton", "fall": "Found", "recclass": "Iron, IIIE", "massRange": "10-100kg"}, {"lat": 39.32, "lng": -82.37, "id": "23880", "name": "Tarlton", "fall": "Found", "recclass": "H4", "massRange": "100g-1kg"}, {"lat": 36.6333, "lng": -83.8333, "id": "24203", "name": "Waldron Ridge", "fall": "Found", "recclass": "Iron, IAB complex", "massRange": "10-100kg"}, {"lat": 40.7667, "lng": -81.95, "id": "24336", "name": "Wooster", "fall": "Found", "recclass": "Iron, IAB-sLL", "massRange": "10-100kg"}]}