{"zoom": 6, "x": 34, "y": 21, "points": [{"lat": 49.3667, "lng": 16.6333, "id": "5072", "name": "Blansko", "fall": "Fell", "recclass": "H6", "massRange": "100g-1kg"}, {"lat": 50.6, "lng": 16.3, "id": "5133", "name": "Braunau", "fall": "Fell", "recclass": "Iron, IIAB", "massRange": "10-100kg"}, {"lat": 50.1833, "lng": 12.7333, "id": "7823", "name": "Elbogen", "fall": "Fell", "recclass": "Iron, IID", "massRange": ">100kg"}, {"lat": 52.2167, "lng": 11.25, "id": "10049", "name": "Erxleben", "fall": "Fell", "recclass": "H6", "massRange": "1-10kg"}, {"lat": 50.6667, "lng": 16.7667, "id": "10936", "name": "Gnadenfrei", "fall": "Fell", "recclass": "H5", "massRange": "1-10kg"}, {"lat": 51.9333, "lng": 15.5, "id": "11426", "name": "Grüneberg", "fall": "Fell", "recclass": "H4", "massRange": "100g-1kg"}, {"lat": 50.2, "lng": 14.85, "id": "14661", "name": "Lissa", "fall": "Fell", "recclass": "L6", "massRange": "10-100kg"}, {"lat": 50.5333, "lng": 14.1167, "id": "18849", "name": "Ploschkovitz", "fall": "Fell", "recclass": "L5", "massRange": "<100g"}, {"lat": 50.9333, "lng": 12.1333, "id": "18853", "name": "Pohlitz", "fall": "Fell", "recclass": "L5", "massRange": "1-10kg"}, {"lat": 49.6667, "lng": 14.0333, "id": "18887", "name": "Pribram", "fall": "Fell", "recclass": "H5", "massRange": "1-10kg"}, {"lat": 51.5333, "lng": 14.8833, "id": "22796", "name": "Sagan", "fall": "Fell", "recclass": "Stone-uncl"}, {"lat": 49.2833, "lng": 15.5667, "id": "23713", "name": "Stannern", "fall": "Fell", "recclass": "Eucrite-mmict", "massRange": "10-100kg"}, {"lat": 50.5381, "lng": 16.2633, "id": "23737", "name": "Suchy Dul", "fall": "Fell", "recclass": "L6", "massRange": "100g-1kg"}, {"lat": 49.4, "lng": 14.65, "id": "23776", "name": "Tabor", "fall": "Fell", "recclass": "H5", "massRange": "1-10kg"}, {"lat": 52.2167, "lng": 13.1667, "id": "24042", "name": "Trebbin", "fall": "Fell", "recclass": "LL6", "massRange": "1-10kg"}, {"lat": 49.975, "lng": 16.375, "id": "24132", "name": "Usti Nad Orlici", "fall": "Fell", "recclass": "L6", "massRange": "1-10kg"}, {"lat": 49.8833, "lng": 13.9167, "id": "30397", "name": "Zebrak", "fall": "Fell", "recclass": "H5", "massRange": "1-10kg"}, {"lat": 49.7667, "lng": 14.6333, "id": "54854", "name": "Benešov (a)", "fall": "Found", "recclass": "LL3.5", "massRange": "<100g"}, {"lat": 49.7667, "lng": 14.6333, "id": "54855", "name": "Benešov (b)", "fall": "Found", "recclass": "H5", "massRange": "<100g"}, {"lat": 49.05, "lng": 13.7667, "id": "5099", "name": "Bohumilitz", "fall": "Found", "recclass": "Iron, IAB-MG", "massRange": "10-100kg"}, {"lat": 51.2667, "lng": 13.9, "id": "34493", "name": "Königsbrück", "fall": "Found", "recclass": "H/L4", "massRange": "<100g"}, {"lat": 50.9667, "lng": 13.95, "id": "16943", "name": "Nenntmannsdorf", "fall": "Found", "recclass": "Iron, IIAB", "massRange": "10-100kg"}, {"lat": 52.2667, "lng": 15.55, "id": "23474", "name": "Seeläsgen", "fall": "Found", "recclass": "Iron, IAB-MG", "massRange": ">100kg"}, {"lat": 49.75, "lng": 14.4167, "id": "23482", "name": "Selcany", "fall": "Found", "recclass": "Iron", "massRange": "<100g"}, {"lat": 50.5, "lng": 12.5, "id": "23722", "name": "Steinbach", "fall": "Found", "recclass": "Iron, IVA-an", "massRange": "10-100kg"}, {"lat": 49.9833, "lng": 12.8667, "id": "23902", "name": "Teplá", "fall": "Found", "recclass": "Iron, IIIAB", "massRange": "10-100kg"}, {"lat": 49.0903, "lng": 11.3333, "id": "24124", "name": "Unter-Mässing", "fall": "Found", "recclass": "Iron, IIC", "massRange": "10-100kg"}, {"lat": 49.2167, "lng": 15.8, "id": "24170", "name": "Vicenice", "fall": "Found", "recclass": "Iron, IID", "massRange": "1-10kg"}]}