{"zoom": 6, "x": 37, "y": 22, "points": [{"lat": 46.35, "lng": 30.5833, "id": "11208", "name": "Grossliebenthal", "fall": "Fell", "recclass": "L6", "massRange": "1-10kg"}, {"lat": 47.8333, "lng": 30.7667, "id": "12364", "name": "Krymka", "fall": "Fell", "recclass": "LL3.2", "massRange": "10-100kg"}, {"lat": 48.0667, "lng": 30.9667, "id": "16634", "name": "Mighei", "fall": "Fell", "recclass": "CM2", "massRange": "1-10kg"}, {"lat": 47.2167, "lng": 29.8667, "id": "23190", "name": "Savtschenskoje", "fall": "Fell", "recclass": "LL4", "massRange": "1-10kg"}, {"lat": 46.15, "lng": 32.8333, "id": "24154", "name": "Vavilovka", "fall": "Fell", "recclass": "LL6", "massRange": "1-10kg"}, {"lat": 46.7, "lng": 32.6, "id": "10871", "name": "Genichesk", "fall": "Found", "recclass": "L5/6", "massRange": "100g-1kg"}, {"lat": 46.5, "lng": 30.7667, "id": "17986", "name": "Odessa (stone)", "fall": "Found", "recclass": "H4", "massRange": "1-10kg"}, {"lat": 46.4, "lng": 30.8, "id": "23739", "name": "Sukhoj Liman", "fall": "Found", "recclass": "H4/5", "massRange": "10-100kg"}]}