{"zoom": 6, "x": 45, "y": 28, "points": [{"lat": 20.8833, "lng": 76.8667, "id": "2298", "name": "Andura", "fall": "Fell", "recclass": "H6", "massRange": "10-100kg"}, {"lat": 20.8833, "lng": 74.8333, "id": "5037", "name": "Bhagur", "fall": "Fell", "recclass": "L6", "massRange": "<100g"}, {"lat": 20.2667, "lng": 76.0167, "id": "5320", "name": "Chandakapur", "fall": "Fell", "recclass": "L5", "massRange": "1-10kg"}, {"lat": 18.75, "lng": 75.3333, "id": "12072", "name": "Jamkheir", "fall": "Fell", "recclass": "H6", "massRange": "<100g"}, {"lat": 17.8333, "lng": 73.9833, "id": "12236", "name": "Kalumbi", "fall": "Fell", "recclass": "L6", "massRange": "1-10kg"}, {"lat": 20.3392, "lng": 73.2233, "id": "47357", "name": "Kaprada", "fall": "Fell", "recclass": "L5/6", "massRange": "1-10kg"}, {"lat": 21.8667, "lng": 76.0333, "id": "12435", "name": "Lakangaon", "fall": "Fell", "recclass": "Eucrite-mmict", "massRange": "100g-1kg"}, {"lat": 20.9667, "lng": 76.1, "id": "15403", "name": "Manegaon", "fall": "Fell", "recclass": "Diogenite", "massRange": "<100g"}, {"lat": 19.25, "lng": 77.0, "id": "16908", "name": "Naoki", "fall": "Fell", "recclass": "H6", "massRange": "10-100kg"}, {"lat": 20.1333, "lng": 75.5, "id": "18810", "name": "Phulmari", "fall": "Found", "recclass": "Stone-uncl", "massRange": "1-10kg"}, {"lat": 18.3167, "lng": 73.9167, "id": "23612", "name": "Singhur", "fall": "Found", "recclass": "Pallasite?", "massRange": "10-100kg"}]}