{"zoom": 6, "x": 47, "y": 27, "points": [{"lat": 26.5833, "lng": 85.5667, "id": "2294", "name": "Andhara", "fall": "Fell", "recclass": "Stone-uncl", "massRange": "1-10kg"}, {"lat": 22.0833, "lng": 86.9, "id": "5041", "name": "Bholghati", "fall": "Fell", "recclass": "Howardite", "massRange": "1-10kg"}, {"lat": 24.2333, "lng": 89.05, "id": "10948", "name": "Gopalpur", "fall": "Fell", "recclass": "H6", "massRange": "1-10kg"}, {"lat": 25.9167, "lng": 86.3667, "id": "15379", "name": "Madhipura", "fall": "Fell", "recclass": "L", "massRange": "100g-1kg"}, {"lat": 23.05, "lng": 86.7, "id": "15402", "name": "Manbhoom", "fall": "Fell", "recclass": "LL6", "massRange": "1-10kg"}, {"lat": 26.1333, "lng": 85.5333, "id": "16885", "name": "Muzaffarpur", "fall": "Fell", "recclass": "Iron, IAB-sHL", "massRange": "1-10kg"}, {"lat": 26.2, "lng": 85.4, "id": "18109", "name": "Parsa", "fall": "Fell", "recclass": "EH3", "massRange": "100g-1kg"}, {"lat": 25.8, "lng": 88.45, "id": "18834", "name": "Pirgunje", "fall": "Fell", "recclass": "L6", "massRange": "100g-1kg"}, {"lat": 24.1667, "lng": 87.7667, "id": "22385", "name": "Rampurhat", "fall": "Fell", "recclass": "LL", "massRange": "<100g"}, {"lat": 23.9833, "lng": 87.0833, "id": "22387", "name": "Ranchapur", "fall": "Fell", "recclass": "H4", "massRange": "100g-1kg"}, {"lat": 26.75, "lng": 84.7833, "id": "23476", "name": "Segowlie", "fall": "Fell", "recclass": "LL6", "massRange": "1-10kg"}, {"lat": 23.1, "lng": 87.3, "id": "23521", "name": "Shalka", "fall": "Fell", "recclass": "Diogenite", "massRange": "1-10kg"}, {"lat": 24.55, "lng": 84.8333, "id": "23530", "name": "Shergotty", "fall": "Fell", "recclass": "Martian (shergottite)", "massRange": "1-10kg"}, {"lat": 25.85, "lng": 87.5775, "id": "23534", "name": "Shikarpur", "fall": "Fell", "recclass": "L6", "massRange": "1-10kg"}, {"lat": 23.1, "lng": 87.4333, "id": "24187", "name": "Vishnupur", "fall": "Fell", "recclass": "LL4-6", "massRange": "1-10kg"}]}