{"zoom": 7, "x": 113, "y": 50, "points": [{"lat": 35.65, "lng": 139.3333, "id": "11468", "name": "Hachi-oji", "fall": "Fell", "recclass": "H?", "massRange": "<100g"}, {"lat": 36.0417, "lng": 139.9567, "id": "12240", "name": "Kamiomi", "fall": "Fell", "recclass": "H5", "massRange": "100g-1kg"}, {"lat": 35.7333, "lng": 139.75, "id": "12343", "name": "Komagome", "fall": "Fell", "recclass": "Iron", "massRange": "100g-1kg"}, {"lat": 36.1833, "lng": 139.2167, "id": "17998", "name": "Okabe", "fall": "Fell", "recclass": "H5", "massRange": "100g-1kg"}, {"lat": 35.8667, "lng": 139.4, "id": "23192", "name": "Sayama", "fall": "Fell", "recclass": "CM2", "massRange": "100g-1kg"}, {"lat": 36.0633, "lng": 140.145, "id": "24059", "name": "Tsukuba", "fall": "Fell", "recclass": "H5-6", "massRange": "100g-1kg"}, {"lat": 35.765, "lng": 140.41, "id": "23532", "name": "Shibayama", "fall": "Found", "recclass": "L6", "massRange": "100g-1kg"}, {"lat": 36.0333, "lng": 138.0833, "id": "23764", "name": "Suwa", "fall": "Found", "recclass": "Iron", "massRange": "100g-1kg"}]}