{"zoom": 7, "x": 29, "y": 44, "points": [{"lat": 47.8167, "lng": -96.85, "id": "10107", "name": "Fisher", "fall": "Fell", "recclass": "L6", "massRange": "10-100kg"}, {"lat": 48.6833, "lng": -97.1667, "id": "5124", "name": "Bowesmont", "fall": "Found", "recclass": "L6", "massRange": "1-10kg"}, {"lat": 48.7833, "lng": -97.35, "id": "5125", "name": "Bowesmont (b)", "fall": "Found", "recclass": "L5", "massRange": "1-10kg"}, {"lat": 48.6667, "lng": -97.1167, "id": "7729", "name": "Drayton", "fall": "Found", "recclass": "H4/5", "massRange": "1-10kg"}, {"lat": 47.9583, "lng": -96.7, "id": "10063", "name": "Euclid", "fall": "Found", "recclass": "H5", "massRange": "1-10kg"}, {"lat": 48.7167, "lng": -97.3, "id": "10928", "name": "Glasston", "fall": "Found", "recclass": "L5", "massRange": "1-10kg"}, {"lat": 48.0, "lng": -97.9333, "id": "16969", "name": "Niagara", "fall": "Found", "recclass": "Iron, IAB-sLL", "massRange": "100g-1kg"}]}