{"zoom": 7, "x": 33, "y": 48, "points": [{"lat": 40.0853, "lng": -86.055, "id": "16985", "name": "Noblesville", "fall": "Fell", "recclass": "H4-6", "massRange": "100g-1kg"}, {"lat": 39.1167, "lng": -84.5, "id": "5366", "name": "Cincinnati", "fall": "Found", "recclass": "Iron, IIAB", "massRange": "1-10kg"}, {"lat": 39.3333, "lng": -84.6, "id": "10069", "name": "Fairfield", "fall": "Found", "recclass": "Iron, IAB-MG", "massRange": "1-10kg"}, {"lat": 38.9197, "lng": -85.9472, "id": "11816", "name": "Hangman Crossing", "fall": "Found", "recclass": "H4", "massRange": "1-10kg"}, {"lat": 40.4833, "lng": -86.3667, "id": "12340", "name": "Kokomo", "fall": "Found", "recclass": "Iron, IVB", "massRange": "1-10kg"}, {"lat": 40.4167, "lng": -86.8833, "id": "12412", "name": "Lafayette (stone)", "fall": "Found", "recclass": "Martian (nakhlite)", "massRange": "100g-1kg"}, {"lat": 39.8, "lng": -84.8167, "id": "16961", "name": "New Westville", "fall": "Found", "recclass": "Iron, IVA", "massRange": "1-10kg"}, {"lat": 39.5, "lng": -85.5, "id": "22785", "name": "Rush County", "fall": "Found", "recclass": "H5", "massRange": "1-10kg"}, {"lat": 39.6167, "lng": -85.45, "id": "22787", "name": "Rushville", "fall": "Found", "recclass": "L5", "massRange": "<100g"}]}