{"zoom": 7, "x": 65, "y": 44, "points": [{"lat": 47.7167, "lng": 5.3667, "id": "5331", "name": "Chassigny", "fall": "Fell", "recclass": "Martian (chassignite)", "massRange": "1-10kg"}, {"lat": 47.9333, "lng": 2.9167, "id": "5332", "name": "Château-Renard", "fall": "Fell", "recclass": "L6", "massRange": "10-100kg"}, {"lat": 48.35, "lng": 3.25, "id": "12769", "name": "Les Ormes", "fall": "Fell", "recclass": "L6", "massRange": "100g-1kg"}, {"lat": 48.45, "lng": 3.9333, "id": "23092", "name": "St. Mesmin", "fall": "Fell", "recclass": "LL6", "massRange": "1-10kg"}, {"lat": 48.4833, "lng": 3.5833, "id": "23096", "name": "Saint-Aubin", "fall": "Found", "recclass": "Iron, IIIAB", "massRange": ">100kg"}, {"lat": 47.9167, "lng": 4.35, "id": "24182", "name": "Villedieu", "fall": "Found", "recclass": "H4", "massRange": "10-100kg"}]}