{"zoom": 4, "x": 11, "y": 6, "points": [{"lat": 23.35, "lng": 80.3667, "id": "256442", "name": "Titanosauria", "era": "Cretaceous", "type": "Theropod", "early_age": 72.2, "late_age": 66.0, "country": "IN"}, {"lat": 23.1687, "lng": 79.9723, "id": "276680", "name": "Titanosauridae", "era": "Cretaceous", "type": "Theropod", "early_age": 72.2, "late_age": 66.0, "country": "IN"}, {"lat": 23.1687, "lng": 79.9723, "id": "276681", "name": "Lametasaurus indicus", "era": "Cretaceous", "type": "Theropod", "early_age": 72.2, "late_age": 66.0, "country": "IN"}, {"lat": 23.1687, "lng": 79.9723, "id": "276682", "name": "Indosuchus raptorius", "era": "Cretaceous", "type": "Theropod", "early_age": 72.2, "late_age": 66.0, "country": "IN"}, {"lat": 23.1687, "lng": 79.9723, "id": "276683", "name": "Indosaurus matleyi", "era": "Cretaceous", "type": "Theropod", "early_age": 72.2, "late_age": 66.0, "country": "IN"}, {"lat": 23.1687, "lng": 79.9723, "id": "276684", "name": "Abelisauridae", "era": "Cretaceous", "type": "Theropod", "early_age": 72.2, "late_age": 66.0, "country": "IN"}, {"lat": 23.1687, "lng": 79.9723, "id": "276685", "name": "Noasauridae", "era": "Cretaceous", "type": "Theropod", "early_age": 72.2, "late_age": 66.0, "country": "IN"}, {"lat": 23.1687, "lng": 79.9723, "id": "276686", "name": "Abelisauridae", "era": "Cretaceous", "type": "Theropod", "early_age": 72.2, "late_age": 66.0, "country": "IN"}, {"lat": 23.1687, "lng": 79.9723, "id": "276687", "name": "Laevisuchus indicus", "era": "Cretaceous", "type": "Theropod", "early_age": 72.2, "late_age": 66.0, "country": "IN"}, {"lat": 23.1687, "lng": 79.9723, "id": "276688", "name": "Laevisuchus indicus", "era": "Cretaceous", "type": "Theropod", "early_age": 72.2, "late_age": 66.0, "country": "IN"}, {"lat": 23.1687, "lng": 79.9723, "id": "276689", "name": "Abelisauridae", "era": "Cretaceous", "type": "Theropod", "early_age": 72.2, "late_age": 66.0, "country": "IN"}, {"lat": 23.1687, "lng": 79.9723, "id": "276690", "name": "Abelisauridae", "era": "Cretaceous", "type": "Theropod", "early_age": 72.2, "late_age": 66.0, "country": "IN"}, {"lat": 23.1687, "lng": 79.9723, "id": "276691", "name": "Abelisauroidea", "era": "Cretaceous", "type": "Theropod", "early_age": 72.2, "late_age": 66.0, "country": "IN"}, {"lat": 23.1687, "lng": 79.9723, "id": "276692", "name": "Abelisauroidea", "era": "Cretaceous", "type": "Theropod", "early_age": 72.2, "late_age": 66.0, "country": "IN"}, {"lat": 23.1687, "lng": 79.9723, "id": "276693", "name": "Abelisauroidea", "era": "Cretaceous", "type": "Theropod", "early_age": 72.2, "late_age": 66.0, "country": "IN"}, {"lat": 23.1687, "lng": 79.9723, "id": "276694", "name": "Abelisauroidea", "era": "Cretaceous", "type": "Theropod", "early_age": 72.2, "late_age": 66.0, "country": "IN"}, {"lat": 23.1687, "lng": 79.9723, "id": "276695", "name": "Noasauridae", "era": "Cretaceous", "type": "Theropod", "early_age": 72.2, "late_age": 66.0, "country": "IN"}, {"lat": 23.1687, "lng": 79.9723, "id": "276697", "name": "Sauropoda", "era": "Cretaceous", "type": "Theropod", "early_age": 72.2, "late_age": 66.0, "country": "IN"}, {"lat": 23.1687, "lng": 79.9723, "id": "276698", "name": "Titanosauria", "era": "Cretaceous", "type": "Theropod", "early_age": 72.2, "late_age": 66.0, "country": "IN"}, {"lat": 23.1687, "lng": 79.9723, "id": "276699", "name": "Jainosaurus septentrionalis", "era": "Cretaceous", "type": "Theropod", "early_age": 72.2, "late_age": 66.0, "country": "IN"}, {"lat": 23.1687, "lng": 79.9723, "id": "276700", "name": "Carnosauria", "era": "Cretaceous", "type": "Theropod", "early_age": 72.2, "late_age": 66.0, "country": "IN"}, {"lat": 23.2667, "lng": 72.6667, "id": "301382", "name": "Aves", "era": "Cretaceous", "type": "Other", "early_age": 66.0, "late_age": 16.0, "country": "IN"}, {"lat": 23.0572, "lng": 73.3419, "id": "367089", "name": "Rajasaurus narmadensis", "era": "Cretaceous", "type": "Theropod", "early_age": 72.2, "late_age": 66.0, "country": "IN"}, {"lat": 23.0572, "lng": 73.3419, "id": "367090", "name": "Titanosauria", "era": "Cretaceous", "type": "Theropod", "early_age": 72.2, "late_age": 66.0, "country": "IN"}, {"lat": 23.0572, "lng": 73.3419, "id": "395358", "name": "Abelisauridae", "era": "Cretaceous", "type": "Theropod", "early_age": 72.2, "late_age": 66.0, "country": "IN"}, {"lat": 23.0572, "lng": 73.3419, "id": "395359", "name": "Theropoda", "era": "Cretaceous", "type": "Theropod", "early_age": 72.2, "late_age": 66.0, "country": "IN"}, {"lat": 23.0572, "lng": 73.3419, "id": "395360", "name": "Abelisauridae", "era": "Cretaceous", "type": "Theropod", "early_age": 72.2, "late_age": 66.0, "country": "IN"}, {"lat": 23.0572, "lng": 73.3419, "id": "395361", "name": "Abelisauridae", "era": "Cretaceous", "type": "Theropod", "early_age": 72.2, "late_age": 66.0, "country": "IN"}, {"lat": 23.0572, "lng": 73.3419, "id": "395362", "name": "Abelisauridae", "era": "Cretaceous", "type": "Theropod", "early_age": 72.2, "late_age": 66.0, "country": "IN"}, {"lat": 23.0572, "lng": 73.3419, "id": "395363", "name": "Abelisauroidea", "era": "Cretaceous", "type": "Theropod", "early_age": 72.2, "late_age": 66.0, "country": "IN"}, {"lat": 23.0572, "lng": 73.3419, "id": "395364", "name": "Titanosauria", "era": "Cretaceous", "type": "Theropod", "early_age": 72.2, "late_age": 66.0, "country": "IN"}, {"lat": 22.3667, "lng": 74.7667, "id": "401125", "name": "Sauropoda", "era": "Cretaceous", "type": "Theropod", "early_age": 100.5, "late_age": 89.8, "country": "IN"}, {"lat": 22.3667, "lng": 74.7667, "id": "401128", "name": "Dinosauria", "era": "Cretaceous", "type": "Marine Reptile", "early_age": 100.5, "late_age": 89.8, "country": "IN"}, {"lat": 22.3167, "lng": 74.8333, "id": "401129", "name": "Sauropoda", "era": "Cretaceous", "type": "Theropod", "early_age": 100.5, "late_age": 89.8, "country": "IN"}, {"lat": 22.3167, "lng": 74.8333, "id": "401182", "name": "Dinosauria", "era": "Cretaceous", "type": "Marine Reptile", "early_age": 100.5, "late_age": 89.8, "country": "IN"}, {"lat": 22.4, "lng": 75.0833, "id": "401184", "name": "Sauropoda", "era": "Cretaceous", "type": "Theropod", "early_age": 100.5, "late_age": 89.8, "country": "IN"}, {"lat": 22.35, "lng": 74.6, "id": "401185", "name": "Dinosauria", "era": "Cretaceous", "type": "Marine Reptile", "early_age": 100.5, "late_age": 89.8, "country": "IN"}, {"lat": 22.3167, "lng": 74.8333, "id": "401186", "name": "Dinosauria", "era": "Cretaceous", "type": "Marine Reptile", "early_age": 100.5, "late_age": 89.8, "country": "IN"}, {"lat": 22.2833, "lng": 74.7833, "id": "401237", "name": "Dinosauria", "era": "Cretaceous", "type": "Marine Reptile", "early_age": 100.5, "late_age": 89.8, "country": "IN"}, {"lat": 23.1687, "lng": 79.9723, "id": "405262", "name": "Ceratosauria", "era": "Cretaceous", "type": "Theropod", "early_age": 72.2, "late_age": 66.0, "country": "IN"}, {"lat": 23.1715, "lng": 79.9696, "id": "513435", "name": "Ankylosauria", "era": "Cretaceous", "type": "Ornithischian", "early_age": 72.2, "late_age": 66.0, "country": "IN"}, {"lat": 39.2158, "lng": 68.561, "id": "520757", "name": "Ravatichnus kotshnevi", "era": "Jurassic", "type": "Theropod", "early_age": 174.7, "late_age": 143.1, "country": "TJ"}, {"lat": 39.2158, "lng": 68.561, "id": "520758", "name": "Theropoda", "era": "Jurassic", "type": "Theropod", "early_age": 174.7, "late_age": 143.1, "country": "TJ"}, {"lat": 39.2158, "lng": 68.561, "id": "520759", "name": "Coelurosaurichnus romanovskyi", "era": "Jurassic", "type": "Theropod", "early_age": 174.7, "late_age": 143.1, "country": "TJ"}, {"lat": 39.2158, "lng": 68.561, "id": "520760", "name": "Ornithopoda", "era": "Jurassic", "type": "Ornithischian", "early_age": 174.7, "late_age": 143.1, "country": "TJ"}, {"lat": 23.7153, "lng": 69.0583, "id": "521753", "name": "Sauropoda", "era": "Jurassic", "type": "Theropod", "early_age": 165.3, "late_age": 161.5, "country": "IN"}, {"lat": 22.9167, "lng": 79.3167, "id": "544658", "name": "Dinosauria", "era": "Cretaceous", "type": "Marine Reptile", "early_age": 72.2, "late_age": 66.0, "country": "IN"}, {"lat": 22.3354, "lng": 74.7865, "id": "546029", "name": "Sauropoda", "era": "Cretaceous", "type": "Theropod", "early_age": 72.2, "late_age": 66.0, "country": "IN"}, {"lat": 23.6667, "lng": 68.5167, "id": "559053", "name": "Theropoda", "era": "Cretaceous", "type": "Theropod", "early_age": 72.2, "late_age": 66.0, "country": "IN"}, {"lat": 23.6667, "lng": 68.5167, "id": "559054", "name": "Dinosauria", "era": "Cretaceous", "type": "Marine Reptile", "early_age": 72.2, "late_age": 66.0, "country": "IN"}, {"lat": 40.7, "lng": 72.6, "id": "559645", "name": "Ornithopoda", "era": "Cretaceous", "type": "Ornithischian", "early_age": 93.9, "late_age": 89.8, "country": "UZ"}, {"lat": 40.7, "lng": 72.6, "id": "559646", "name": "Alectrosaurus", "era": "Cretaceous", "type": "Theropod", "early_age": 93.9, "late_age": 89.8, "country": "UZ"}, {"lat": 40.2331, "lng": 70.9, "id": "559731", "name": "Camarasauridae", "era": "Jurassic", "type": "Theropod", "early_age": 165.3, "late_age": 161.5, "country": "UZ"}, {"lat": 40.2331, "lng": 70.9, "id": "559732", "name": "Sauropoda", "era": "Jurassic", "type": "Theropod", "early_age": 165.3, "late_age": 161.5, "country": "UZ"}, {"lat": 40.2331, "lng": 70.9, "id": "559737", "name": "Theropoda", "era": "Jurassic", "type": "Theropod", "early_age": 165.3, "late_age": 161.5, "country": "UZ"}, {"lat": 40.8967, "lng": 73.4928, "id": "559738", "name": "Theropoda", "era": "Jurassic", "type": "Theropod", "early_age": 168.2, "late_age": 165.3, "country": "KG"}, {"lat": 40.8967, "lng": 73.4928, "id": "559739", "name": "Coelurosauria", "era": "Jurassic", "type": "Theropod", "early_age": 168.2, "late_age": 165.3, "country": "KG"}, {"lat": 40.8967, "lng": 73.4928, "id": "559740", "name": "Sauropoda", "era": "Jurassic", "type": "Theropod", "early_age": 168.2, "late_age": 165.3, "country": "KG"}, {"lat": 39.0833, "lng": 70.1, "id": "559745", "name": "Dinosauria", "era": "Jurassic", "type": "Marine Reptile", "early_age": 161.5, "late_age": 143.1, "country": "TJ"}, {"lat": 40.8967, "lng": 73.4858, "id": "559748", "name": "Ornithopoda", "era": "Cretaceous", "type": "Ornithischian", "early_age": 125.8, "late_age": 113.2, "country": "KG"}, {"lat": 40.8967, "lng": 73.4858, "id": "559749", "name": "Dinosauria", "era": "Cretaceous", "type": "Marine Reptile", "early_age": 125.8, "late_age": 113.2, "country": "KG"}, {"lat": 40.8967, "lng": 73.4858, "id": "559751", "name": "Dinosauria", "era": "Cretaceous", "type": "Marine Reptile", "early_age": 125.8, "late_age": 113.2, "country": "KG"}, {"lat": 40.7833, "lng": 73.1333, "id": "560819", "name": "Dinosauria", "era": "Cretaceous", "type": "Marine Reptile", "early_age": 121.4, "late_age": 113.2, "country": "KG"}, {"lat": 40.3981, "lng": 72.695, "id": "560855", "name": "Theropoda", "era": "Cretaceous", "type": "Theropod", "early_age": 113.2, "late_age": 106.3, "country": "KG"}, {"lat": 40.0683, "lng": 72.3989, "id": "560857", "name": "Ornithomimidae", "era": "Cretaceous", "type": "Theropod", "early_age": 100.5, "late_age": 93.9, "country": "KG"}, {"lat": 40.7214, "lng": 73.16, "id": "560858", "name": "Hadrosauridae", "era": "Cretaceous", "type": "Ornithischian", "early_age": 100.5, "late_age": 93.9, "country": "KG"}, {"lat": 40.6, "lng": 71.8333, "id": "560899", "name": "Hadrosauridae", "era": "Cretaceous", "type": "Ornithischian", "early_age": 100.5, "late_age": 93.9, "country": "UZ"}, {"lat": 40.6, "lng": 71.8333, "id": "560900", "name": "Dinosauria", "era": "Cretaceous", "type": "Marine Reptile", "early_age": 100.5, "late_age": 93.9, "country": "UZ"}, {"lat": 40.3036, "lng": 72.5739, "id": "560907", "name": "Dinosauria", "era": "Cretaceous", "type": "Marine Reptile", "early_age": 100.5, "late_age": 93.9, "country": "KG"}, {"lat": 40.3919, "lng": 73.9033, "id": "560908", "name": "Hadrosauridae", "era": "Cretaceous", "type": "Ornithischian", "early_age": 100.5, "late_age": 93.9, "country": "KG"}, {"lat": 40.3025, "lng": 73.5031, "id": "560909", "name": "Dinosauria", "era": "Cretaceous", "type": "Marine Reptile", "early_age": 100.5, "late_age": 93.9, "country": "KG"}, {"lat": 40.3025, "lng": 73.5031, "id": "560910", "name": "Sauropoda", "era": "Cretaceous", "type": "Theropod", "early_age": 100.5, "late_age": 93.9, "country": "KG"}, {"lat": 40.1761, "lng": 73.4567, "id": "560911", "name": "Carnosauria", "era": "Cretaceous", "type": "Theropod", "early_age": 100.5, "late_age": 93.9, "country": "KG"}, {"lat": 40.1761, "lng": 73.4567, "id": "560912", "name": "Dinosauria", "era": "Cretaceous", "type": "Marine Reptile", "early_age": 100.5, "late_age": 93.9, "country": "KG"}, {"lat": 40.8958, "lng": 73.4869, "id": "560913", "name": "Theropoda", "era": "Cretaceous", "type": "Theropod", "early_age": 100.5, "late_age": 93.9, "country": "KG"}, {"lat": 40.8958, "lng": 73.4869, "id": "560914", "name": "Hadrosauridae", "era": "Cretaceous", "type": "Ornithischian", "early_age": 100.5, "late_age": 93.9, "country": "KG"}, {"lat": 40.1167, "lng": 70.6333, "id": "560923", "name": "Hadrosauridae", "era": "Cretaceous", "type": "Ornithischian", "early_age": 85.7, "late_age": 83.6, "country": "TJ"}, {"lat": 40.6469, "lng": 73.6356, "id": "561870", "name": "Dinosauria", "era": "Cretaceous", "type": "Marine Reptile", "early_age": 100.5, "late_age": 93.9, "country": "KG"}, {"lat": 40.6469, "lng": 73.6356, "id": "561871", "name": "Hadrosauridae", "era": "Cretaceous", "type": "Ornithischian", "early_age": 100.5, "late_age": 93.9, "country": "KG"}, {"lat": 40.9531, "lng": 72.8567, "id": "561885", "name": "Sauropoda", "era": "Cretaceous", "type": "Theropod", "early_age": 100.5, "late_age": 93.9, "country": "KG"}, {"lat": 39.9333, "lng": 73.4, "id": "561948", "name": "Hadrosauridae", "era": "Cretaceous", "type": "Ornithischian", "early_age": 93.9, "late_age": 89.8, "country": "KG"}, {"lat": 40.8119, "lng": 73.2531, "id": "561949", "name": "Dinosauria", "era": "Cretaceous", "type": "Marine Reptile", "early_age": 93.9, "late_age": 89.8, "country": "KG"}, {"lat": 40.4924, "lng": 69.7026, "id": "562665", "name": "Dromaeosauridae", "era": "Cretaceous", "type": "Theropod", "early_age": 85.7, "late_age": 83.6, "country": "TJ"}, {"lat": 40.4924, "lng": 69.7026, "id": "562666", "name": "Ornithomimidae", "era": "Cretaceous", "type": "Theropod", "early_age": 85.7, "late_age": 83.6, "country": "TJ"}, {"lat": 40.4924, "lng": 69.7026, "id": "562667", "name": "Alectrosaurus", "era": "Cretaceous", "type": "Theropod", "early_age": 85.7, "late_age": 83.6, "country": "TJ"}, {"lat": 40.4924, "lng": 69.7026, "id": "562668", "name": "Titanosauria", "era": "Cretaceous", "type": "Theropod", "early_age": 85.7, "late_age": 83.6, "country": "TJ"}, {"lat": 40.4924, "lng": 69.7026, "id": "562669", "name": "Ankylosauridae", "era": "Cretaceous", "type": "Ornithischian", "early_age": 85.7, "late_age": 83.6, "country": "TJ"}, {"lat": 40.4924, "lng": 69.7026, "id": "562670", "name": "Hadrosauridae", "era": "Cretaceous", "type": "Ornithischian", "early_age": 85.7, "late_age": 83.6, "country": "TJ"}, {"lat": 40.4924, "lng": 69.7026, "id": "562671", "name": "Hypsilophodontidae", "era": "Cretaceous", "type": "Ornithischian", "early_age": 85.7, "late_age": 83.6, "country": "TJ"}, {"lat": 40.1167, "lng": 70.6333, "id": "562678", "name": "Coeluridae", "era": "Cretaceous", "type": "Theropod", "early_age": 85.7, "late_age": 83.6, "country": "TJ"}, {"lat": 40.1167, "lng": 70.6333, "id": "562679", "name": "Ornithomimidae", "era": "Cretaceous", "type": "Theropod", "early_age": 85.7, "late_age": 83.6, "country": "TJ"}, {"lat": 40.1167, "lng": 70.6333, "id": "562680", "name": "Ankylosauridae", "era": "Cretaceous", "type": "Ornithischian", "early_age": 85.7, "late_age": 83.6, "country": "TJ"}, {"lat": 40.1167, "lng": 70.6333, "id": "562681", "name": "Hadrosauridae", "era": "Cretaceous", "type": "Ornithischian", "early_age": 85.7, "late_age": 83.6, "country": "TJ"}, {"lat": 40.1167, "lng": 70.6333, "id": "562682", "name": "Deinonychosauria", "era": "Cretaceous", "type": "Theropod", "early_age": 85.7, "late_age": 83.6, "country": "TJ"}, {"lat": 40.1167, "lng": 70.6333, "id": "562683", "name": "Titanosauria", "era": "Cretaceous", "type": "Theropod", "early_age": 85.7, "late_age": 83.6, "country": "TJ"}, {"lat": 40.1167, "lng": 70.6333, "id": "562684", "name": "Dinosauria", "era": "Cretaceous", "type": "Marine Reptile", "early_age": 85.7, "late_age": 72.2, "country": "TJ"}, {"lat": 40.1167, "lng": 70.6333, "id": "562685", "name": "Hadrosauridae", "era": "Cretaceous", "type": "Ornithischian", "early_age": 85.7, "late_age": 72.2, "country": "TJ"}, {"lat": 40.1167, "lng": 70.6333, "id": "562686", "name": "Dinosauria", "era": "Cretaceous", "type": "Marine Reptile", "early_age": 85.7, "late_age": 83.6, "country": "TJ"}, {"lat": 40.3072, "lng": 72.6411, "id": "562689", "name": "Dinosauria", "era": "Cretaceous", "type": "Marine Reptile", "early_age": 85.7, "late_age": 83.6, "country": "KG"}, {"lat": 40.7167, "lng": 68.5167, "id": "562759", "name": "Dinosauria", "era": "Cretaceous", "type": "Marine Reptile", "early_age": 85.7, "late_age": 83.6, "country": "UZ"}, {"lat": 23.1687, "lng": 79.9718, "id": "562949", "name": "Megaloolithus cylindricus", "era": "Cretaceous", "type": "Theropod", "early_age": 72.2, "late_age": 66.0, "country": "IN"}, {"lat": 38.6691, "lng": 68.2753, "id": "567780", "name": "Dinosauria", "era": "Jurassic", "type": "Marine Reptile", "early_age": 165.3, "late_age": 154.8, "country": "TJ"}, {"lat": 38.8093, "lng": 68.455, "id": "567781", "name": "Kharkushosauropus kharkushensis", "era": "Jurassic", "type": "Ornithischian", "early_age": 161.5, "late_age": 143.1, "country": "TJ"}, {"lat": 38.8678, "lng": 70.0347, "id": "567825", "name": "Dinosauria", "era": "Jurassic", "type": "Marine Reptile", "early_age": 165.3, "late_age": 154.8, "country": "TJ"}, {"lat": 40.7, "lng": 72.6, "id": "569027", "name": "Carnosauria", "era": "Cretaceous", "type": "Theropod", "early_age": 100.5, "late_age": 66.0, "country": "UZ"}, {"lat": 40.7, "lng": 72.6, "id": "569028", "name": "Hadrosauridae", "era": "Cretaceous", "type": "Ornithischian", "early_age": 100.5, "late_age": 66.0, "country": "UZ"}, {"lat": 40.05, "lng": 70.55, "id": "569041", "name": "Dinosauria", "era": "Cretaceous", "type": "Marine Reptile", "early_age": 93.9, "late_age": 89.8, "country": "TJ"}, {"lat": 23.0997, "lng": 79.8408, "id": "570624", "name": "Dinosauria", "era": "Cretaceous", "type": "Marine Reptile", "early_age": 72.2, "late_age": 66.0, "country": "IN"}, {"lat": 23.0922, "lng": 70.0217, "id": "572950", "name": "Isisaurus", "era": "Cretaceous", "type": "Theropod", "early_age": 72.2, "late_age": 66.0, "country": "IN"}, {"lat": 40.4924, "lng": 69.7026, "id": "575065", "name": "Therizinosauridae", "era": "Cretaceous", "type": "Theropod", "early_age": 85.7, "late_age": 83.6, "country": "TJ"}, {"lat": 40.4924, "lng": 69.7026, "id": "575066", "name": "Tyrannosauridae", "era": "Cretaceous", "type": "Theropod", "early_age": 85.7, "late_age": 83.6, "country": "TJ"}, {"lat": 40.4924, "lng": 69.7026, "id": "575067", "name": "Coeluroidea", "era": "Cretaceous", "type": "Theropod", "early_age": 85.7, "late_age": 83.6, "country": "TJ"}, {"lat": 40.4924, "lng": 69.7026, "id": "575068", "name": "Hadrosaurinae", "era": "Cretaceous", "type": "Ornithischian", "early_age": 85.7, "late_age": 83.6, "country": "TJ"}, {"lat": 40.4924, "lng": 69.7026, "id": "575069", "name": "Troodontidae", "era": "Cretaceous", "type": "Theropod", "early_age": 85.7, "late_age": 83.6, "country": "TJ"}, {"lat": 40.4924, "lng": 69.7026, "id": "575070", "name": "Oviraptoridae", "era": "Cretaceous", "type": "Theropod", "early_age": 85.7, "late_age": 83.6, "country": "TJ"}, {"lat": 40.4924, "lng": 69.7026, "id": "575071", "name": "Neoceratopsia", "era": "Cretaceous", "type": "Ornithischian", "early_age": 85.7, "late_age": 83.6, "country": "TJ"}, {"lat": 29.25, "lng": 88.8833, "id": "575540", "name": "Theropoda", "era": "Cretaceous", "type": "Theropod", "early_age": 100.5, "late_age": 66.0, "country": "CN"}, {"lat": 23.0755, "lng": 73.3314, "id": "576087", "name": "Ellipsoolithus khedaensis", "era": "Cretaceous", "type": "Theropod", "early_age": 72.2, "late_age": 66.0, "country": "IN"}, {"lat": 40.1536, "lng": 71.7214, "id": "578260", "name": "Dinosauria", "era": "Cretaceous", "type": "Marine Reptile", "early_age": 100.5, "late_age": 93.9, "country": "UZ"}, {"lat": 40.3453, "lng": 73.3069, "id": "578261", "name": "Tyrannosauridae", "era": "Cretaceous", "type": "Theropod", "early_age": 100.5, "late_age": 93.9, "country": "KG"}, {"lat": 23.9139, "lng": 70.2928, "id": "581067", "name": "Eusauropoda", "era": "Jurassic", "type": "Theropod", "early_age": 170.9, "late_age": 168.2, "country": "IN"}, {"lat": 26.9167, "lng": 70.9, "id": "581089", "name": "Dinosauria", "era": "Triassic", "type": "Marine Reptile", "early_age": 201.4, "late_age": 168.2, "country": "IN"}, {"lat": 23.9942, "lng": 69.7783, "id": "581090", "name": "Dinosauria", "era": "Jurassic", "type": "Marine Reptile", "early_age": 174.7, "late_age": 168.6, "country": "IN"}, {"lat": 23.8111, "lng": 69.8211, "id": "581091", "name": "Dinosauria", "era": "Jurassic", "type": "Marine Reptile", "early_age": 174.7, "late_age": 161.5, "country": "IN"}, {"lat": 23.4958, "lng": 81.56, "id": "584318", "name": "Megaloolithus cylindricus", "era": "Cretaceous", "type": "Theropod", "early_age": 72.2, "late_age": 66.0, "country": "IN"}, {"lat": 23.0258, "lng": 73.3275, "id": "584319", "name": "Fusioolithus mohabeyi", "era": "Cretaceous", "type": "Marine Reptile", "early_age": 72.2, "late_age": 66.0, "country": "IN"}, {"lat": 23.0555, "lng": 73.3263, "id": "584320", "name": "Megaloolithus cylindricus", "era": "Cretaceous", "type": "Theropod", "early_age": 72.2, "late_age": 66.0, "country": "IN"}, {"lat": 23.1048, "lng": 73.3837, "id": "584321", "name": "Megaloolithus khempurensis", "era": "Cretaceous", "type": "Theropod", "early_age": 72.2, "late_age": 66.0, "country": "IN"}, {"lat": 22.9914, "lng": 73.3403, "id": "584322", "name": "Megaloolithus khempurensis", "era": "Cretaceous", "type": "Theropod", "early_age": 72.2, "late_age": 66.0, "country": "IN"}, {"lat": 23.1333, "lng": 73.3833, "id": "584323", "name": "Megaloolithus dhoridungriensis", "era": "Cretaceous", "type": "Theropod", "early_age": 72.2, "late_age": 66.0, "country": "IN"}, {"lat": 23.1333, "lng": 73.3833, "id": "584324", "name": "Titanosauria", "era": "Cretaceous", "type": "Theropod", "early_age": 72.2, "late_age": 66.0, "country": "IN"}, {"lat": 22.9593, "lng": 73.3296, "id": "584325", "name": "Fusioolithus mohabeyi", "era": "Cretaceous", "type": "Marine Reptile", "early_age": 72.2, "late_age": 66.0, "country": "IN"}, {"lat": 22.8625, "lng": 73.3403, "id": "584326", "name": "Fusioolithus mohabeyi", "era": "Cretaceous", "type": "Marine Reptile", "early_age": 72.2, "late_age": 66.0, "country": "IN"}, {"lat": 22.895, "lng": 74.2792, "id": "584327", "name": "Fusioolithus mohabeyi", "era": "Cretaceous", "type": "Marine Reptile", "early_age": 72.2, "late_age": 66.0, "country": "IN"}, {"lat": 22.96, "lng": 74.2239, "id": "585152", "name": "Megaloolithus megadermus", "era": "Cretaceous", "type": "Theropod", "early_age": 72.2, "late_age": 66.0, "country": "IN"}, {"lat": 22.9528, "lng": 74.1419, "id": "585153", "name": "Megaloolithus megadermus", "era": "Cretaceous", "type": "Theropod", "early_age": 72.2, "late_age": 66.0, "country": "IN"}, {"lat": 23.0875, "lng": 73.3883, "id": "585154", "name": "Megaloolithus megadermus", "era": "Cretaceous", "type": "Theropod", "early_age": 72.2, "late_age": 66.0, "country": "IN"}, {"lat": 23.0258, "lng": 73.3275, "id": "585156", "name": "Megaloolithus problematica", "era": "Cretaceous", "type": "Theropod", "early_age": 72.2, "late_age": 66.0, "country": "IN"}, {"lat": 22.9593, "lng": 73.3296, "id": "585157", "name": "Megaloolithus problematica", "era": "Cretaceous", "type": "Theropod", "early_age": 72.2, "late_age": 66.0, "country": "IN"}, {"lat": 22.8625, "lng": 73.3403, "id": "585158", "name": "Megaloolithus problematica", "era": "Cretaceous", "type": "Theropod", "early_age": 72.2, "late_age": 66.0, "country": "IN"}, {"lat": 23.0792, "lng": 73.3542, "id": "585204", "name": "Fusioolithus baghensis", "era": "Cretaceous", "type": "Marine Reptile", "early_age": 72.2, "late_age": 66.0, "country": "IN"}, {"lat": 23.0422, "lng": 73.3301, "id": "585208", "name": "Fusioolithus baghensis", "era": "Cretaceous", "type": "Marine Reptile", "early_age": 72.2, "late_age": 66.0, "country": "IN"}, {"lat": 22.2492, "lng": 74.6088, "id": "585218", "name": "Fusioolithus dholiyaensis", "era": "Cretaceous", "type": "Marine Reptile", "early_age": 72.2, "late_age": 66.0, "country": "IN"}, {"lat": 22.1333, "lng": 74.3833, "id": "585439", "name": "Megaloolithus cylindricus", "era": "Cretaceous", "type": "Theropod", "early_age": 72.2, "late_age": 66.0, "country": "IN"}, {"lat": 23.1667, "lng": 79.95, "id": "601432", "name": "Titanosauria", "era": "Cretaceous", "type": "Theropod", "early_age": 72.2, "late_age": 66.0, "country": "IN"}, {"lat": 40.8958, "lng": 73.4869, "id": "602436", "name": "Tyrannosauridae", "era": "Cretaceous", "type": "Theropod", "early_age": 85.7, "late_age": 83.6, "country": "KG"}, {"lat": 40.8958, "lng": 73.4869, "id": "602437", "name": "Sauropoda", "era": "Cretaceous", "type": "Theropod", "early_age": 85.7, "late_age": 83.6, "country": "KG"}, {"lat": 40.8958, "lng": 73.4869, "id": "602438", "name": "Hadrosauridae", "era": "Cretaceous", "type": "Ornithischian", "early_age": 85.7, "late_age": 83.6, "country": "KG"}, {"lat": 40.6, "lng": 71.8333, "id": "606325", "name": "Theropoda", "era": "Cretaceous", "type": "Theropod", "early_age": 100.5, "late_age": 93.9, "country": "UZ"}, {"lat": 40.6, "lng": 71.8333, "id": "606326", "name": "Titanosauria", "era": "Cretaceous", "type": "Theropod", "early_age": 100.5, "late_age": 93.9, "country": "UZ"}]}