{"zoom": 6, "x": 11, "y": 50, "points": [{"lat": -70.9358, "lng": -116.6754, "id": "137092", "name": "Megaptera novaeangliae", "sprite": "sp-blue_whale.png", "group": "whale", "rarity": 1}, {"lat": -70.9437, "lng": -116.1908, "id": "231413", "name": "Mirounga leonina", "sprite": "sp-elephant_seal.png", "group": "seal", "rarity": 1}, {"lat": -71.4928, "lng": -116.9508, "id": "341296", "name": "Cymatocylis", "sprite": "sp-anchoviella_juruasanga.png", "group": "other", "rarity": 1}, {"lat": -70.9978, "lng": -113.7749, "id": "137092", "name": "Megaptera novaeangliae", "sprite": "sp-blue_whale.png", "group": "whale", "rarity": 1}, {"lat": -71.6123, "lng": -115.2691, "id": "137092", "name": "Megaptera novaeangliae", "sprite": "sp-blue_whale.png", "group": "whale", "rarity": 1}, {"lat": -71.5957, "lng": -115.3918, "id": "137092", "name": "Megaptera novaeangliae", "sprite": "sp-blue_whale.png", "group": "whale", "rarity": 1}, {"lat": -71.6818, "lng": -116.5327, "id": "231413", "name": "Mirounga leonina", "sprite": "sp-elephant_seal.png", "group": "seal", "rarity": 1}, {"lat": -71.4928, "lng": -116.9508, "id": "341658", "name": "Codonellopsis gaussi", "sprite": "sp-anchoviella_juruasanga.png", "group": "other", "rarity": 1}, {"lat": -71.24, "lng": -117.05, "id": "113350", "name": "Alabaminella weddellensis", "sprite": "sp-anchoviella_juruasanga.png", "group": "other", "rarity": 1}, {"lat": -71.4928, "lng": -116.9508, "id": "417230", "name": "Salpingella faurei", "sprite": "sp-anchoviella_juruasanga.png", "group": "other", "rarity": 1}, {"lat": -71.4928, "lng": -116.9508, "id": "341678", "name": "Cymatocylis drygalskii", "sprite": "sp-anchoviella_juruasanga.png", "group": "other", "rarity": 1}, {"lat": -71.1051, "lng": -113.9997, "id": "231413", "name": "Mirounga leonina", "sprite": "sp-elephant_seal.png", "group": "seal", "rarity": 1}, {"lat": -71.68, "lng": -113.2369, "id": "231413", "name": "Mirounga leonina", "sprite": "sp-elephant_seal.png", "group": "seal", "rarity": 1}, {"lat": -70.98, "lng": -116.93, "id": "112593", "name": "Pyrgo murrhina", "sprite": "sp-anchoviella_juruasanga.png", "group": "other", "rarity": 1}, {"lat": -71.4928, "lng": -116.9508, "id": "723498", "name": "Laackmanniella prolongata", "sprite": "sp-anchoviella_juruasanga.png", "group": "other", "rarity": 1}]}