{"zoom": 6, "x": 14, "y": 29, "points": [{"lat": 16.1967, "lng": -100.6508, "id": "883", "name": "Polychaeta", "sprite": "sp-anchoviella_juruasanga.png", "group": "other", "rarity": 1}, {"lat": 15.9778, "lng": -97.7, "id": "276355", "name": "Longjaw leatherjacket", "thumb": "tn_Olalt_u0.jpg", "sprite": "sp-anchoviella_juruasanga.png", "group": "other", "rarity": 1, "waterType": "Brackish"}, {"lat": 15.7182, "lng": -96.121, "id": "280849", "name": "Half-banded stargazer", "thumb": "tn_Gisem_u0.jpg", "sprite": "sp-helcogramma_ascensionis.png", "group": "blenny", "rarity": 1, "waterType": "Saltwater"}, {"lat": 15.9778, "lng": -97.7, "id": "280043", "name": "Congo sea catfish", "thumb": "tn_Cafue_u0.jpg", "sprite": "sp-blue_catfish.png", "group": "catfish", "rarity": 1, "waterType": "Brackish"}, {"lat": 16.25, "lng": -99.3283, "id": "217740", "name": "Unicorn cod", "thumb": "tn_Brmcc_u1.jpg", "sprite": "sp-anchoviella_juruasanga.png", "group": "other", "rarity": 1, "waterType": "Brackish"}, {"lat": 15.77, "lng": -96.65, "id": "219926", "name": "Guineafowl puffer", "thumb": "tn_Armel_u9.jpg", "sprite": "sp-fahaka_pufferfish.png", "group": "pufferfish", "rarity": 1, "waterType": "Saltwater"}, {"lat": 15.883, "lng": -96.3317, "id": "1043458", "name": "Golden mojarra", "thumb": "tn_Diaur_u4.jpg", "sprite": "sp-anchoviella_juruasanga.png", "group": "other", "rarity": 1, "waterType": "Saltwater"}, {"lat": 11.9833, "lng": -97.25, "id": "149152", "name": "Pseudo-nitzschia seriata", "sprite": "sp-anchoviella_juruasanga.png", "group": "other", "rarity": 1}, {"lat": 14.3119, "lng": -96.2639, "id": "272684", "name": "Pacific headlightfish", "sprite": "sp-anchoviella_juruasanga.png", "group": "other", "rarity": 1, "waterType": "Saltwater"}, {"lat": 16.23, "lng": -100.63, "id": "106671", "name": "Anomura", "sprite": "sp-american_lobster.png", "group": "crab_lobster", "rarity": 1}, {"lat": 15.6183, "lng": -100.6683, "id": "126850", "name": "Whalesucker", "thumb": "tn_Reaus_u0.jpg", "sprite": "sp-anchoviella_juruasanga.png", "group": "other", "rarity": 1, "waterType": "Saltwater"}, {"lat": 16.35, "lng": -98.64, "id": "275738", "name": "Chere-chere grunt", "thumb": "tn_Haste_u5.jpg", "sprite": "sp-anchoviella_juruasanga.png", "group": "other", "rarity": 1, "waterType": "Saltwater"}, {"lat": 15.7089, "lng": -96.1828, "id": "276199", "name": "Panamic soldierfish", "thumb": "tn_Mylei_u1.jpg", "sprite": "sp-anchoviella_juruasanga.png", "group": "other", "rarity": 1, "waterType": "Saltwater"}, {"lat": 15.7106, "lng": -96.1969, "id": "1524038", "name": "Cortezura caeca", "sprite": "sp-american_lobster.png", "group": "crab_lobster", "rarity": 1}, {"lat": 12.5855, "lng": -96.5618, "id": "137110", "name": "Steno bredanensis", "sprite": "sp-bottlenose_dolphin.png", "group": "dolphin", "rarity": 1}, {"lat": 11.9833, "lng": -97.25, "id": "178598", "name": "Coccolithus", "sprite": "sp-anchoviella_juruasanga.png", "group": "other", "rarity": 1}, {"lat": 15.6702, "lng": -100.227, "id": "274961", "name": "Panama lightfish", "thumb": "tn_Viluc_u0.jpg", "sprite": "sp-anchoviella_juruasanga.png", "group": "other", "rarity": 1, "waterType": "Saltwater"}, {"lat": 13.67, "lng": -98.67, "id": "137217", "name": "Salpidae", "sprite": "sp-anchoviella_juruasanga.png", "group": "other", "rarity": 1}, {"lat": 15.69, "lng": -96.23, "id": "219004", "name": "Peacock wrasse", "thumb": "tn_Xypav_m0.jpg", "sprite": "sp-cleaner_wrasse.png", "group": "wrasse", "rarity": 1, "waterType": "Saltwater"}, {"lat": 16.35, "lng": -98.64, "id": "276290", "name": "Common searobin", "thumb": "tn_Prrus_u3.jpg", "sprite": "sp-anchoviella_juruasanga.png", "group": "other", "rarity": 1, "waterType": "Saltwater"}, {"lat": 14.42, "lng": -97.97, "id": "146203", "name": "Dinoflagellata", "sprite": "sp-anchoviella_juruasanga.png", "group": "other", "rarity": 1}, {"lat": 14.88, "lng": -96.765, "id": "159646", "name": "Bigeye scad", "thumb": "tn_Secru_u7.jpg", "sprite": "sp-anchoviella_juruasanga.png", "group": "other", "rarity": 1, "waterType": "Saltwater"}, {"lat": 13.67, "lng": -98.67, "id": "101420", "name": "Phronimidae", "sprite": "sp-american_lobster.png", "group": "crab_lobster", "rarity": 1}, {"lat": 13.1957, "lng": -99.0409, "id": "272290", "name": "Codlet", "thumb": "tn_Brbat_u1.jpg", "sprite": "sp-anchoviella_juruasanga.png", "group": "other", "rarity": 1, "waterType": "Saltwater"}, {"lat": 16.189, "lng": -100.6474, "id": "13703", "name": "Thecosomata", "sprite": "sp-cowrie_shell.png", "group": "sea_snail", "rarity": 1}, {"lat": 15.7925, "lng": -96.4935, "id": "159603", "name": "Hypsoblennius", "sprite": "sp-helcogramma_ascensionis.png", "group": "blenny", "rarity": 1}, {"lat": 15.5619, "lng": -96.0996, "id": "282998", "name": "Peter's clingfish", "thumb": "tn_Topet_u0.jpg", "sprite": "sp-anchoviella_juruasanga.png", "group": "other", "rarity": 1, "waterType": "Saltwater"}, {"lat": 15.69, "lng": -96.23, "id": "275489", "name": "Spotted snake-eel", "thumb": "tn_Mytig_u7.jpg", "sprite": "sp-electric_eel.png", "group": "eel", "rarity": 1, "waterType": "Saltwater"}, {"lat": 15.75, "lng": -97.9833, "id": "212599", "name": "Sula dactylatra", "sprite": "sp-anchoviella_juruasanga.png", "group": "other", "rarity": 1}, {"lat": 15.85, "lng": -96.8778, "id": "125464", "name": "Clupeidae", "sprite": "sp-atlantic_herring.png", "group": "herring", "rarity": 1}, {"lat": 15.3033, "lng": -96.3483, "id": "218706", "name": "Brassy chub", "thumb": "tn_Kyvai_u6.jpg", "sprite": "sp-anchoviella_juruasanga.png", "group": "other", "rarity": 1, "waterType": "Saltwater"}, {"lat": 14.8133, "lng": -96.2667, "id": "126306", "name": "Slender snipe eel", "thumb": "tn_Nesco_u3.jpg", "sprite": "sp-electric_eel.png", "group": "eel", "rarity": 1, "waterType": "Saltwater"}, {"lat": 16.0708, "lng": -100.4078, "id": "275617", "name": "Scopelarchoides nicholsi", "sprite": "sp-anchoviella_juruasanga.png", "group": "other", "rarity": 1, "waterType": "Saltwater"}, {"lat": 15.3236, "lng": -100.2991, "id": "137034", "name": "Mesoplodon", "sprite": "sp-blue_whale.png", "group": "whale", "rarity": 1}, {"lat": 14.9125, "lng": -97.9025, "id": "106673", "name": "Brachyura", "sprite": "sp-american_lobster.png", "group": "crab_lobster", "rarity": 1}, {"lat": 15.5159, "lng": -95.7826, "id": "276291", "name": "Lumptail searobin", "thumb": "tn_Prste_u3.jpg", "sprite": "sp-anchoviella_juruasanga.png", "group": "other", "rarity": 1, "waterType": "Brackish"}, {"lat": 15.0933, "lng": -97.92, "id": "101420", "name": "Phronimidae", "sprite": "sp-american_lobster.png", "group": "crab_lobster", "rarity": 1}, {"lat": 15.6372, "lng": -100.5379, "id": "272701", "name": "Diogenes lanternfish", "sprite": "sp-anchoviella_juruasanga.png", "group": "other", "rarity": 1, "waterType": "Saltwater"}, {"lat": 16.5333, "lng": -99.8, "id": "326336", "name": "Amphicteis obscurior", "sprite": "sp-anchoviella_juruasanga.png", "group": "other", "rarity": 1}, {"lat": 16.4621, "lng": -99.8942, "id": "275426", "name": "Bignose conger", "thumb": "tn_Rhnit_u0.jpg", "sprite": "sp-electric_eel.png", "group": "eel", "rarity": 1, "waterType": "Saltwater"}, {"lat": 14.0, "lng": -101.0, "id": "126386", "name": "Black wing flyingfish", "thumb": "tn_Hiron_u0.jpg", "sprite": "sp-flying_fish.png", "group": "flying_fish", "rarity": 1, "waterType": "Saltwater"}, {"lat": 16.475, "lng": -99.4833, "id": "212597", "name": "Sula leucogaster", "sprite": "sp-anchoviella_juruasanga.png", "group": "other", "rarity": 1}, {"lat": 14.0, "lng": -101.0, "id": "159261", "name": "Spotfin flyingfish", "thumb": "tn_Chfur_u3.jpg", "sprite": "sp-flying_fish.png", "group": "flying_fish", "rarity": 1, "waterType": "Saltwater"}, {"lat": 11.9833, "lng": -97.25, "id": "603344", "name": "Rhabdolithes", "sprite": "sp-anchoviella_juruasanga.png", "group": "other", "rarity": 1}, {"lat": 15.7411, "lng": -96.1025, "id": "598100", "name": "Folinia ericana", "sprite": "sp-cowrie_shell.png", "group": "sea_snail", "rarity": 1}, {"lat": 16.5333, "lng": -99.8, "id": "506589", "name": "Ennucula taeniolata", "sprite": "sp-blue_mussel.png", "group": "clam_mussel", "rarity": 1}, {"lat": 12.7933, "lng": -96.6567, "id": "137098", "name": "Grampus griseus", "sprite": "sp-bottlenose_dolphin.png", "group": "dolphin", "rarity": 1}, {"lat": 12.5867, "lng": -97.1042, "id": "272166", "name": "Whitetip flyingfish", "thumb": "tn_Chxen_u0.gif", "sprite": "sp-flying_fish.png", "group": "flying_fish", "rarity": 1, "waterType": "Saltwater"}, {"lat": 14.9658, "lng": -97.9978, "id": "2", "name": "Animalia", "sprite": "sp-anchoviella_juruasanga.png", "group": "other", "rarity": 1}, {"lat": 15.68, "lng": -96.13, "id": "274280", "name": "Dark cheek tongue", "thumb": "tn_Syund_u0.gif", "sprite": "sp-atlantic_halibut.png", "group": "flatfish", "rarity": 1, "waterType": "Saltwater"}, {"lat": 15.8688, "lng": -96.4611, "id": "276419", "name": "Graceful mojarra", "thumb": "tn_Eugra_u0.gif", "sprite": "sp-anchoviella_juruasanga.png", "group": "other", "rarity": 1, "waterType": "Brackish"}, {"lat": 15.767, "lng": -96.1, "id": "239978", "name": "Tanystylum intermedium", "sprite": "sp-anchoviella_juruasanga.png", "group": "other", "rarity": 1}, {"lat": 16.3133, "lng": -98.65, "id": "290948", "name": "Ptilosarcus undulatus", "sprite": "sp-actiniidae.png", "group": "coral", "rarity": 1}, {"lat": 15.8542, "lng": -96.8019, "id": "159416", "name": "White mullet", "thumb": "tn_Mucur_u0.jpg", "sprite": "sp-anchoviella_juruasanga.png", "group": "other", "rarity": 1, "waterType": "Brackish"}, {"lat": 15.65, "lng": -96.5, "id": "158694", "name": "Opisthonema", "sprite": "sp-anchoviella_juruasanga.png", "group": "other", "rarity": 1}, {"lat": 15.435, "lng": -100.1, "id": "137089", "name": "Balaenoptera edeni", "sprite": "sp-blue_whale.png", "group": "whale", "rarity": 1}, {"lat": 16.2667, "lng": -100.5167, "id": "125492", "name": "Linophrynidae", "sprite": "sp-deep_sea_anglerfish.png", "group": "anglerfish", "rarity": 1}, {"lat": 15.71, "lng": -96.2533, "id": "281506", "name": "Glossy blenny", "thumb": "tn_Mazon_u1.jpg", "sprite": "sp-helcogramma_ascensionis.png", "group": "blenny", "rarity": 1, "waterType": "Saltwater"}, {"lat": 12.9267, "lng": -97.1167, "id": "137109", "name": "Stenella longirostris", "sprite": "sp-bottlenose_dolphin.png", "group": "dolphin", "rarity": 1}, {"lat": 15.5967, "lng": -98.1667, "id": "712443", "name": "Blackchin blacksmelt", "thumb": "tn_Banig_u3.jpg", "sprite": "sp-anchoviella_juruasanga.png", "group": "other", "rarity": 1, "waterType": "Saltwater"}, {"lat": 15.725, "lng": -96.1333, "id": "204736", "name": "Bathygobius", "sprite": "sp-eviota_bipunctata.png", "group": "goby", "rarity": 1}, {"lat": 14.0833, "lng": -98.2, "id": "1061345", "name": "Anthiadinae", "sprite": "sp-chelidoperca_santosi.png", "group": "grouper", "rarity": 1}, {"lat": 16.2833, "lng": -97.7385, "id": "137719", "name": "Parastrophia", "sprite": "sp-cowrie_shell.png", "group": "sea_snail", "rarity": 1}, {"lat": 11.9833, "lng": -97.25, "id": "109716", "name": "Achradina pulchra", "sprite": "sp-anchoviella_juruasanga.png", "group": "other", "rarity": 1}, {"lat": 15.7594, "lng": -96.1006, "id": "280841", "name": "Sandy stargazer", "thumb": "tn_Giare_u0.jpg", "sprite": "sp-helcogramma_ascensionis.png", "group": "blenny", "rarity": 1, "waterType": "Saltwater"}, {"lat": 15.6573, "lng": -96.2713, "id": "275843", "name": "Oval flounder", "thumb": "tn_Syova_u1.jpg", "sprite": "sp-atlantic_halibut.png", "group": "flatfish", "rarity": 1, "waterType": "Saltwater"}, {"lat": 15.4951, "lng": -100.0135, "id": "137111", "name": "Tursiops truncatus", "sprite": "sp-bottlenose_dolphin.png", "group": "dolphin", "rarity": 1}, {"lat": 16.333, "lng": -99.967, "id": "117982", "name": "Ectopleura dumortierii", "sprite": "sp-anchoviella_juruasanga.png", "group": "other", "rarity": 1}, {"lat": 12.41, "lng": -99.4042, "id": "137090", "name": "Balaenoptera musculus", "sprite": "sp-blue_whale.png", "group": "whale", "rarity": 1}, {"lat": 13.67, "lng": -98.67, "id": "1248", "name": "Ctenophora", "sprite": "sp-anchoviella_juruasanga.png", "group": "other", "rarity": 1}, {"lat": 11.9833, "lng": -97.25, "id": "840627", "name": "Tripos furca", "sprite": "sp-anchoviella_juruasanga.png", "group": "other", "rarity": 1}, {"lat": 15.7683, "lng": -96.0923, "id": "281623", "name": "Myxodagnus macrognathus", "sprite": "sp-helcogramma_ascensionis.png", "group": "blenny", "rarity": 1, "waterType": "Saltwater"}, {"lat": 11.9833, "lng": -97.25, "id": "110099", "name": "Oxytoxum longiceps", "sprite": "sp-anchoviella_juruasanga.png", "group": "other", "rarity": 1}, {"lat": 15.69, "lng": -96.23, "id": "282346", "name": "Razor surgeonfish", "thumb": "tn_Prlat_u2.jpg", "sprite": "sp-acanthurus_albimento.png", "group": "surgeonfish", "rarity": 1, "waterType": "Saltwater"}, {"lat": 12.248, "lng": -97.55, "id": "137107", "name": "Stenella coeruleoalba", "sprite": "sp-bottlenose_dolphin.png", "group": "dolphin", "rarity": 1}, {"lat": 15.69, "lng": -96.23, "id": "282349", "name": "Yellowtail surgeonfish", "thumb": "tn_Prpun_u8.jpg", "sprite": "sp-acanthurus_albimento.png", "group": "surgeonfish", "rarity": 1, "waterType": "Saltwater"}, {"lat": 15.62, "lng": -96.33, "id": "273286", "name": "Peruvian moonfish", "thumb": "tn_Seper_u4.jpg", "sprite": "sp-anchoviella_juruasanga.png", "group": "other", "rarity": 1, "waterType": "Saltwater"}, {"lat": 15.7178, "lng": -96.1589, "id": "279445", "name": "Clubhead blenny", "thumb": "tn_Acbal_u0.jpg", "sprite": "sp-helcogramma_ascensionis.png", "group": "blenny", "rarity": 1, "waterType": "Saltwater"}, {"lat": 15.6667, "lng": -96.4833, "id": "23118", "name": "Siphonariidae", "sprite": "sp-cowrie_shell.png", "group": "sea_snail", "rarity": 1}, {"lat": 11.68, "lng": -97.52, "id": "106683", "name": "Penaeoidea", "sprite": "sp-american_lobster.png", "group": "crab_lobster", "rarity": 1}, {"lat": 14.9, "lng": -98.175, "id": "1292", "name": "Anthozoa", "sprite": "sp-actiniidae.png", "group": "coral", "rarity": 1}, {"lat": 14.2667, "lng": -100.1333, "id": "272170", "name": "Banded flyingfish", "thumb": "tn_Himar_u0.gif", "sprite": "sp-flying_fish.png", "group": "flying_fish", "rarity": 1, "waterType": "Saltwater"}, {"lat": 14.5083, "lng": -96.2333, "id": "274933", "name": "Melamphaes macrocephalus", "sprite": "sp-anchoviella_juruasanga.png", "group": "other", "rarity": 1, "waterType": "Saltwater"}, {"lat": 15.5967, "lng": -98.1667, "id": "275178", "name": "Black-belly dragonfish", "sprite": "sp-anchoviella_juruasanga.png", "group": "other", "rarity": 1, "waterType": "Saltwater"}, {"lat": 16.333, "lng": -99.967, "id": "117190", "name": "Pennaria", "sprite": "sp-anchoviella_juruasanga.png", "group": "other", "rarity": 1}, {"lat": 15.3778, "lng": -97.2667, "id": "137055", "name": "Sula", "sprite": "sp-anchoviella_juruasanga.png", "group": "other", "rarity": 1}, {"lat": 14.9641, "lng": -97.0806, "id": "368867", "name": "Stenella longirostris orientalis", "sprite": "sp-bottlenose_dolphin.png", "group": "dolphin", "rarity": 1}, {"lat": 11.9833, "lng": -97.25, "id": "573437", "name": "Coscinodiscus sol", "sprite": "sp-anchoviella_juruasanga.png", "group": "other", "rarity": 1}, {"lat": 12.5667, "lng": -97.35, "id": "137241", "name": "Dolioletta gegenbauri", "sprite": "sp-anchoviella_juruasanga.png", "group": "other", "rarity": 1}, {"lat": 12.3089, "lng": -97.0642, "id": "220293", "name": "Lepidochelys olivacea", "sprite": "sp-green_sea_turtle.png", "group": "sea_turtle", "rarity": 1}, {"lat": 15.8309, "lng": -96.3199, "id": "11718", "name": "Octopoda", "sprite": "sp-giant_pacific_octopus.png", "group": "octopus_squid", "rarity": 1}, {"lat": 15.5317, "lng": -96.1371, "id": "273126", "name": "Large-banded blenny", "thumb": "tn_Opste_u3.jpg", "sprite": "sp-helcogramma_ascensionis.png", "group": "blenny", "rarity": 1, "waterType": "Saltwater"}, {"lat": 16.3722, "lng": -99.25, "id": "212633", "name": "Puffinus lherminieri", "sprite": "sp-anchoviella_juruasanga.png", "group": "other", "rarity": 1}, {"lat": 13.45, "lng": -99.9833, "id": "826711", "name": "Awaous", "sprite": "sp-eviota_bipunctata.png", "group": "goby", "rarity": 1}, {"lat": 16.1917, "lng": -100.5667, "id": "127354", "name": "Ribbon sawtail fish", "thumb": "tn_Idfas_u1.jpg", "sprite": "sp-anchoviella_juruasanga.png", "group": "other", "rarity": 1, "waterType": "Saltwater"}, {"lat": 16.5833, "lng": -99.6667, "id": "280063", "name": "Black snook", "thumb": "tn_Cenig_u7.jpg", "sprite": "sp-anchoviella_juruasanga.png", "group": "other", "rarity": 1, "waterType": "Brackish"}, {"lat": 15.6833, "lng": -96.2294, "id": "579401", "name": "Cliothosa tylostrongylata", "sprite": "sp-barrel_sponge.png", "group": "sponge", "rarity": 1}, {"lat": 15.7458, "lng": -96.1333, "id": "126044", "name": "Abudefduf", "sprite": "sp-chrysiptera_caesifrons.png", "group": "clownfish", "rarity": 1}, {"lat": 15.6, "lng": -96.983, "id": "117568", "name": "Liriope tetraphylla", "sprite": "sp-anchoviella_juruasanga.png", "group": "other", "rarity": 1}, {"lat": 15.7411, "lng": -96.1025, "id": "434912", "name": "Splendrillia arga", "sprite": "sp-cowrie_shell.png", "group": "sea_snail", "rarity": 1}, {"lat": 16.55, "lng": -99.875, "id": "242765", "name": "Amphioplus coniortodes", "sprite": "sp-sea_cucumber.png", "group": "starfish", "rarity": 1}, {"lat": 15.8322, "lng": -95.8411, "id": "1486845", "name": "Vermiculate electric ray", "thumb": "tn_Naver_u1.jpg", "sprite": "sp-himantura_australis.png", "group": "ray", "rarity": 1, "waterType": "Saltwater"}, {"lat": 15.1233, "lng": -100.3002, "id": "217869", "name": "Barbel flyingfish", "thumb": "tn_Exmon_u0.gif", "sprite": "sp-flying_fish.png", "group": "flying_fish", "rarity": 1, "waterType": "Saltwater"}, {"lat": 12.9306, "lng": -99.2944, "id": "712443", "name": "Blackchin blacksmelt", "thumb": "tn_Banig_u3.jpg", "sprite": "sp-anchoviella_juruasanga.png", "group": "other", "rarity": 1, "waterType": "Saltwater"}, {"lat": 16.5, "lng": -99.2167, "id": "126590", "name": "Diaphus dumerilii", "thumb": "tn_Didum_u0.jpg", "sprite": "sp-anchoviella_juruasanga.png", "group": "other", "rarity": 1, "waterType": "Saltwater"}, {"lat": 15.9778, "lng": -97.7, "id": "276544", "name": "Pacific dog snapper", "thumb": "tn_Lunov_u2.jpg", "sprite": "sp-mutton_snapper.png", "group": "snapper", "rarity": 1, "waterType": "Brackish"}, {"lat": 14.4921, "lng": -99.2265, "id": "137119", "name": "Physeter macrocephalus", "sprite": "sp-blue_whale.png", "group": "whale", "rarity": 1}, {"lat": 16.4261, "lng": -98.9202, "id": "137206", "name": "Chelonia mydas", "sprite": "sp-green_sea_turtle.png", "group": "sea_turtle", "rarity": 1}, {"lat": 14.9183, "lng": -96.4683, "id": "126850", "name": "Whalesucker", "thumb": "tn_Reaus_u0.jpg", "sprite": "sp-anchoviella_juruasanga.png", "group": "other", "rarity": 1, "waterType": "Saltwater"}, {"lat": 16.5333, "lng": -99.8, "id": "243383", "name": "Ophiacantha moniliformis", "sprite": "sp-sea_cucumber.png", "group": "starfish", "rarity": 1}, {"lat": 12.215, "lng": -99.5182, "id": "137105", "name": "Stenella attenuata", "sprite": "sp-bottlenose_dolphin.png", "group": "dolphin", "rarity": 1}, {"lat": 15.8835, "lng": -97.1983, "id": "276524", "name": "Yellow snapper", "thumb": "tn_Luarg_ud.jpg", "sprite": "sp-mutton_snapper.png", "group": "snapper", "rarity": 1, "waterType": "Brackish"}, {"lat": 15.69, "lng": -96.23, "id": "273580", "name": "Sunset wrasse", "thumb": "tn_Thgra_u0.jpg", "sprite": "sp-cleaner_wrasse.png", "group": "wrasse", "rarity": 1, "waterType": "Saltwater"}, {"lat": 15.4767, "lng": -96.7583, "id": "276587", "name": "Blue bobo", "thumb": "tn_Poapp_u1.jpg", "sprite": "sp-anchoviella_juruasanga.png", "group": "other", "rarity": 1, "waterType": "Brackish"}, {"lat": 16.3958, "lng": -99.3, "id": "567827", "name": "Onychoprion fuscatus", "sprite": "sp-anchoviella_juruasanga.png", "group": "other", "rarity": 1}, {"lat": 16.55, "lng": -99.875, "id": "514309", "name": "Nematocarcinus faxoni", "sprite": "sp-american_lobster.png", "group": "crab_lobster", "rarity": 1}, {"lat": 14.9167, "lng": -96.4667, "id": "206252", "name": "Cypselurus", "sprite": "sp-flying_fish.png", "group": "flying_fish", "rarity": 1}, {"lat": 14.988, "lng": -99.962, "id": "106652", "name": "Oithona plumifera", "sprite": "sp-anchoviella_juruasanga.png", "group": "other", "rarity": 1}, {"lat": 15.7411, "lng": -96.1025, "id": "506886", "name": "Cyathodonta undulata", "sprite": "sp-blue_mussel.png", "group": "clam_mussel", "rarity": 1}, {"lat": 14.988, "lng": -99.962, "id": "106642", "name": "Oithona atlantica", "sprite": "sp-anchoviella_juruasanga.png", "group": "other", "rarity": 1}]}