{"zoom": 6, "x": 14, "y": 50, "points": [{"lat": -71.6554, "lng": -99.668, "id": "231413", "name": "Mirounga leonina", "sprite": "sp-elephant_seal.png", "group": "seal", "rarity": 1}, {"lat": -70.881, "lng": -98.4353, "id": "172926", "name": "Aspidostoma coronatum", "sprite": "sp-anchoviella_juruasanga.png", "group": "other", "rarity": 1}, {"lat": -70.881, "lng": -98.4353, "id": "173749", "name": "Carbasea curva", "sprite": "sp-anchoviella_juruasanga.png", "group": "other", "rarity": 1}, {"lat": -70.881, "lng": -98.4353, "id": "173684", "name": "Exochella hymanae", "sprite": "sp-anchoviella_juruasanga.png", "group": "other", "rarity": 1}, {"lat": -71.0687, "lng": -99.4877, "id": "231413", "name": "Mirounga leonina", "sprite": "sp-elephant_seal.png", "group": "seal", "rarity": 1}, {"lat": -70.881, "lng": -98.4353, "id": "174406", "name": "Smittoidea pugiuncula", "sprite": "sp-anchoviella_juruasanga.png", "group": "other", "rarity": 1}, {"lat": -70.881, "lng": -98.4353, "id": "173827", "name": "Toretocheilum turbinatum", "sprite": "sp-anchoviella_juruasanga.png", "group": "other", "rarity": 1}, {"lat": -70.866, "lng": -98.4382, "id": "160812", "name": "Notocidaris lanceolata", "sprite": "sp-sea_cucumber.png", "group": "starfish", "rarity": 1}, {"lat": -70.881, "lng": -98.4353, "id": "174322", "name": "Cellarinella foveolata", "sprite": "sp-anchoviella_juruasanga.png", "group": "other", "rarity": 1}, {"lat": -70.9333, "lng": -100.2833, "id": "384964", "name": "Pseudonirmus gurlti", "sprite": "sp-anchoviella_juruasanga.png", "group": "other", "rarity": 1}, {"lat": -71.2306, "lng": -97.9502, "id": "137092", "name": "Megaptera novaeangliae", "sprite": "sp-blue_whale.png", "group": "whale", "rarity": 1}, {"lat": -70.8564, "lng": -100.7397, "id": "344008", "name": "Lobodon carcinophagus", "sprite": "sp-elephant_seal.png", "group": "seal", "rarity": 1}, {"lat": -71.0321, "lng": -96.9873, "id": "231413", "name": "Mirounga leonina", "sprite": "sp-elephant_seal.png", "group": "seal", "rarity": 1}, {"lat": -70.881, "lng": -98.4353, "id": "173357", "name": "Swanomia belgica", "sprite": "sp-anchoviella_juruasanga.png", "group": "other", "rarity": 1}, {"lat": -70.881, "lng": -98.4353, "id": "467070", "name": "Talivittaticella frigida", "sprite": "sp-anchoviella_juruasanga.png", "group": "other", "rarity": 1}, {"lat": -70.881, "lng": -98.4353, "id": "173370", "name": "Buffonellaria frigida", "sprite": "sp-anchoviella_juruasanga.png", "group": "other", "rarity": 1}, {"lat": -70.881, "lng": -98.4353, "id": "173663", "name": "Escharella watersi", "sprite": "sp-anchoviella_juruasanga.png", "group": "other", "rarity": 1}, {"lat": -70.881, "lng": -98.4353, "id": "173670", "name": "Escharoides praestita", "sprite": "sp-anchoviella_juruasanga.png", "group": "other", "rarity": 1}, {"lat": -71.7693, "lng": -98.4467, "id": "225773", "name": "Aptenodytes forsteri", "sprite": "sp-anchoviella_juruasanga.png", "group": "other", "rarity": 1}, {"lat": -71.3415, "lng": -98.0357, "id": "344008", "name": "Lobodon carcinophagus", "sprite": "sp-elephant_seal.png", "group": "seal", "rarity": 1}, {"lat": -71.12, "lng": -100.63, "id": "397235", "name": "Portatrochammina antarctica subsp. wiesneri", "sprite": "sp-anchoviella_juruasanga.png", "group": "other", "rarity": 1}, {"lat": -71.12, "lng": -100.63, "id": "412825", "name": "Globocassidulina biora", "sprite": "sp-anchoviella_juruasanga.png", "group": "other", "rarity": 1}, {"lat": -70.881, "lng": -98.4353, "id": "174210", "name": "Lacerna eatoni", "sprite": "sp-anchoviella_juruasanga.png", "group": "other", "rarity": 1}, {"lat": -70.881, "lng": -98.4353, "id": "111400", "name": "Hippothoa flagellum", "sprite": "sp-anchoviella_juruasanga.png", "group": "other", "rarity": 1}, {"lat": -70.881, "lng": -98.4353, "id": "197084", "name": "Calliotropis pelseneeri", "sprite": "sp-cowrie_shell.png", "group": "sea_snail", "rarity": 1}, {"lat": -70.866, "lng": -98.4382, "id": "160813", "name": "Notocidaris mortenseni", "sprite": "sp-sea_cucumber.png", "group": "starfish", "rarity": 1}, {"lat": -70.9, "lng": -99.5833, "id": "225757", "name": "Pygoscelis adeliae", "sprite": "sp-anchoviella_juruasanga.png", "group": "other", "rarity": 1}, {"lat": -70.881, "lng": -98.4353, "id": "174241", "name": "Acanthophragma polaris", "sprite": "sp-anchoviella_juruasanga.png", "group": "other", "rarity": 1}, {"lat": -71.11, "lng": -100.62, "id": "397206", "name": "Ehrenbergina glabra", "sprite": "sp-anchoviella_juruasanga.png", "group": "other", "rarity": 1}, {"lat": -70.881, "lng": -98.4353, "id": "174392", "name": "Smittinella rubrilingulata", "sprite": "sp-anchoviella_juruasanga.png", "group": "other", "rarity": 1}, {"lat": -70.881, "lng": -98.4353, "id": "174430", "name": "Aspericreta crassatina", "sprite": "sp-anchoviella_juruasanga.png", "group": "other", "rarity": 1}, {"lat": -70.881, "lng": -98.4353, "id": "197128", "name": "Cyamiocardium denticulatum", "sprite": "sp-blue_mussel.png", "group": "clam_mussel", "rarity": 1}, {"lat": -70.881, "lng": -98.4353, "id": "174300", "name": "Micropora notialis", "sprite": "sp-anchoviella_juruasanga.png", "group": "other", "rarity": 1}, {"lat": -70.85, "lng": -97.95, "id": "225757", "name": "Pygoscelis adeliae", "sprite": "sp-anchoviella_juruasanga.png", "group": "other", "rarity": 1}, {"lat": -71.3863, "lng": -99.1482, "id": "195932", "name": "Leptonychotes weddellii", "sprite": "sp-elephant_seal.png", "group": "seal", "rarity": 1}, {"lat": -70.881, "lng": -98.4353, "id": "174277", "name": "Fenestrulina parvipora", "sprite": "sp-anchoviella_juruasanga.png", "group": "other", "rarity": 1}, {"lat": -71.12, "lng": -100.63, "id": "988324", "name": "Cibicides antarcticus", "sprite": "sp-anchoviella_juruasanga.png", "group": "other", "rarity": 1}, {"lat": -71.7691, "lng": -96.0248, "id": "231413", "name": "Mirounga leonina", "sprite": "sp-elephant_seal.png", "group": "seal", "rarity": 1}, {"lat": -70.8833, "lng": -97.5, "id": "225773", "name": "Aptenodytes forsteri", "sprite": "sp-anchoviella_juruasanga.png", "group": "other", "rarity": 1}]}