{"zoom": 6, "x": 15, "y": 15, "points": [{"lat": 68.2833, "lng": -95.25, "id": "254538", "name": "Pacific cod", "thumb": "tn_Gamac_u9.jpg", "sprite": "sp-arctogadus.png", "group": "cod", "rarity": 1, "waterType": "Brackish"}, {"lat": 68.2653, "lng": -91.1764, "id": "158725", "name": "Cisco", "thumb": "tn_Coart_u1.jpg", "sprite": "sp-atlantic_salmon.png", "group": "salmon_trout", "rarity": 1, "waterType": "Brackish"}, {"lat": 67.3333, "lng": -95.4167, "id": "126432", "name": "Arctic cod", "thumb": "tn_Arbor_u1.jpg", "sprite": "sp-arctogadus.png", "group": "cod", "rarity": 1, "waterType": "Saltwater"}, {"lat": 68.3833, "lng": -93.7833, "id": "126507", "name": "Ninespine stickleback", "thumb": "tn_Pupun_u9.jpg", "sprite": "sp-anchoviella_juruasanga.png", "group": "other", "rarity": 1, "waterType": "Brackish"}, {"lat": 67.3035, "lng": -95.3088, "id": "127188", "name": "Arctic char", "thumb": "tn_Saalp_f0.jpg", "sprite": "sp-atlantic_salmon.png", "group": "salmon_trout", "rarity": 1, "waterType": "Brackish"}, {"lat": 68.4889, "lng": -91.4611, "id": "158726", "name": "Lake whitefish", "thumb": "tn_Coclu_u0.jpg", "sprite": "sp-atlantic_salmon.png", "group": "salmon_trout", "rarity": 1, "waterType": "Brackish"}, {"lat": 68.6054, "lng": -90.0091, "id": "136976", "name": "Phocidae", "sprite": "sp-elephant_seal.png", "group": "seal", "rarity": 1}, {"lat": 67.25, "lng": -95.25, "id": "274342", "name": "Broad whitefish", "thumb": "tn_Conas_m0.jpg", "sprite": "sp-atlantic_salmon.png", "group": "salmon_trout", "rarity": 1, "waterType": "Brackish"}, {"lat": 68.4167, "lng": -91.9722, "id": "126139", "name": "Coregonus", "sprite": "sp-atlantic_salmon.png", "group": "salmon_trout", "rarity": 1}, {"lat": 68.5833, "lng": -93.5333, "id": "127181", "name": "Sardine cisco", "thumb": "tn_Cosar_u1.jpg", "sprite": "sp-atlantic_salmon.png", "group": "salmon_trout", "rarity": 1, "waterType": "Brackish"}, {"lat": 67.2917, "lng": -95.3333, "id": "127179", "name": "Arctic cisco", "thumb": "tn_Coaut_m0.jpg", "sprite": "sp-atlantic_salmon.png", "group": "salmon_trout", "rarity": 1, "waterType": "Brackish"}, {"lat": 66.75, "lng": -90.3167, "id": "127188", "name": "Arctic char", "thumb": "tn_Saalp_f0.jpg", "sprite": "sp-atlantic_salmon.png", "group": "salmon_trout", "rarity": 1, "waterType": "Brackish"}, {"lat": 67.2611, "lng": -95.2556, "id": "158726", "name": "Lake whitefish", "thumb": "tn_Coclu_u0.jpg", "sprite": "sp-atlantic_salmon.png", "group": "salmon_trout", "rarity": 1, "waterType": "Brackish"}, {"lat": 67.25, "lng": -95.25, "id": "126735", "name": "Capelin", "thumb": "tn_Mavil_f0.jpg", "sprite": "sp-anchoviella_juruasanga.png", "group": "other", "rarity": 1, "waterType": "Brackish"}, {"lat": 68.3192, "lng": -90.125, "id": "254529", "name": "Fourhorn sculpin", "thumb": "tn_Trqua_u0.gif", "sprite": "sp-anchoviella_juruasanga.png", "group": "other", "rarity": 1, "waterType": "Brackish"}, {"lat": 68.4427, "lng": -93.924, "id": "127188", "name": "Arctic char", "thumb": "tn_Saalp_f0.jpg", "sprite": "sp-atlantic_salmon.png", "group": "salmon_trout", "rarity": 1, "waterType": "Brackish"}, {"lat": 68.6184, "lng": -90.0266, "id": "137145", "name": "Larus hyperboreus", "sprite": "sp-anchoviella_juruasanga.png", "group": "other", "rarity": 1}, {"lat": 66.95, "lng": -95.4, "id": "126139", "name": "Coregonus", "sprite": "sp-atlantic_salmon.png", "group": "salmon_trout", "rarity": 1}, {"lat": 68.5833, "lng": -93.5333, "id": "127179", "name": "Arctic cisco", "thumb": "tn_Coaut_m0.jpg", "sprite": "sp-atlantic_salmon.png", "group": "salmon_trout", "rarity": 1, "waterType": "Brackish"}, {"lat": 68.4176, "lng": -90.2822, "id": "127188", "name": "Arctic char", "thumb": "tn_Saalp_f0.jpg", "sprite": "sp-atlantic_salmon.png", "group": "salmon_trout", "rarity": 1, "waterType": "Brackish"}, {"lat": 68.3792, "lng": -92.1958, "id": "127181", "name": "Sardine cisco", "thumb": "tn_Cosar_u1.jpg", "sprite": "sp-atlantic_salmon.png", "group": "salmon_trout", "rarity": 1, "waterType": "Brackish"}, {"lat": 68.6224, "lng": -90.029, "id": "343922", "name": "Larus thayeri", "sprite": "sp-anchoviella_juruasanga.png", "group": "other", "rarity": 1}, {"lat": 67.25, "lng": -95.25, "id": "127181", "name": "Sardine cisco", "thumb": "tn_Cosar_u1.jpg", "sprite": "sp-atlantic_salmon.png", "group": "salmon_trout", "rarity": 1, "waterType": "Brackish"}, {"lat": 68.5833, "lng": -93.5667, "id": "158725", "name": "Cisco", "thumb": "tn_Coart_u1.jpg", "sprite": "sp-atlantic_salmon.png", "group": "salmon_trout", "rarity": 1, "waterType": "Brackish"}]}