{"zoom": 6, "x": 15, "y": 43, "points": [{"lat": -55.5, "lng": -90.1, "id": "573488", "name": "Navicula challengeri", "sprite": "sp-anchoviella_juruasanga.png", "group": "other", "rarity": 1}, {"lat": -55.5, "lng": -90.1, "id": "149288", "name": "Chaetoceros atlanticus", "sprite": "sp-anchoviella_juruasanga.png", "group": "other", "rarity": 1}, {"lat": -53.256, "lng": -94.4445, "id": "225975", "name": "Pterodroma magentae", "sprite": "sp-anchoviella_juruasanga.png", "group": "other", "rarity": 1}, {"lat": -54.3167, "lng": -93.3833, "id": "204680", "name": "Pachyptila", "sprite": "sp-anchoviella_juruasanga.png", "group": "other", "rarity": 1}, {"lat": -55.02, "lng": -94.8375, "id": "103357", "name": "Appendicularia", "sprite": "sp-anchoviella_juruasanga.png", "group": "other", "rarity": 1}, {"lat": -54.629, "lng": -94.9542, "id": "137233", "name": "Salpa", "sprite": "sp-anchoviella_juruasanga.png", "group": "other", "rarity": 1}, {"lat": -52.6517, "lng": -90.0267, "id": "212640", "name": "Daption capense", "sprite": "sp-anchoviella_juruasanga.png", "group": "other", "rarity": 1}, {"lat": -55.008, "lng": -94.925, "id": "104275", "name": "Aetideus armatus", "sprite": "sp-anchoviella_juruasanga.png", "group": "other", "rarity": 1}, {"lat": -55.008, "lng": -94.925, "id": "1207", "name": "Gammaridea", "sprite": "sp-american_lobster.png", "group": "crab_lobster", "rarity": 1}, {"lat": -55.017, "lng": -94.833, "id": "127788", "name": "Gaussicia edentata", "sprite": "sp-anchoviella_juruasanga.png", "group": "other", "rarity": 1}, {"lat": -55.008, "lng": -94.925, "id": "356946", "name": "Amallothrix polaris", "sprite": "sp-anchoviella_juruasanga.png", "group": "other", "rarity": 1}, {"lat": -55.02, "lng": -94.8329, "id": "1135", "name": "Amphipoda", "sprite": "sp-american_lobster.png", "group": "crab_lobster", "rarity": 1}, {"lat": -55.017, "lng": -94.833, "id": "127857", "name": "Proceroecia brachyaskos", "sprite": "sp-anchoviella_juruasanga.png", "group": "other", "rarity": 1}, {"lat": -54.975, "lng": -94.717, "id": "137222", "name": "Doliolum", "sprite": "sp-anchoviella_juruasanga.png", "group": "other", "rarity": 1}, {"lat": -55.5, "lng": -90.1, "id": "149272", "name": "Coscinodiscus perforatus", "sprite": "sp-anchoviella_juruasanga.png", "group": "other", "rarity": 1}, {"lat": -55.02, "lng": -94.8417, "id": "19494", "name": "Hydroidolina", "sprite": "sp-anchoviella_juruasanga.png", "group": "other", "rarity": 1}, {"lat": -55.017, "lng": -94.833, "id": "127782", "name": "Discoconchoecia elegans", "sprite": "sp-anchoviella_juruasanga.png", "group": "other", "rarity": 1}, {"lat": -55.0594, "lng": -91.0796, "id": "212631", "name": "Phoebetria palpebrata", "sprite": "sp-anchoviella_juruasanga.png", "group": "other", "rarity": 1}, {"lat": -55.008, "lng": -94.925, "id": "345251", "name": "Pseudoamallothrix ovata", "sprite": "sp-anchoviella_juruasanga.png", "group": "other", "rarity": 1}, {"lat": -55.5, "lng": -90.1, "id": "157083", "name": "Thalassiothrix longissima", "sprite": "sp-anchoviella_juruasanga.png", "group": "other", "rarity": 1}, {"lat": -55.1389, "lng": -90.7167, "id": "212583", "name": "Diomedea exulans", "sprite": "sp-anchoviella_juruasanga.png", "group": "other", "rarity": 1}, {"lat": -55.017, "lng": -94.833, "id": "176588", "name": "Pseudoconchoecia serrulata", "sprite": "sp-anchoviella_juruasanga.png", "group": "other", "rarity": 1}, {"lat": -54.8257, "lng": -91.312, "id": "343995", "name": "Thalassarche melanophris", "sprite": "sp-anchoviella_juruasanga.png", "group": "other", "rarity": 1}, {"lat": -53.6872, "lng": -93.7668, "id": "225760", "name": "Thalassarche chrysostoma", "sprite": "sp-anchoviella_juruasanga.png", "group": "other", "rarity": 1}, {"lat": -55.02, "lng": -94.83, "id": "1371", "name": "Siphonophorae", "sprite": "sp-anchoviella_juruasanga.png", "group": "other", "rarity": 1}, {"lat": -55.065, "lng": -94.195, "id": "225975", "name": "Pterodroma magentae", "sprite": "sp-anchoviella_juruasanga.png", "group": "other", "rarity": 1}, {"lat": -54.1167, "lng": -94.15, "id": "204680", "name": "Pachyptila", "sprite": "sp-anchoviella_juruasanga.png", "group": "other", "rarity": 1}, {"lat": -55.5, "lng": -90.1, "id": "178185", "name": "Chaetoceros peruvianus", "sprite": "sp-anchoviella_juruasanga.png", "group": "other", "rarity": 1}, {"lat": -55.5, "lng": -90.1, "id": "148919", "name": "Thalassiosira decipiens", "sprite": "sp-anchoviella_juruasanga.png", "group": "other", "rarity": 1}, {"lat": -55.008, "lng": -94.925, "id": "345286", "name": "Scaphocalanus farrani", "sprite": "sp-anchoviella_juruasanga.png", "group": "other", "rarity": 1}, {"lat": -55.5, "lng": -90.1, "id": "254442", "name": "Asteromphalus hyalinus", "sprite": "sp-anchoviella_juruasanga.png", "group": "other", "rarity": 1}, {"lat": -55.017, "lng": -94.833, "id": "536010", "name": "Rotundoecia teretivalvata", "sprite": "sp-anchoviella_juruasanga.png", "group": "other", "rarity": 1}, {"lat": -55.008, "lng": -94.925, "id": "104690", "name": "Cornucalanus chelifer", "sprite": "sp-anchoviella_juruasanga.png", "group": "other", "rarity": 1}, {"lat": -55.008, "lng": -94.925, "id": "344751", "name": "Onchocalanus wolfendeni", "sprite": "sp-anchoviella_juruasanga.png", "group": "other", "rarity": 1}, {"lat": -55.02, "lng": -94.8425, "id": "1410", "name": "Foraminifera", "sprite": "sp-anchoviella_juruasanga.png", "group": "other", "rarity": 1}, {"lat": -55.5, "lng": -90.1, "id": "341566", "name": "Nitzschia bicapitata", "sprite": "sp-anchoviella_juruasanga.png", "group": "other", "rarity": 1}, {"lat": -55.008, "lng": -94.925, "id": "346494", "name": "Gaetanus simplex", "sprite": "sp-anchoviella_juruasanga.png", "group": "other", "rarity": 1}, {"lat": -55.3269, "lng": -94.2153, "id": "225760", "name": "Thalassarche chrysostoma", "sprite": "sp-anchoviella_juruasanga.png", "group": "other", "rarity": 1}, {"lat": -53.2282, "lng": -90.2817, "id": "343995", "name": "Thalassarche melanophris", "sprite": "sp-anchoviella_juruasanga.png", "group": "other", "rarity": 1}, {"lat": -55.5, "lng": -90.1, "id": "149074", "name": "Skeletonema costatum", "sprite": "sp-anchoviella_juruasanga.png", "group": "other", "rarity": 1}, {"lat": -52.6517, "lng": -90.0267, "id": "137202", "name": "Puffinus griseus", "sprite": "sp-anchoviella_juruasanga.png", "group": "other", "rarity": 1}, {"lat": -55.5, "lng": -90.1, "id": "418545", "name": "Hyalodiscus subtilis", "sprite": "sp-anchoviella_juruasanga.png", "group": "other", "rarity": 1}, {"lat": -55.5, "lng": -90.1, "id": "149110", "name": "Corethron criophilum", "sprite": "sp-anchoviella_juruasanga.png", "group": "other", "rarity": 1}, {"lat": -53.079, "lng": -91.1072, "id": "212583", "name": "Diomedea exulans", "sprite": "sp-anchoviella_juruasanga.png", "group": "other", "rarity": 1}, {"lat": -55.017, "lng": -94.833, "id": "172482", "name": "Conchoecilla chuni", "sprite": "sp-anchoviella_juruasanga.png", "group": "other", "rarity": 1}, {"lat": -52.6517, "lng": -90.0267, "id": "212631", "name": "Phoebetria palpebrata", "sprite": "sp-anchoviella_juruasanga.png", "group": "other", "rarity": 1}, {"lat": -55.02, "lng": -94.85, "id": "11676", "name": "Pisces", "sprite": "sp-anchoviella_juruasanga.png", "group": "other", "rarity": 1}, {"lat": -55.5, "lng": -90.1, "id": "980585", "name": "Chaetoceros criophilum", "sprite": "sp-anchoviella_juruasanga.png", "group": "other", "rarity": 1}, {"lat": -55.5, "lng": -90.1, "id": "686756", "name": "Coscinodiscus tumidus var. fasciculata", "sprite": "sp-anchoviella_juruasanga.png", "group": "other", "rarity": 1}, {"lat": -55.5, "lng": -90.1, "id": "341504", "name": "Rhizosolenia curvata", "sprite": "sp-anchoviella_juruasanga.png", "group": "other", "rarity": 1}, {"lat": -55.017, "lng": -94.833, "id": "172467", "name": "Boroecia antipoda", "sprite": "sp-anchoviella_juruasanga.png", "group": "other", "rarity": 1}, {"lat": -55.5, "lng": -90.1, "id": "975030", "name": "Coscinodiscus tabularis var. tabularis", "sprite": "sp-anchoviella_juruasanga.png", "group": "other", "rarity": 1}, {"lat": -54.3167, "lng": -93.3833, "id": "212642", "name": "Pterodroma lessonii", "sprite": "sp-anchoviella_juruasanga.png", "group": "other", "rarity": 1}, {"lat": -55.008, "lng": -94.925, "id": "345289", "name": "Scaphocalanus parantarcticus", "sprite": "sp-anchoviella_juruasanga.png", "group": "other", "rarity": 1}, {"lat": -54.1167, "lng": -94.15, "id": "212642", "name": "Pterodroma lessonii", "sprite": "sp-anchoviella_juruasanga.png", "group": "other", "rarity": 1}, {"lat": -55.019, "lng": -94.9125, "id": "237965", "name": "Gaetanus tenuispinus", "sprite": "sp-anchoviella_juruasanga.png", "group": "other", "rarity": 1}, {"lat": -55.02, "lng": -94.8333, "id": "1078", "name": "Ostracoda", "sprite": "sp-anchoviella_juruasanga.png", "group": "other", "rarity": 1}, {"lat": -55.017, "lng": -94.833, "id": "1314235", "name": "Hyalocoecia hyalophyllum", "sprite": "sp-anchoviella_juruasanga.png", "group": "other", "rarity": 1}, {"lat": -55.02, "lng": -94.8333, "id": "2081", "name": "Chaetognatha", "sprite": "sp-anchoviella_juruasanga.png", "group": "other", "rarity": 1}, {"lat": -55.02, "lng": -94.825, "id": "1131", "name": "Isopoda", "sprite": "sp-american_lobster.png", "group": "crab_lobster", "rarity": 1}, {"lat": -53.6642, "lng": -94.0081, "id": "231404", "name": "Arctocephalus gazella", "sprite": "sp-elephant_seal.png", "group": "seal", "rarity": 1}, {"lat": -55.5, "lng": -90.1, "id": "977638", "name": "Coscinodiscus lentiginosus var. lentiginosus", "sprite": "sp-anchoviella_juruasanga.png", "group": "other", "rarity": 1}, {"lat": -52.8079, "lng": -92.3303, "id": "231404", "name": "Arctocephalus gazella", "sprite": "sp-elephant_seal.png", "group": "seal", "rarity": 1}, {"lat": -55.5, "lng": -90.1, "id": "148920", "name": "Coscinodiscus eccentricus", "sprite": "sp-anchoviella_juruasanga.png", "group": "other", "rarity": 1}, {"lat": -52.6517, "lng": -90.0267, "id": "212642", "name": "Pterodroma lessonii", "sprite": "sp-anchoviella_juruasanga.png", "group": "other", "rarity": 1}, {"lat": -55.5, "lng": -90.1, "id": "179785", "name": "Dactyliosolen antarcticus", "sprite": "sp-anchoviella_juruasanga.png", "group": "other", "rarity": 1}, {"lat": -53.3978, "lng": -90.6496, "id": "225760", "name": "Thalassarche chrysostoma", "sprite": "sp-anchoviella_juruasanga.png", "group": "other", "rarity": 1}, {"lat": -54.1167, "lng": -94.15, "id": "212651", "name": "Procellaria aequinoctialis", "sprite": "sp-anchoviella_juruasanga.png", "group": "other", "rarity": 1}, {"lat": -55.02, "lng": -94.8375, "id": "22626", "name": "Thaliacea", "sprite": "sp-anchoviella_juruasanga.png", "group": "other", "rarity": 1}, {"lat": -55.02, "lng": -94.83, "id": "582421", "name": "Radiozoa", "sprite": "sp-anchoviella_juruasanga.png", "group": "other", "rarity": 1}, {"lat": -55.008, "lng": -94.925, "id": "355505", "name": "Scolecithricella globulosa", "sprite": "sp-anchoviella_juruasanga.png", "group": "other", "rarity": 1}, {"lat": -55.019, "lng": -94.9125, "id": "104341", "name": "Undeuchaeta incisa", "sprite": "sp-anchoviella_juruasanga.png", "group": "other", "rarity": 1}, {"lat": -55.02, "lng": -94.83, "id": "13703", "name": "Thecosomata", "sprite": "sp-cowrie_shell.png", "group": "sea_snail", "rarity": 1}, {"lat": -55.5, "lng": -90.1, "id": "573422", "name": "Coscinodiscus gracilis", "sprite": "sp-anchoviella_juruasanga.png", "group": "other", "rarity": 1}, {"lat": -55.02, "lng": -94.826, "id": "883", "name": "Polychaeta", "sprite": "sp-anchoviella_juruasanga.png", "group": "other", "rarity": 1}, {"lat": -55.5, "lng": -90.1, "id": "178215", "name": "Chaetoceros dichaeta", "sprite": "sp-anchoviella_juruasanga.png", "group": "other", "rarity": 1}, {"lat": -55.02, "lng": -94.83, "id": "1128", "name": "Euphausiacea", "sprite": "sp-antarctic_krill.png", "group": "shrimp", "rarity": 1}, {"lat": -55.5, "lng": -90.1, "id": "1322468", "name": "Hobaniella longicruris", "sprite": "sp-anchoviella_juruasanga.png", "group": "other", "rarity": 1}, {"lat": -55.5, "lng": -90.1, "id": "341498", "name": "Melosira sol", "sprite": "sp-anchoviella_juruasanga.png", "group": "other", "rarity": 1}, {"lat": -55.02, "lng": -94.8333, "id": "1080", "name": "Copepoda", "sprite": "sp-anchoviella_juruasanga.png", "group": "other", "rarity": 1}, {"lat": -55.5, "lng": -90.1, "id": "341561", "name": "Fragilariopsis separanda", "sprite": "sp-anchoviella_juruasanga.png", "group": "other", "rarity": 1}, {"lat": -54.9776, "lng": -94.6267, "id": "231404", "name": "Arctocephalus gazella", "sprite": "sp-elephant_seal.png", "group": "seal", "rarity": 1}, {"lat": -55.008, "lng": -94.925, "id": "345290", "name": "Scaphocalanus vervoorti", "sprite": "sp-anchoviella_juruasanga.png", "group": "other", "rarity": 1}, {"lat": -55.5, "lng": -90.1, "id": "172418", "name": "Fragilariopsis cylindrus", "sprite": "sp-anchoviella_juruasanga.png", "group": "other", "rarity": 1}, {"lat": -55.019, "lng": -94.9125, "id": "345267", "name": "Pseudochirella mawsoni", "sprite": "sp-anchoviella_juruasanga.png", "group": "other", "rarity": 1}, {"lat": -55.3756, "lng": -91.8312, "id": "231404", "name": "Arctocephalus gazella", "sprite": "sp-elephant_seal.png", "group": "seal", "rarity": 1}, {"lat": -55.2118, "lng": -94.2248, "id": "212631", "name": "Phoebetria palpebrata", "sprite": "sp-anchoviella_juruasanga.png", "group": "other", "rarity": 1}, {"lat": -55.008, "lng": -94.925, "id": "103272", "name": "Phronima sedentaria", "sprite": "sp-american_lobster.png", "group": "crab_lobster", "rarity": 1}, {"lat": -55.008, "lng": -94.925, "id": "104434", "name": "Haloptilus oxycephalus", "sprite": "sp-anchoviella_juruasanga.png", "group": "other", "rarity": 1}, {"lat": -55.008, "lng": -94.925, "id": "104774", "name": "Amallothrix robusta", "sprite": "sp-anchoviella_juruasanga.png", "group": "other", "rarity": 1}, {"lat": -54.3167, "lng": -93.3833, "id": "212651", "name": "Procellaria aequinoctialis", "sprite": "sp-anchoviella_juruasanga.png", "group": "other", "rarity": 1}, {"lat": -55.1901, "lng": -90.9604, "id": "225760", "name": "Thalassarche chrysostoma", "sprite": "sp-anchoviella_juruasanga.png", "group": "other", "rarity": 1}, {"lat": -55.5, "lng": -90.1, "id": "573621", "name": "Terebraria kerguelensis", "sprite": "sp-anchoviella_juruasanga.png", "group": "other", "rarity": 1}, {"lat": -55.017, "lng": -94.833, "id": "176554", "name": "Obtusoecia antarctica", "sprite": "sp-anchoviella_juruasanga.png", "group": "other", "rarity": 1}, {"lat": -55.008, "lng": -94.925, "id": "345054", "name": "Paraeuchaeta regalis", "sprite": "sp-anchoviella_juruasanga.png", "group": "other", "rarity": 1}, {"lat": -55.017, "lng": -94.833, "id": "127814", "name": "Metaconchoecia skogsbergi", "sprite": "sp-anchoviella_juruasanga.png", "group": "other", "rarity": 1}, {"lat": -55.5, "lng": -90.1, "id": "629587", "name": "Biddulphia anthropomorpha", "sprite": "sp-anchoviella_juruasanga.png", "group": "other", "rarity": 1}, {"lat": -53.662, "lng": -94.6091, "id": "212583", "name": "Diomedea exulans", "sprite": "sp-anchoviella_juruasanga.png", "group": "other", "rarity": 1}, {"lat": -54.0508, "lng": -90.1626, "id": "231413", "name": "Mirounga leonina", "sprite": "sp-elephant_seal.png", "group": "seal", "rarity": 1}, {"lat": -54.5, "lng": -90.29, "id": "225975", "name": "Pterodroma magentae", "sprite": "sp-anchoviella_juruasanga.png", "group": "other", "rarity": 1}, {"lat": -55.008, "lng": -94.875, "id": "123686", "name": "Freyastera benthophila", "sprite": "sp-sea_cucumber.png", "group": "starfish", "rarity": 1}, {"lat": -55.5, "lng": -90.1, "id": "149168", "name": "Proboscia alata", "sprite": "sp-anchoviella_juruasanga.png", "group": "other", "rarity": 1}, {"lat": -54.8863, "lng": -90.9651, "id": "231413", "name": "Mirounga leonina", "sprite": "sp-elephant_seal.png", "group": "seal", "rarity": 1}, {"lat": -55.5, "lng": -90.1, "id": "149338", "name": "Grammatophora marina", "sprite": "sp-anchoviella_juruasanga.png", "group": "other", "rarity": 1}, {"lat": -55.017, "lng": -94.833, "id": "127780", "name": "Conchoecissa symmetrica", "sprite": "sp-anchoviella_juruasanga.png", "group": "other", "rarity": 1}, {"lat": -54.3658, "lng": -93.6615, "id": "212583", "name": "Diomedea exulans", "sprite": "sp-anchoviella_juruasanga.png", "group": "other", "rarity": 1}, {"lat": -55.02, "lng": -94.8333, "id": "1082", "name": "Cirripedia", "sprite": "sp-anchoviella_juruasanga.png", "group": "other", "rarity": 1}, {"lat": -55.008, "lng": -94.925, "id": "101395", "name": "Lysianassidae", "sprite": "sp-american_lobster.png", "group": "crab_lobster", "rarity": 1}]}