{"zoom": 6, "x": 16, "y": 16, "points": [{"lat": 64.7145, "lng": -86.35, "id": "154825", "name": "Kelp snailfish", "thumb": "tn_Litun_u0.jpg", "sprite": "sp-anchoviella_juruasanga.png", "group": "other", "rarity": 1, "waterType": "Brackish"}, {"lat": 64.2833, "lng": -89.8833, "id": "127203", "name": "Shorthorn sculpin", "thumb": "tn_Mysco_m0.jpg", "sprite": "sp-anchoviella_juruasanga.png", "group": "other", "rarity": 1, "waterType": "Brackish"}, {"lat": 65.3667, "lng": -86.2167, "id": "103122", "name": "Metopa glacialis", "sprite": "sp-american_lobster.png", "group": "crab_lobster", "rarity": 1}, {"lat": 65.805, "lng": -85.94, "id": "158188", "name": "Sertularia similis", "sprite": "sp-anchoviella_juruasanga.png", "group": "other", "rarity": 1}, {"lat": 66.51, "lng": -86.25, "id": "254529", "name": "Fourhorn sculpin", "thumb": "tn_Trqua_u0.gif", "sprite": "sp-anchoviella_juruasanga.png", "group": "other", "rarity": 1, "waterType": "Brackish"}, {"lat": 66.2167, "lng": -85.15, "id": "103112", "name": "Mesometopa neglecta", "sprite": "sp-american_lobster.png", "group": "crab_lobster", "rarity": 1}, {"lat": 66.4667, "lng": -86.2, "id": "134707", "name": "Nymphon serratum", "sprite": "sp-anchoviella_juruasanga.png", "group": "other", "rarity": 1}, {"lat": 66.12, "lng": -84.71, "id": "128146", "name": "Normanicythere leioderma", "sprite": "sp-anchoviella_juruasanga.png", "group": "other", "rarity": 1}, {"lat": 64.2833, "lng": -89.8833, "id": "254538", "name": "Pacific cod", "thumb": "tn_Gamac_u9.jpg", "sprite": "sp-arctogadus.png", "group": "cod", "rarity": 1, "waterType": "Brackish"}, {"lat": 65.0167, "lng": -86.6667, "id": "126735", "name": "Capelin", "thumb": "tn_Mavil_f0.jpg", "sprite": "sp-anchoviella_juruasanga.png", "group": "other", "rarity": 1, "waterType": "Brackish"}, {"lat": 65.3667, "lng": -86.2167, "id": "101569", "name": "Ischyrocerus", "sprite": "sp-american_lobster.png", "group": "crab_lobster", "rarity": 1}, {"lat": 66.13, "lng": -84.63, "id": "127946", "name": "Pseudocythere caudata", "sprite": "sp-anchoviella_juruasanga.png", "group": "other", "rarity": 1}, {"lat": 65.5333, "lng": -84.8667, "id": "123971", "name": "Henricia perforata", "sprite": "sp-sea_cucumber.png", "group": "starfish", "rarity": 1}, {"lat": 65.805, "lng": -85.94, "id": "117365", "name": "Campanularia volubilis", "sprite": "sp-anchoviella_juruasanga.png", "group": "other", "rarity": 1}, {"lat": 66.13, "lng": -84.61, "id": "423307", "name": "Cytheropteron champlainum", "sprite": "sp-anchoviella_juruasanga.png", "group": "other", "rarity": 1}, {"lat": 66.12, "lng": -84.71, "id": "127995", "name": "Sarsicytheridea punctillata", "sprite": "sp-anchoviella_juruasanga.png", "group": "other", "rarity": 1}, {"lat": 65.5333, "lng": -84.8667, "id": "134690", "name": "Nymphon hirtipes", "sprite": "sp-anchoviella_juruasanga.png", "group": "other", "rarity": 1}, {"lat": 66.13, "lng": -84.59, "id": "423320", "name": "Cytheropteron suzdalskyi", "sprite": "sp-anchoviella_juruasanga.png", "group": "other", "rarity": 1}, {"lat": 66.2167, "lng": -85.15, "id": "19494", "name": "Hydroidolina", "sprite": "sp-anchoviella_juruasanga.png", "group": "other", "rarity": 1}, {"lat": 66.1167, "lng": -84.7367, "id": "423752", "name": "Semicytherura complanata", "sprite": "sp-anchoviella_juruasanga.png", "group": "other", "rarity": 1}, {"lat": 64.2833, "lng": -89.8833, "id": "159846", "name": "Banded gunnel", "thumb": "tn_Phfas_u0.jpg", "sprite": "sp-anchoviella_juruasanga.png", "group": "other", "rarity": 1, "waterType": "Saltwater"}, {"lat": 65.8, "lng": -84.5, "id": "164555", "name": "Sycetta sagitta", "sprite": "sp-barrel_sponge.png", "group": "sponge", "rarity": 1}, {"lat": 65.4, "lng": -86.73, "id": "117411", "name": "Lafoeina maxima", "sprite": "sp-anchoviella_juruasanga.png", "group": "other", "rarity": 1}, {"lat": 66.2167, "lng": -85.15, "id": "1414", "name": "Prostigmata", "sprite": "sp-anchoviella_juruasanga.png", "group": "other", "rarity": 1}, {"lat": 65.3667, "lng": -86.2167, "id": "19494", "name": "Hydroidolina", "sprite": "sp-anchoviella_juruasanga.png", "group": "other", "rarity": 1}, {"lat": 66.13, "lng": -84.63, "id": "128465", "name": "Finmarchinella (Barentsovia) logani", "sprite": "sp-anchoviella_juruasanga.png", "group": "other", "rarity": 1}, {"lat": 66.1557, "lng": -85.778, "id": "961", "name": "Euphrosinidae", "sprite": "sp-anchoviella_juruasanga.png", "group": "other", "rarity": 1}, {"lat": 65.4, "lng": -86.7333, "id": "102947", "name": "Pardalisca cuspidata", "sprite": "sp-american_lobster.png", "group": "crab_lobster", "rarity": 1}, {"lat": 65.4, "lng": -86.7333, "id": "2", "name": "Animalia", "sprite": "sp-anchoviella_juruasanga.png", "group": "other", "rarity": 1}, {"lat": 66.13, "lng": -84.61, "id": "790496", "name": "Oculocytheropteron nodosum", "sprite": "sp-anchoviella_juruasanga.png", "group": "other", "rarity": 1}, {"lat": 65.4, "lng": -86.7333, "id": "102364", "name": "Gammaropsis maculata", "sprite": "sp-american_lobster.png", "group": "crab_lobster", "rarity": 1}, {"lat": 66.11, "lng": -84.79, "id": "128138", "name": "Elofsonella concinna", "sprite": "sp-anchoviella_juruasanga.png", "group": "other", "rarity": 1}, {"lat": 66.2167, "lng": -85.15, "id": "131290", "name": "Eusyllis blomstrandi", "sprite": "sp-anchoviella_juruasanga.png", "group": "other", "rarity": 1}, {"lat": 64.2833, "lng": -89.8833, "id": "126432", "name": "Arctic cod", "thumb": "tn_Arbor_u1.jpg", "sprite": "sp-arctogadus.png", "group": "cod", "rarity": 1, "waterType": "Saltwater"}, {"lat": 64.5, "lng": -84.5, "id": "138135", "name": "Littorina", "sprite": "sp-cowrie_shell.png", "group": "sea_snail", "rarity": 1}, {"lat": 64.2833, "lng": -89.8833, "id": "127214", "name": "Lumpfish", "thumb": "tn_Cylum_u1.jpg", "sprite": "sp-anchoviella_juruasanga.png", "group": "other", "rarity": 1, "waterType": "Saltwater"}, {"lat": 65.805, "lng": -85.94, "id": "117924", "name": "Sertularia schmidti", "sprite": "sp-anchoviella_juruasanga.png", "group": "other", "rarity": 1}, {"lat": 66.13, "lng": -84.6167, "id": "128079", "name": "Semicytherura affinis", "sprite": "sp-anchoviella_juruasanga.png", "group": "other", "rarity": 1}, {"lat": 66.13, "lng": -84.63, "id": "127994", "name": "Sarsicytheridea macrolaminata", "sprite": "sp-anchoviella_juruasanga.png", "group": "other", "rarity": 1}, {"lat": 65.4, "lng": -86.7333, "id": "103121", "name": "Metopa clypeata", "sprite": "sp-american_lobster.png", "group": "crab_lobster", "rarity": 1}, {"lat": 66.1167, "lng": -84.75, "id": "461519", "name": "Hemicythere borealis", "sprite": "sp-anchoviella_juruasanga.png", "group": "other", "rarity": 1}, {"lat": 64.2833, "lng": -89.8833, "id": "127073", "name": "Slender eelblenny", "thumb": "tn_Lufab_u1.jpg", "sprite": "sp-anchoviella_juruasanga.png", "group": "other", "rarity": 1, "waterType": "Saltwater"}, {"lat": 65.11, "lng": -86.75, "id": "117402", "name": "Calycella syringa", "sprite": "sp-anchoviella_juruasanga.png", "group": "other", "rarity": 1}, {"lat": 64.7145, "lng": -86.95, "id": "159526", "name": "Variegated snailfish", "thumb": "tn_Ligib_u0.jpg", "sprite": "sp-anchoviella_juruasanga.png", "group": "other", "rarity": 1, "waterType": "Saltwater"}, {"lat": 66.4667, "lng": -86.2, "id": "124167", "name": "Solaster syrtensis", "sprite": "sp-sea_cucumber.png", "group": "starfish", "rarity": 1}, {"lat": 64.2833, "lng": -89.8833, "id": "126505", "name": "Three-spined stickleback", "thumb": "tn_Gaacu_u1.jpg", "sprite": "sp-anchoviella_juruasanga.png", "group": "other", "rarity": 1, "waterType": "Brackish"}, {"lat": 64.2417, "lng": -88.9419, "id": "127198", "name": "Arctic staghorn sculpin", "thumb": "tn_Gytri_u3.jpg", "sprite": "sp-anchoviella_juruasanga.png", "group": "other", "rarity": 1, "waterType": "Saltwater"}, {"lat": 66.21, "lng": -85.15, "id": "117402", "name": "Calycella syringa", "sprite": "sp-anchoviella_juruasanga.png", "group": "other", "rarity": 1}, {"lat": 65.5333, "lng": -84.8667, "id": "127096", "name": "Fish doctor", "thumb": "tn_Gyvir_u0.jpg", "sprite": "sp-anchoviella_juruasanga.png", "group": "other", "rarity": 1, "waterType": "Saltwater"}, {"lat": 65.3645, "lng": -86.2167, "id": "127207", "name": "Ribbed sculpin", "thumb": "tn_Trpin_u2.jpg", "sprite": "sp-anchoviella_juruasanga.png", "group": "other", "rarity": 1, "waterType": "Saltwater"}, {"lat": 65.11, "lng": -86.75, "id": "117393", "name": "Orthopyxis integra", "sprite": "sp-anchoviella_juruasanga.png", "group": "other", "rarity": 1}, {"lat": 66.12, "lng": -84.71, "id": "146533", "name": "Baffinicythere emarginata", "sprite": "sp-anchoviella_juruasanga.png", "group": "other", "rarity": 1}, {"lat": 65.4, "lng": -86.73, "id": "117922", "name": "Sertularia plumosa", "sprite": "sp-anchoviella_juruasanga.png", "group": "other", "rarity": 1}, {"lat": 64.2833, "lng": -89.8833, "id": "126735", "name": "Capelin", "thumb": "tn_Mavil_f0.jpg", "sprite": "sp-anchoviella_juruasanga.png", "group": "other", "rarity": 1, "waterType": "Brackish"}, {"lat": 65.11, "lng": -86.75, "id": "158188", "name": "Sertularia similis", "sprite": "sp-anchoviella_juruasanga.png", "group": "other", "rarity": 1}, {"lat": 64.7145, "lng": -86.95, "id": "127072", "name": "Daubed shanny", "thumb": "tn_Lemac_ud.jpg", "sprite": "sp-anchoviella_juruasanga.png", "group": "other", "rarity": 1, "waterType": "Saltwater"}, {"lat": 65.11, "lng": -86.75, "id": "117365", "name": "Campanularia volubilis", "sprite": "sp-anchoviella_juruasanga.png", "group": "other", "rarity": 1}, {"lat": 66.11, "lng": -84.81, "id": "128140", "name": "Finmarchinella finmarchica", "sprite": "sp-anchoviella_juruasanga.png", "group": "other", "rarity": 1}, {"lat": 66.13, "lng": -84.6167, "id": "772698", "name": "Actinocythereis dunelmensis", "sprite": "sp-anchoviella_juruasanga.png", "group": "other", "rarity": 1}, {"lat": 66.21, "lng": -85.15, "id": "117596", "name": "Halecium minutum", "sprite": "sp-anchoviella_juruasanga.png", "group": "other", "rarity": 1}, {"lat": 66.09, "lng": -84.99, "id": "128124", "name": "Eucythere declivis", "sprite": "sp-anchoviella_juruasanga.png", "group": "other", "rarity": 1}, {"lat": 66.1167, "lng": -84.75, "id": "127951", "name": "Sclerochilus contortus", "sprite": "sp-anchoviella_juruasanga.png", "group": "other", "rarity": 1}, {"lat": 64.5583, "lng": -85.275, "id": "126507", "name": "Ninespine stickleback", "thumb": "tn_Pupun_u9.jpg", "sprite": "sp-anchoviella_juruasanga.png", "group": "other", "rarity": 1, "waterType": "Brackish"}, {"lat": 65.4, "lng": -86.73, "id": "834565", "name": "Tetrapoma quadridentatum", "sprite": "sp-anchoviella_juruasanga.png", "group": "other", "rarity": 1}, {"lat": 66.1167, "lng": -84.7367, "id": "127993", "name": "Sarsicytheridea bradii", "sprite": "sp-anchoviella_juruasanga.png", "group": "other", "rarity": 1}, {"lat": 64.2417, "lng": -88.9419, "id": "127202", "name": "Arctic sculpin", "thumb": "tn_Mysco_u0.gif", "sprite": "sp-anchoviella_juruasanga.png", "group": "other", "rarity": 1, "waterType": "Brackish"}, {"lat": 64.2833, "lng": -89.8833, "id": "159819", "name": "Arctic shanny", "thumb": "tn_Stpun_u1.jpg", "sprite": "sp-anchoviella_juruasanga.png", "group": "other", "rarity": 1, "waterType": "Saltwater"}, {"lat": 66.2223, "lng": -85.7223, "id": "948", "name": "Syllidae", "sprite": "sp-anchoviella_juruasanga.png", "group": "other", "rarity": 1}, {"lat": 66.13, "lng": -84.6167, "id": "423348", "name": "Elofsonella neoconcinna", "sprite": "sp-anchoviella_juruasanga.png", "group": "other", "rarity": 1}, {"lat": 66.13, "lng": -84.63, "id": "128059", "name": "Hemicytherura clathrata", "sprite": "sp-anchoviella_juruasanga.png", "group": "other", "rarity": 1}, {"lat": 66.2167, "lng": -85.15, "id": "103880", "name": "Dendrodoa aggregata", "sprite": "sp-anchoviella_juruasanga.png", "group": "other", "rarity": 1}, {"lat": 66.12, "lng": -84.71, "id": "128392", "name": "Robertsonites tuberculatus", "sprite": "sp-anchoviella_juruasanga.png", "group": "other", "rarity": 1}, {"lat": 66.1167, "lng": -84.7367, "id": "128029", "name": "Cytheropteron pyramidale", "sprite": "sp-anchoviella_juruasanga.png", "group": "other", "rarity": 1}, {"lat": 65.06, "lng": -84.9233, "id": "127188", "name": "Arctic char", "thumb": "tn_Saalp_f0.jpg", "sprite": "sp-atlantic_salmon.png", "group": "salmon_trout", "rarity": 1, "waterType": "Brackish"}, {"lat": 66.11, "lng": -84.81, "id": "776224", "sprite": "sp-anchoviella_juruasanga.png", "group": "other", "rarity": 1}, {"lat": 64.2833, "lng": -89.8833, "id": "254529", "name": "Fourhorn sculpin", "thumb": "tn_Trqua_u0.gif", "sprite": "sp-anchoviella_juruasanga.png", "group": "other", "rarity": 1, "waterType": "Brackish"}, {"lat": 64.2833, "lng": -89.8833, "id": "254510", "name": "Pacific sand lance", "thumb": "tn_Amhex_u2.jpg", "sprite": "sp-anchoviella_juruasanga.png", "group": "other", "rarity": 1, "waterType": "Brackish"}, {"lat": 65.5333, "lng": -84.8667, "id": "126159", "name": "Eumicrotremus", "sprite": "sp-anchoviella_juruasanga.png", "group": "other", "rarity": 1}, {"lat": 64.2833, "lng": -89.8833, "id": "126433", "name": "Polar cod", "thumb": "tn_Bosai_u0.jpg", "sprite": "sp-arctogadus.png", "group": "cod", "rarity": 1, "waterType": "Brackish"}, {"lat": 66.51, "lng": -86.25, "id": "127202", "name": "Arctic sculpin", "thumb": "tn_Mysco_u0.gif", "sprite": "sp-anchoviella_juruasanga.png", "group": "other", "rarity": 1, "waterType": "Brackish"}, {"lat": 65.5333, "lng": -84.8667, "id": "158725", "name": "Cisco", "thumb": "tn_Coart_u1.jpg", "sprite": "sp-atlantic_salmon.png", "group": "salmon_trout", "rarity": 1, "waterType": "Brackish"}, {"lat": 66.13, "lng": -84.59, "id": "128136", "name": "Baffinicythere howei", "sprite": "sp-anchoviella_juruasanga.png", "group": "other", "rarity": 1}, {"lat": 65.7117, "lng": -89.0043, "id": "127188", "name": "Arctic char", "thumb": "tn_Saalp_f0.jpg", "sprite": "sp-atlantic_salmon.png", "group": "salmon_trout", "rarity": 1, "waterType": "Brackish"}, {"lat": 66.1544, "lng": -85.8, "id": "127199", "name": "Twohorn sculpin", "thumb": "tn_Icbic_u1.jpg", "sprite": "sp-anchoviella_juruasanga.png", "group": "other", "rarity": 1, "waterType": "Saltwater"}, {"lat": 66.13, "lng": -84.63, "id": "128463", "name": "Finmarchinella (Barentsovia) angulata", "sprite": "sp-anchoviella_juruasanga.png", "group": "other", "rarity": 1}, {"lat": 66.2167, "lng": -85.15, "id": "1424435", "name": "Weltnerium cornutum", "sprite": "sp-anchoviella_juruasanga.png", "group": "other", "rarity": 1}, {"lat": 64.2833, "lng": -89.8833, "id": "127096", "name": "Fish doctor", "thumb": "tn_Gyvir_u0.jpg", "sprite": "sp-anchoviella_juruasanga.png", "group": "other", "rarity": 1, "waterType": "Saltwater"}, {"lat": 66.1167, "lng": -84.75, "id": "128403", "name": "Xestoleberis depressa", "sprite": "sp-anchoviella_juruasanga.png", "group": "other", "rarity": 1}, {"lat": 66.11, "lng": -84.79, "id": "127969", "name": "Cythere lutea", "sprite": "sp-anchoviella_juruasanga.png", "group": "other", "rarity": 1}, {"lat": 65.6833, "lng": -84.4, "id": "125469", "name": "Gadidae", "sprite": "sp-gadidae.png", "group": "cod", "rarity": 1}, {"lat": 65.4, "lng": -86.73, "id": "117929", "name": "Symplectoscyphus tricuspidatus", "sprite": "sp-anchoviella_juruasanga.png", "group": "other", "rarity": 1}, {"lat": 66.09, "lng": -84.99, "id": "157662", "name": "Semicytherura mainensis", "sprite": "sp-anchoviella_juruasanga.png", "group": "other", "rarity": 1}, {"lat": 66.13, "lng": -84.63, "id": "127617", "name": "Semicytherura", "sprite": "sp-anchoviella_juruasanga.png", "group": "other", "rarity": 1}, {"lat": 66.21, "lng": -85.15, "id": "117597", "name": "Halecium muricatum", "sprite": "sp-anchoviella_juruasanga.png", "group": "other", "rarity": 1}, {"lat": 66.4667, "lng": -86.2, "id": "134676", "name": "Boreonymphon abyssorum", "sprite": "sp-anchoviella_juruasanga.png", "group": "other", "rarity": 1}, {"lat": 64.7105, "lng": -87.7982, "id": "127188", "name": "Arctic char", "thumb": "tn_Saalp_f0.jpg", "sprite": "sp-atlantic_salmon.png", "group": "salmon_trout", "rarity": 1, "waterType": "Brackish"}, {"lat": 66.0092, "lng": -85.5182, "id": "126433", "name": "Polar cod", "thumb": "tn_Bosai_u0.jpg", "sprite": "sp-arctogadus.png", "group": "cod", "rarity": 1, "waterType": "Brackish"}, {"lat": 65.4, "lng": -86.73, "id": "117591", "name": "Halecium labrosum", "sprite": "sp-anchoviella_juruasanga.png", "group": "other", "rarity": 1}, {"lat": 66.13, "lng": -84.61, "id": "787118", "name": "Kyphocythere limicola", "sprite": "sp-anchoviella_juruasanga.png", "group": "other", "rarity": 1}, {"lat": 66.12, "lng": -84.71, "id": "461612", "name": "Patagonacythere dubia", "sprite": "sp-anchoviella_juruasanga.png", "group": "other", "rarity": 1}, {"lat": 66.13, "lng": -84.63, "id": "127662", "name": "Paradoxostoma", "sprite": "sp-anchoviella_juruasanga.png", "group": "other", "rarity": 1}, {"lat": 66.0453, "lng": -85.3868, "id": "127188", "name": "Arctic char", "thumb": "tn_Saalp_f0.jpg", "sprite": "sp-atlantic_salmon.png", "group": "salmon_trout", "rarity": 1, "waterType": "Brackish"}, {"lat": 66.13, "lng": -84.63, "id": "127686", "name": "Argilloecia", "sprite": "sp-anchoviella_juruasanga.png", "group": "other", "rarity": 1}, {"lat": 66.13, "lng": -84.63, "id": "128024", "name": "Cytheropteron nodosoalatum", "sprite": "sp-anchoviella_juruasanga.png", "group": "other", "rarity": 1}, {"lat": 66.1833, "lng": -85.1167, "id": "131128", "name": "Laonice cirrata", "sprite": "sp-anchoviella_juruasanga.png", "group": "other", "rarity": 1}, {"lat": 64.2, "lng": -85.8667, "id": "127181", "name": "Sardine cisco", "thumb": "tn_Cosar_u1.jpg", "sprite": "sp-atlantic_salmon.png", "group": "salmon_trout", "rarity": 1, "waterType": "Brackish"}, {"lat": 65.4, "lng": -86.73, "id": "117702", "name": "Lafoea dumosa", "sprite": "sp-anchoviella_juruasanga.png", "group": "other", "rarity": 1}, {"lat": 66.21, "lng": -85.15, "id": "117923", "name": "Sertularia robusta", "sprite": "sp-anchoviella_juruasanga.png", "group": "other", "rarity": 1}]}