{"zoom": 6, "x": 17, "y": 32, "points": [{"lat": -4.7182, "lng": -82.0962, "id": "417162", "name": "Codonellopsis orthoceras", "sprite": "sp-anchoviella_juruasanga.png", "group": "other", "rarity": 1}, {"lat": -4.9902, "lng": -81.2815, "id": "837461", "name": "Tripos platycornis", "sprite": "sp-anchoviella_juruasanga.png", "group": "other", "rarity": 1}, {"lat": -2.1987, "lng": -80.8813, "id": "143996", "name": "Cladophora", "sprite": "sp-anchoviella_juruasanga.png", "group": "other", "rarity": 1}, {"lat": -4.1308, "lng": -80.9165, "id": "273858", "name": "Starry grouper", "thumb": "tn_Eplab_u1.jpg", "sprite": "sp-chelidoperca_santosi.png", "group": "grouper", "rarity": 1, "waterType": "Saltwater"}, {"lat": -4.5564, "lng": -82.3218, "id": "422703", "name": "Ceratium fusus var. fusus", "sprite": "sp-anchoviella_juruasanga.png", "group": "other", "rarity": 1}, {"lat": -5.1229, "lng": -81.0071, "id": "274284", "name": "William's tonguefish", "thumb": "tn_Sywil_u0.gif", "sprite": "sp-atlantic_halibut.png", "group": "flatfish", "rarity": 1, "waterType": "Saltwater"}, {"lat": -4.7212, "lng": -81.2732, "id": "276076", "name": "Peruvian weakfish", "thumb": "tn_Cyana_u0.jpg", "sprite": "sp-anchoviella_juruasanga.png", "group": "other", "rarity": 1, "waterType": "Brackish"}, {"lat": -1.7999, "lng": -80.8443, "id": "273343", "name": "Threebanded butterflyfish", "thumb": "tn_Chhum_u4.jpg", "sprite": "sp-chaetodon.png", "group": "butterflyfish", "rarity": 1, "waterType": "Saltwater"}, {"lat": -3.7015, "lng": -80.6742, "id": "271389", "name": "Sicklefin smooth-hound", "thumb": "tn_Mulun_u0.jpg", "sprite": "sp-great_white_shark.png", "group": "shark", "rarity": 1, "waterType": "Saltwater"}, {"lat": -2.3141, "lng": -80.8479, "id": "177745", "name": "Muricea", "sprite": "sp-actiniidae.png", "group": "coral", "rarity": 1}, {"lat": -0.6167, "lng": -81.0, "id": "712431", "name": "Slope conger", "thumb": "tn_Arpro_u0.gif", "sprite": "sp-electric_eel.png", "group": "eel", "rarity": 1, "waterType": "Unknown"}, {"lat": -4.6304, "lng": -82.1171, "id": "149271", "name": "Coscinodiscus granii", "sprite": "sp-anchoviella_juruasanga.png", "group": "other", "rarity": 1}, {"lat": -4.4191, "lng": -81.1125, "id": "841762", "name": "Tripos seta", "sprite": "sp-anchoviella_juruasanga.png", "group": "other", "rarity": 1}, {"lat": -1.6626, "lng": -80.7965, "id": "420000", "name": "Mazatlania fulgurata", "sprite": "sp-cowrie_shell.png", "group": "sea_snail", "rarity": 1}, {"lat": -4.245, "lng": -81.26, "id": "126818", "name": "Longfin yellowtail", "thumb": "tn_Seriv_ua.jpg", "sprite": "sp-anchoviella_juruasanga.png", "group": "other", "rarity": 1, "waterType": "Saltwater"}, {"lat": -1.7359, "lng": -80.9104, "id": "278234", "name": "Sabertooth blenny", "thumb": "tn_Plaza_u1.jpg", "sprite": "sp-helcogramma_ascensionis.png", "group": "blenny", "rarity": 1, "waterType": "Saltwater"}, {"lat": -1.28, "lng": -81.06, "id": "281570", "name": "Bumphead damselfish", "thumb": "tn_Mibai_m0.jpg", "sprite": "sp-chrysiptera_caesifrons.png", "group": "clownfish", "rarity": 1, "waterType": "Saltwater"}, {"lat": -0.7718, "lng": -84.3642, "id": "103356", "name": "Oikopleuridae", "sprite": "sp-anchoviella_juruasanga.png", "group": "other", "rarity": 1}, {"lat": -4.5008, "lng": -81.2251, "id": "283203", "name": "Roundel batfish", "thumb": "tn_Zaela_u2.jpg", "sprite": "sp-deep_sea_anglerfish.png", "group": "anglerfish", "rarity": 1, "waterType": "Saltwater"}, {"lat": -3.1, "lng": -80.45, "id": "272884", "name": "Threadfin slickhead", "thumb": "tn_Tabif_u0.gif", "sprite": "sp-anchoviella_juruasanga.png", "group": "other", "rarity": 1, "waterType": "Saltwater"}, {"lat": -4.6993, "lng": -82.5307, "id": "837310", "name": "Tripos azoricus", "sprite": "sp-anchoviella_juruasanga.png", "group": "other", "rarity": 1}, {"lat": -4.2023, "lng": -81.2425, "id": "148940", "name": "Ethmodiscus", "sprite": "sp-anchoviella_juruasanga.png", "group": "other", "rarity": 1}, {"lat": -5.567, "lng": -81.817, "id": "209719", "name": "Plotohelmis alata", "sprite": "sp-anchoviella_juruasanga.png", "group": "other", "rarity": 1}, {"lat": -3.9806, "lng": -83.0912, "id": "235802", "name": "Acanthoica quattrospina", "sprite": "sp-anchoviella_juruasanga.png", "group": "other", "rarity": 1}, {"lat": -1.93, "lng": -80.82, "id": "266361", "name": "Nymphon simulare", "sprite": "sp-anchoviella_juruasanga.png", "group": "other", "rarity": 1}, {"lat": -4.98, "lng": -81.777, "id": "248082", "name": "Climacosphenia moniligera", "sprite": "sp-anchoviella_juruasanga.png", "group": "other", "rarity": 1}, {"lat": -1.5468, "lng": -80.3599, "id": "272234", "name": "Slimy head", "thumb": "tn_Homen_u2.jpg", "sprite": "sp-anchoviella_juruasanga.png", "group": "other", "rarity": 1, "waterType": "Saltwater"}, {"lat": -4.2823, "lng": -81.0885, "id": "841184", "name": "Tripos belone", "sprite": "sp-anchoviella_juruasanga.png", "group": "other", "rarity": 1}, {"lat": -1.5827, "lng": -80.8327, "id": "271665", "name": "Squatina armata", "thumb": "tn_Sqarm_u1.jpg", "sprite": "sp-great_white_shark.png", "group": "shark", "rarity": 1, "waterType": "Saltwater"}, {"lat": -4.7613, "lng": -82.06, "id": "157258", "name": "Dictyocha", "sprite": "sp-anchoviella_juruasanga.png", "group": "other", "rarity": 1}, {"lat": -1.016, "lng": -82.033, "id": "125825", "name": "Lampanyctus", "sprite": "sp-anchoviella_juruasanga.png", "group": "other", "rarity": 1}, {"lat": -4.6596, "lng": -82.3413, "id": "231887", "name": "Rhizosolenia indica", "sprite": "sp-anchoviella_juruasanga.png", "group": "other", "rarity": 1}, {"lat": -3.7333, "lng": -80.7124, "id": "163348", "name": "Rhizosolenia semispina", "sprite": "sp-anchoviella_juruasanga.png", "group": "other", "rarity": 1}, {"lat": -1.0453, "lng": -84.3622, "id": "104087", "name": "Heterorhabdidae", "sprite": "sp-anchoviella_juruasanga.png", "group": "other", "rarity": 1}, {"lat": -5.0, "lng": -81.2, "id": "109712", "name": "Alexandrium ostenfeldii", "sprite": "sp-anchoviella_juruasanga.png", "group": "other", "rarity": 1}, {"lat": 0.0, "lng": -82.5, "id": "281353", "name": "Striped herring", "thumb": "tn_Listo_u1.jpg", "sprite": "sp-anchoviella_juruasanga.png", "group": "other", "rarity": 1, "waterType": "Saltwater"}, {"lat": -5.3, "lng": -81.0, "id": "276700", "name": "Galapagos bullhead shark", "thumb": "tn_Hequo_u0.jpg", "sprite": "sp-great_white_shark.png", "group": "shark", "rarity": 1, "waterType": "Saltwater"}, {"lat": -0.9333, "lng": -79.6667, "id": "275676", "name": "Bearded clingfish", "thumb": "tn_Gopap_u0.jpg", "sprite": "sp-anchoviella_juruasanga.png", "group": "other", "rarity": 1, "waterType": "Saltwater"}, {"lat": -4.167, "lng": -81.45, "id": "100672", "name": "Hormathiidae", "sprite": "sp-actiniidae.png", "group": "coral", "rarity": 1}, {"lat": -4.3652, "lng": -82.1162, "id": "422711", "name": "Ceratium macroceros var. gallicum", "sprite": "sp-anchoviella_juruasanga.png", "group": "other", "rarity": 1}, {"lat": -4.6599, "lng": -81.1941, "id": "148912", "name": "Thalassiosira", "sprite": "sp-anchoviella_juruasanga.png", "group": "other", "rarity": 1}, {"lat": -3.0222, "lng": -80.0778, "id": "159733", "name": "Jenny mojarra", "thumb": "tn_Eugul_u3.jpg", "sprite": "sp-anchoviella_juruasanga.png", "group": "other", "rarity": 1, "waterType": "Brackish"}, {"lat": -4.58, "lng": -81.28, "id": "275403", "name": "Machete", "thumb": "tn_Elaff_u0.jpg", "sprite": "sp-anchoviella_juruasanga.png", "group": "other", "rarity": 1, "waterType": "Brackish"}, {"lat": -3.6831, "lng": -80.1997, "id": "574966", "name": "Cerithium stercusmuscarum", "sprite": "sp-cowrie_shell.png", "group": "sea_snail", "rarity": 1}, {"lat": -1.2678, "lng": -81.0634, "id": "275514", "name": "Short anchovy", "thumb": "tn_Ancur_u0.gif", "sprite": "sp-anchoviella_juruasanga.png", "group": "anchovy", "rarity": 1, "waterType": "Brackish"}, {"lat": -3.35, "lng": -80.65, "id": "137089", "name": "Balaenoptera edeni", "sprite": "sp-blue_whale.png", "group": "whale", "rarity": 1}, {"lat": -2.11, "lng": -80.825, "id": "712408", "name": "Eastern Pacific bonefish", "sprite": "sp-anchoviella_juruasanga.png", "group": "other", "rarity": 1, "waterType": "Brackish"}, {"lat": -1.4444, "lng": -80.5444, "id": "276095", "name": "Orangemouth weakfish", "thumb": "tn_Cyxan_u0.jpg", "sprite": "sp-anchoviella_juruasanga.png", "group": "other", "rarity": 1, "waterType": "Brackish"}, {"lat": -2.3056, "lng": -81.2167, "id": "272404", "name": "Peruvian grenadier", "thumb": "tn_Necon_u0.gif", "sprite": "sp-anchoviella_juruasanga.png", "group": "other", "rarity": 1, "waterType": "Saltwater"}, {"lat": -3.52, "lng": -80.47, "id": "280059", "name": "Armed snook", "thumb": "tn_Cearm_u1.jpg", "sprite": "sp-anchoviella_juruasanga.png", "group": "other", "rarity": 1, "waterType": "Brackish"}, {"lat": -0.717, "lng": -84.05, "id": "1292", "name": "Anthozoa", "sprite": "sp-actiniidae.png", "group": "coral", "rarity": 1}, {"lat": -5.09, "lng": -81.11, "id": "271498", "name": "Pacific cownose ray", "thumb": "tn_Rhste_u0.jpg", "sprite": "sp-himantura_australis.png", "group": "ray", "rarity": 1, "waterType": "Saltwater"}, {"lat": -4.3915, "lng": -81.9665, "id": "332906", "name": "Alciopina paumotanus", "sprite": "sp-anchoviella_juruasanga.png", "group": "other", "rarity": 1}, {"lat": -3.4, "lng": -80.75, "id": "159566", "name": "Midwater scorpionfish", "thumb": "tn_Ecimu_u0.jpg", "sprite": "sp-anchoviella_juruasanga.png", "group": "other", "rarity": 1, "waterType": "Saltwater"}, {"lat": -0.7083, "lng": -84.0417, "id": "125427", "name": "Congridae", "sprite": "sp-electric_eel.png", "group": "eel", "rarity": 1}, {"lat": -1.796, "lng": -80.7713, "id": "448257", "name": "Olivella tergina", "sprite": "sp-cowrie_shell.png", "group": "sea_snail", "rarity": 1}, {"lat": -5.01, "lng": -82.0, "id": "235755", "name": "Tintinnopsis compressa", "sprite": "sp-anchoviella_juruasanga.png", "group": "other", "rarity": 1}, {"lat": -1.533, "lng": -82.267, "id": "104669", "name": "Calocalanus pavo", "sprite": "sp-anchoviella_juruasanga.png", "group": "other", "rarity": 1}, {"lat": -1.9341, "lng": -80.7889, "id": "517756", "name": "Pacifigorgia irene", "sprite": "sp-actiniidae.png", "group": "coral", "rarity": 1}, {"lat": -1.267, "lng": -81.083, "id": "409025", "name": "Coronida schmitti", "sprite": "sp-american_lobster.png", "group": "crab_lobster", "rarity": 1}, {"lat": -2.6217, "lng": -79.8983, "id": "281640", "name": "Pacific smalleye croaker", "thumb": "tn_Neocc_u1.jpg", "sprite": "sp-anchoviella_juruasanga.png", "group": "other", "rarity": 1, "waterType": "Brackish"}, {"lat": -4.1, "lng": -81.15, "id": "290838", "name": "Polymyces montereyensis", "sprite": "sp-actiniidae.png", "group": "coral", "rarity": 1}, {"lat": -3.5904, "lng": -80.7284, "id": "109566", "name": "Prorocentrum", "sprite": "sp-anchoviella_juruasanga.png", "group": "other", "rarity": 1}, {"lat": -4.6971, "lng": -82.37, "id": "109612", "name": "Dinophysis caudata", "sprite": "sp-anchoviella_juruasanga.png", "group": "other", "rarity": 1}, {"lat": -1.2683, "lng": -81.05, "id": "276541", "name": "Jordan's snapper", "thumb": "tn_Lujor_u1.jpg", "sprite": "sp-mutton_snapper.png", "group": "snapper", "rarity": 1, "waterType": "Saltwater"}, {"lat": -4.6239, "lng": -82.4505, "id": "235926", "name": "Calciosolenia murrayi", "sprite": "sp-anchoviella_juruasanga.png", "group": "other", "rarity": 1}, {"lat": -2.3727, "lng": -80.2523, "id": "279608", "name": "Bigscale anchovy", "thumb": "tn_Anmac_u4.jpg", "sprite": "sp-anchoviella_juruasanga.png", "group": "anchovy", "rarity": 1, "waterType": "Brackish"}, {"lat": -0.2241, "lng": -79.1454, "id": "154625", "name": "Astroblepidae", "sprite": "sp-blue_catfish.png", "group": "catfish", "rarity": 1}, {"lat": -3.535, "lng": -80.725, "id": "417127", "name": "Ascampbelliella armilla", "sprite": "sp-anchoviella_juruasanga.png", "group": "other", "rarity": 1}, {"lat": -3.6187, "lng": -80.8919, "id": "137111", "name": "Tursiops truncatus", "sprite": "sp-bottlenose_dolphin.png", "group": "dolphin", "rarity": 1}, {"lat": -0.9866, "lng": -80.5623, "id": "144296", "name": "Ulva", "sprite": "sp-anchoviella_juruasanga.png", "group": "other", "rarity": 1}, {"lat": -4.8834, "lng": -82.0931, "id": "417163", "name": "Codonellopsis schabi", "sprite": "sp-anchoviella_juruasanga.png", "group": "other", "rarity": 1}, {"lat": 0.0, "lng": -82.5, "id": "218429", "name": "Golden trevally", "thumb": "tn_Gnspe_u8.jpg", "sprite": "sp-anchoviella_juruasanga.png", "group": "other", "rarity": 1, "waterType": "Saltwater"}, {"lat": -4.5667, "lng": -81.2833, "id": "138489", "name": "Siphonaria", "sprite": "sp-cowrie_shell.png", "group": "sea_snail", "rarity": 1}, {"lat": -3.5983, "lng": -80.5333, "id": "276332", "name": "Hypsoblennius sordidus", "thumb": "tn_Hysor_u0.jpg", "sprite": "sp-helcogramma_ascensionis.png", "group": "blenny", "rarity": 1, "waterType": "Saltwater"}, {"lat": -5.0885, "lng": -81.0814, "id": "282056", "name": "Peruvian rock seabass", "thumb": "tn_Pahum_f0.jpg", "sprite": "sp-chelidoperca_santosi.png", "group": "grouper", "rarity": 1, "waterType": "Saltwater"}, {"lat": -4.7492, "lng": -82.2079, "id": "157463", "name": "Dictyocha fibula", "sprite": "sp-anchoviella_juruasanga.png", "group": "other", "rarity": 1}, {"lat": -1.567, "lng": -80.9519, "id": "280633", "name": "Bluestreak drum", "thumb": "tn_Elarc_u0.jpg", "sprite": "sp-anchoviella_juruasanga.png", "group": "other", "rarity": 1, "waterType": "Saltwater"}, {"lat": -4.2903, "lng": -81.2451, "id": "272181", "name": "Choelo halfbeak", "sprite": "sp-anchoviella_juruasanga.png", "group": "other", "rarity": 1, "waterType": "Saltwater"}, {"lat": -1.55, "lng": -80.825, "id": "276290", "name": "Common searobin", "thumb": "tn_Prrus_u3.jpg", "sprite": "sp-anchoviella_juruasanga.png", "group": "other", "rarity": 1, "waterType": "Saltwater"}, {"lat": -3.825, "lng": -82.9155, "id": "103357", "name": "Appendicularia", "sprite": "sp-anchoviella_juruasanga.png", "group": "other", "rarity": 1}, {"lat": -5.0495, "lng": -81.292, "id": "232491", "name": "Phalacroma mitra", "sprite": "sp-anchoviella_juruasanga.png", "group": "other", "rarity": 1}, {"lat": -2.1081, "lng": -80.8235, "id": "511466", "name": "Columbella strombiformis", "sprite": "sp-cowrie_shell.png", "group": "sea_snail", "rarity": 1}, {"lat": -2.2194, "lng": -80.9167, "id": "103474", "name": "Polyclinum", "sprite": "sp-anchoviella_juruasanga.png", "group": "other", "rarity": 1}, {"lat": -2.2062, "lng": -80.8812, "id": "144132", "name": "Sargassum", "sprite": "sp-anchoviella_juruasanga.png", "group": "other", "rarity": 1}, {"lat": -4.795, "lng": -81.804, "id": "164110", "name": "Bacteriastrum furcatum", "sprite": "sp-anchoviella_juruasanga.png", "group": "other", "rarity": 1}, {"lat": -1.2917, "lng": -80.7583, "id": "386609", "name": "Acanthochitona hirudiniformis", "sprite": "sp-anchoviella_juruasanga.png", "group": "other", "rarity": 1}, {"lat": -5.47, "lng": -82.23, "id": "105794", "name": "Oceanic whitetip shark", "thumb": "tn_Calon_u8.jpg", "sprite": "sp-great_white_shark.png", "group": "shark", "rarity": 1, "waterType": "Saltwater"}, {"lat": -1.2767, "lng": -81.1833, "id": "126386", "name": "Black wing flyingfish", "thumb": "tn_Hiron_u0.jpg", "sprite": "sp-flying_fish.png", "group": "flying_fish", "rarity": 1, "waterType": "Saltwater"}, {"lat": -1.6448, "lng": -80.3674, "id": "158786", "name": "Citharichthys", "sprite": "sp-atlantic_halibut.png", "group": "flatfish", "rarity": 1}, {"lat": -1.7183, "lng": -80.4917, "id": "275976", "name": "Pacific stargazer", "thumb": "tn_Aszep_u0.gif", "sprite": "sp-anchoviella_juruasanga.png", "group": "other", "rarity": 1, "waterType": "Saltwater"}, {"lat": -4.1, "lng": -81.15, "id": "105695", "name": "Triakidae", "sprite": "sp-great_white_shark.png", "group": "shark", "rarity": 1}, {"lat": -5.55, "lng": -80.82, "id": "280187", "name": "Corvina drum", "thumb": "tn_Cigil_u0.jpg", "sprite": "sp-anchoviella_juruasanga.png", "group": "other", "rarity": 1, "waterType": "Saltwater"}, {"lat": -1.2625, "lng": -81.0833, "id": "398485", "name": "Pacific reef bass", "thumb": "tn_Pstha_u0.jpg", "sprite": "sp-chelidoperca_santosi.png", "group": "grouper", "rarity": 1, "waterType": "Saltwater"}, {"lat": -5.0, "lng": -82.375, "id": "292900", "name": "Epiplocyloides", "sprite": "sp-anchoviella_juruasanga.png", "group": "other", "rarity": 1}, {"lat": -4.998, "lng": -83.062, "id": "160595", "name": "Pterosperma", "sprite": "sp-anchoviella_juruasanga.png", "group": "other", "rarity": 1}, {"lat": -2.733, "lng": -81.083, "id": "221249", "name": "Globigerina falconensis", "sprite": "sp-anchoviella_juruasanga.png", "group": "other", "rarity": 1}, {"lat": -2.1996, "lng": -80.872, "id": "241856", "name": "Holothuria (Semperothuria) imitans", "sprite": "sp-sea_cucumber.png", "group": "starfish", "rarity": 1}, {"lat": -5.553, "lng": -81.562, "id": "150208", "name": "Coxliella", "sprite": "sp-anchoviella_juruasanga.png", "group": "other", "rarity": 1}, {"lat": -3.55, "lng": -82.075, "id": "301525", "name": "Lampanyctus idostigma", "sprite": "sp-anchoviella_juruasanga.png", "group": "other", "rarity": 1, "waterType": "Saltwater"}, {"lat": -1.65, "lng": -80.8167, "id": "428223", "name": "Conus nux", "sprite": "sp-cowrie_shell.png", "group": "sea_snail", "rarity": 1}, {"lat": -2.6448, "lng": -80.3883, "id": "701596", "name": "Psammotella bertini", "sprite": "sp-blue_mussel.png", "group": "clam_mussel", "rarity": 1}, {"lat": -4.11, "lng": -81.06, "id": "276546", "name": "Pacific red snapper", "thumb": "tn_Luper_u1.jpg", "sprite": "sp-mutton_snapper.png", "group": "snapper", "rarity": 1, "waterType": "Saltwater"}, {"lat": -3.6365, "lng": -80.5971, "id": "281906", "name": "Snub-nosed croaker", "thumb": "tn_Opsim_u0.jpg", "sprite": "sp-anchoviella_juruasanga.png", "group": "other", "rarity": 1, "waterType": "Saltwater"}, {"lat": -3.6667, "lng": -80.9167, "id": "274018", "name": "Pacific scabbardfish", "thumb": "tn_Lefit_u1.gif", "sprite": "sp-anchoviella_juruasanga.png", "group": "other", "rarity": 1, "waterType": "Saltwater"}, {"lat": -4.24, "lng": -81.981, "id": "1806", "name": "Echinodermata", "sprite": "sp-sea_cucumber.png", "group": "starfish", "rarity": 1}, {"lat": -0.6167, "lng": -81.0, "id": "244066", "name": "Ophiosteira koehleri", "sprite": "sp-sea_cucumber.png", "group": "starfish", "rarity": 1}, {"lat": -0.9518, "lng": -80.7134, "id": "456649", "name": "Scurria variabilis", "sprite": "sp-cowrie_shell.png", "group": "sea_snail", "rarity": 1}, {"lat": -4.7998, "lng": -83.0651, "id": "235766", "name": "Dictyocysta elegans", "sprite": "sp-anchoviella_juruasanga.png", "group": "other", "rarity": 1}, {"lat": -3.8628, "lng": -80.8838, "id": "109515", "name": "Diplopsalis", "sprite": "sp-anchoviella_juruasanga.png", "group": "other", "rarity": 1}, {"lat": -3.1378, "lng": -80.3045, "id": "995103", "name": "Spotted head sargo", "thumb": "tn_Andov_u1.jpg", "sprite": "sp-anchoviella_juruasanga.png", "group": "other", "rarity": 1, "waterType": "Saltwater"}, {"lat": -3.5861, "lng": -80.4401, "id": "126011", "name": "Pomadasys", "sprite": "sp-anchoviella_juruasanga.png", "group": "other", "rarity": 1}, {"lat": -3.0, "lng": -81.1, "id": "129038", "name": "Copilia mirabilis", "sprite": "sp-anchoviella_juruasanga.png", "group": "other", "rarity": 1}, {"lat": -4.7558, "lng": -82.2217, "id": "196347", "name": "Actinocyclus", "sprite": "sp-cowrie_shell.png", "group": "sea_snail", "rarity": 1}, {"lat": -0.28, "lng": -83.5, "id": "137034", "name": "Mesoplodon", "sprite": "sp-blue_whale.png", "group": "whale", "rarity": 1}, {"lat": -2.1996, "lng": -80.872, "id": "523886", "name": "Epitonium indistinctum", "sprite": "sp-cowrie_shell.png", "group": "sea_snail", "rarity": 1}, {"lat": -0.7718, "lng": -84.3642, "id": "411905", "name": "Creseidae", "sprite": "sp-cowrie_shell.png", "group": "sea_snail", "rarity": 1}, {"lat": -4.7132, "lng": -82.4216, "id": "110240", "name": "Protoperidinium oceanicum", "sprite": "sp-anchoviella_juruasanga.png", "group": "other", "rarity": 1}, {"lat": -2.25, "lng": -80.0, "id": "328802", "name": "Lepidonotus margaritaceus", "sprite": "sp-anchoviella_juruasanga.png", "group": "other", "rarity": 1}, {"lat": -1.7875, "lng": -81.8292, "id": "158836", "name": "Tropical hatchetfish", "thumb": "tn_Arlyc_u0.jpg", "sprite": "sp-anchoviella_juruasanga.png", "group": "other", "rarity": 1, "waterType": "Saltwater"}]}