{"zoom": 6, "x": 17, "y": 45, "points": [{"lat": -60.92, "lng": -82.87, "id": "1130", "name": "Decapoda", "sprite": "sp-american_lobster.png", "group": "crab_lobster", "rarity": 1}, {"lat": -59.5024, "lng": -79.8813, "id": "343995", "name": "Thalassarche melanophris", "sprite": "sp-anchoviella_juruasanga.png", "group": "other", "rarity": 1}, {"lat": -60.15, "lng": -82.675, "id": "958", "name": "Tomopteridae", "sprite": "sp-anchoviella_juruasanga.png", "group": "other", "rarity": 1}, {"lat": -59.7, "lng": -82.408, "id": "104236", "name": "Spinocalanus", "sprite": "sp-anchoviella_juruasanga.png", "group": "other", "rarity": 1}, {"lat": -61.2955, "lng": -78.854, "id": "104121", "name": "Gaetanus", "sprite": "sp-anchoviella_juruasanga.png", "group": "other", "rarity": 1}, {"lat": -59.6415, "lng": -82.458, "id": "177051", "name": "Cyphocarididae", "sprite": "sp-american_lobster.png", "group": "crab_lobster", "rarity": 1}, {"lat": -59.3333, "lng": -82.6167, "id": "157083", "name": "Thalassiothrix longissima", "sprite": "sp-anchoviella_juruasanga.png", "group": "other", "rarity": 1}, {"lat": -60.92, "lng": -82.87, "id": "1135", "name": "Amphipoda", "sprite": "sp-american_lobster.png", "group": "crab_lobster", "rarity": 1}, {"lat": -59.583, "lng": -82.508, "id": "104204", "name": "Xanthocalanus", "sprite": "sp-anchoviella_juruasanga.png", "group": "other", "rarity": 1}, {"lat": -60.9833, "lng": -82.8333, "id": "254443", "name": "Asteromphalus parvulus", "sprite": "sp-anchoviella_juruasanga.png", "group": "other", "rarity": 1}, {"lat": -59.8665, "lng": -82.5915, "id": "106727", "name": "Penaeidae", "sprite": "sp-american_lobster.png", "group": "crab_lobster", "rarity": 1}, {"lat": -59.8667, "lng": -82.8333, "id": "234714", "name": "Bolin’s lanternfish", "thumb": "tn_Prbol_u1.gif", "sprite": "sp-anchoviella_juruasanga.png", "group": "other", "rarity": 1, "waterType": "Saltwater"}, {"lat": -60.15, "lng": -82.675, "id": "101796", "name": "Hyperia", "sprite": "sp-american_lobster.png", "group": "crab_lobster", "rarity": 1}, {"lat": -59.3333, "lng": -82.6167, "id": "341504", "name": "Rhizosolenia curvata", "sprite": "sp-anchoviella_juruasanga.png", "group": "other", "rarity": 1}, {"lat": -59.5333, "lng": -82.55, "id": "137233", "name": "Salpa", "sprite": "sp-anchoviella_juruasanga.png", "group": "other", "rarity": 1}, {"lat": -60.7767, "lng": -79.8683, "id": "1410", "name": "Foraminifera", "sprite": "sp-anchoviella_juruasanga.png", "group": "other", "rarity": 1}, {"lat": -59.6415, "lng": -82.458, "id": "104201", "name": "Onchocalanus", "sprite": "sp-anchoviella_juruasanga.png", "group": "other", "rarity": 1}, {"lat": -61.3333, "lng": -78.9167, "id": "234638", "name": "Electron subantarctic", "thumb": "tn_Elcar_u0.jpg", "sprite": "sp-anchoviella_juruasanga.png", "group": "other", "rarity": 1, "waterType": "Saltwater"}, {"lat": -59.53, "lng": -82.6933, "id": "1128", "name": "Euphausiacea", "sprite": "sp-antarctic_krill.png", "group": "shrimp", "rarity": 1}, {"lat": -61.35, "lng": -82.608, "id": "1363", "name": "Scleractinia", "sprite": "sp-actiniidae.png", "group": "coral", "rarity": 1}, {"lat": -59.933, "lng": -82.75, "id": "221297", "name": "Pseudochirella hirsuta", "sprite": "sp-anchoviella_juruasanga.png", "group": "other", "rarity": 1}, {"lat": -59.7, "lng": -82.408, "id": "344705", "name": "Nullosetigera", "sprite": "sp-anchoviella_juruasanga.png", "group": "other", "rarity": 1}, {"lat": -60.688, "lng": -80.022, "id": "13703", "name": "Thecosomata", "sprite": "sp-cowrie_shell.png", "group": "sea_snail", "rarity": 1}, {"lat": -59.6415, "lng": -82.458, "id": "345267", "name": "Pseudochirella mawsoni", "sprite": "sp-anchoviella_juruasanga.png", "group": "other", "rarity": 1}, {"lat": -59.7, "lng": -82.408, "id": "104137", "name": "Augaptilus", "sprite": "sp-anchoviella_juruasanga.png", "group": "other", "rarity": 1}, {"lat": -59.583, "lng": -82.508, "id": "101806", "name": "Primno", "sprite": "sp-american_lobster.png", "group": "crab_lobster", "rarity": 1}, {"lat": -61.3333, "lng": -78.9167, "id": "234641", "name": "Rhombic lanternfish", "thumb": "tn_Krand_u1.gif", "sprite": "sp-anchoviella_juruasanga.png", "group": "other", "rarity": 1, "waterType": "Saltwater"}, {"lat": -61.2906, "lng": -78.9325, "id": "237421", "name": "Parandania gigantea", "sprite": "sp-american_lobster.png", "group": "crab_lobster", "rarity": 1}, {"lat": -61.2867, "lng": -80.121, "id": "231413", "name": "Mirounga leonina", "sprite": "sp-elephant_seal.png", "group": "seal", "rarity": 1}, {"lat": -61.2321, "lng": -83.2747, "id": "231413", "name": "Mirounga leonina", "sprite": "sp-elephant_seal.png", "group": "seal", "rarity": 1}, {"lat": -59.33, "lng": -82.575, "id": "883", "name": "Polychaeta", "sprite": "sp-anchoviella_juruasanga.png", "group": "other", "rarity": 1}, {"lat": -59.3333, "lng": -82.6167, "id": "149110", "name": "Corethron criophilum", "sprite": "sp-anchoviella_juruasanga.png", "group": "other", "rarity": 1}, {"lat": -60.775, "lng": -79.86, "id": "1371", "name": "Siphonophorae", "sprite": "sp-anchoviella_juruasanga.png", "group": "other", "rarity": 1}, {"lat": -60.9833, "lng": -82.8333, "id": "162259", "name": "Asteromphalus hookeri", "sprite": "sp-anchoviella_juruasanga.png", "group": "other", "rarity": 1}, {"lat": -61.233, "lng": -78.775, "id": "344705", "name": "Nullosetigera", "sprite": "sp-anchoviella_juruasanga.png", "group": "other", "rarity": 1}, {"lat": -59.8665, "lng": -82.5915, "id": "106674", "name": "Caridea", "sprite": "sp-american_lobster.png", "group": "crab_lobster", "rarity": 1}, {"lat": -59.3333, "lng": -82.6167, "id": "573422", "name": "Coscinodiscus gracilis", "sprite": "sp-anchoviella_juruasanga.png", "group": "other", "rarity": 1}, {"lat": -61.135, "lng": -82.739, "id": "1080", "name": "Copepoda", "sprite": "sp-anchoviella_juruasanga.png", "group": "other", "rarity": 1}, {"lat": -60.801, "lng": -82.6476, "id": "231404", "name": "Arctocephalus gazella", "sprite": "sp-elephant_seal.png", "group": "seal", "rarity": 1}, {"lat": -61.0395, "lng": -79.4258, "id": "2081", "name": "Chaetognatha", "sprite": "sp-anchoviella_juruasanga.png", "group": "other", "rarity": 1}, {"lat": -60.9333, "lng": -79.59, "id": "103357", "name": "Appendicularia", "sprite": "sp-anchoviella_juruasanga.png", "group": "other", "rarity": 1}, {"lat": -59.933, "lng": -82.75, "id": "1100", "name": "Calanoida", "sprite": "sp-anchoviella_juruasanga.png", "group": "other", "rarity": 1}, {"lat": -60.9833, "lng": -82.8333, "id": "980585", "name": "Chaetoceros criophilum", "sprite": "sp-anchoviella_juruasanga.png", "group": "other", "rarity": 1}, {"lat": -60.15, "lng": -82.675, "id": "237421", "name": "Parandania gigantea", "sprite": "sp-american_lobster.png", "group": "crab_lobster", "rarity": 1}, {"lat": -60.93, "lng": -79.6067, "id": "1135", "name": "Amphipoda", "sprite": "sp-american_lobster.png", "group": "crab_lobster", "rarity": 1}, {"lat": -59.7387, "lng": -82.5553, "id": "104161", "name": "Clausocalanus", "sprite": "sp-anchoviella_juruasanga.png", "group": "other", "rarity": 1}, {"lat": -59.875, "lng": -79.025, "id": "582421", "name": "Radiozoa", "sprite": "sp-anchoviella_juruasanga.png", "group": "other", "rarity": 1}, {"lat": -59.24, "lng": -82.65, "id": "22626", "name": "Thaliacea", "sprite": "sp-anchoviella_juruasanga.png", "group": "other", "rarity": 1}, {"lat": -61.005, "lng": -79.4675, "id": "1080", "name": "Copepoda", "sprite": "sp-anchoviella_juruasanga.png", "group": "other", "rarity": 1}, {"lat": -61.3333, "lng": -78.9167, "id": "234839", "name": "Parallel lanternfish", "thumb": "tn_Prpar_u1.gif", "sprite": "sp-anchoviella_juruasanga.png", "group": "other", "rarity": 1, "waterType": "Saltwater"}, {"lat": -59.6183, "lng": -79.335, "id": "325384", "name": "Themisto gaudichaudii", "sprite": "sp-american_lobster.png", "group": "crab_lobster", "rarity": 1}, {"lat": -59.933, "lng": -82.75, "id": "104112", "name": "Aetideus", "sprite": "sp-anchoviella_juruasanga.png", "group": "other", "rarity": 1}, {"lat": -60.92, "lng": -82.87, "id": "582421", "name": "Radiozoa", "sprite": "sp-anchoviella_juruasanga.png", "group": "other", "rarity": 1}, {"lat": -59.7387, "lng": -82.5553, "id": "104191", "name": "Pleuromamma", "sprite": "sp-anchoviella_juruasanga.png", "group": "other", "rarity": 1}, {"lat": -60.92, "lng": -82.87, "id": "13703", "name": "Thecosomata", "sprite": "sp-cowrie_shell.png", "group": "sea_snail", "rarity": 1}, {"lat": -59.3333, "lng": -82.6167, "id": "686756", "name": "Coscinodiscus tumidus var. fasciculata", "sprite": "sp-anchoviella_juruasanga.png", "group": "other", "rarity": 1}, {"lat": -60.9833, "lng": -82.8333, "id": "149629", "name": "Rhizosolenia styliformis", "sprite": "sp-anchoviella_juruasanga.png", "group": "other", "rarity": 1}, {"lat": -59.583, "lng": -82.508, "id": "104202", "name": "Phaenna", "sprite": "sp-anchoviella_juruasanga.png", "group": "other", "rarity": 1}, {"lat": -59.8415, "lng": -82.5853, "id": "104172", "name": "Rhincalanus", "sprite": "sp-anchoviella_juruasanga.png", "group": "other", "rarity": 1}, {"lat": -61.1982, "lng": -80.131, "id": "212583", "name": "Diomedea exulans", "sprite": "sp-anchoviella_juruasanga.png", "group": "other", "rarity": 1}, {"lat": -61.233, "lng": -78.775, "id": "104161", "name": "Clausocalanus", "sprite": "sp-anchoviella_juruasanga.png", "group": "other", "rarity": 1}, {"lat": -61.0739, "lng": -79.8812, "id": "212656", "name": "Aptenodytes patagonicus", "sprite": "sp-anchoviella_juruasanga.png", "group": "other", "rarity": 1}, {"lat": -59.5277, "lng": -83.2299, "id": "225760", "name": "Thalassarche chrysostoma", "sprite": "sp-anchoviella_juruasanga.png", "group": "other", "rarity": 1}, {"lat": -61.283, "lng": -82.617, "id": "174064", "name": "Molpadia discors", "sprite": "sp-sea_cucumber.png", "group": "starfish", "rarity": 1}, {"lat": -59.7, "lng": -82.408, "id": "101395", "name": "Lysianassidae", "sprite": "sp-american_lobster.png", "group": "crab_lobster", "rarity": 1}, {"lat": -59.33, "lng": -82.58, "id": "1082", "name": "Cirripedia", "sprite": "sp-anchoviella_juruasanga.png", "group": "other", "rarity": 1}, {"lat": -59.758, "lng": -82.629, "id": "104157", "name": "Candacia", "sprite": "sp-anchoviella_juruasanga.png", "group": "other", "rarity": 1}, {"lat": -61.233, "lng": -78.775, "id": "104183", "name": "Lucicutia", "sprite": "sp-anchoviella_juruasanga.png", "group": "other", "rarity": 1}, {"lat": -59.27, "lng": -82.6233, "id": "103357", "name": "Appendicularia", "sprite": "sp-anchoviella_juruasanga.png", "group": "other", "rarity": 1}, {"lat": -61.3053, "lng": -82.614, "id": "123935", "name": "Porcellanaster ceruleus", "sprite": "sp-sea_cucumber.png", "group": "starfish", "rarity": 1}, {"lat": -60.92, "lng": -82.87, "id": "1371", "name": "Siphonophorae", "sprite": "sp-anchoviella_juruasanga.png", "group": "other", "rarity": 1}, {"lat": -61.233, "lng": -78.775, "id": "104120", "name": "Euchirella", "sprite": "sp-anchoviella_juruasanga.png", "group": "other", "rarity": 1}, {"lat": -61.233, "lng": -78.775, "id": "104139", "name": "Euaugaptilus", "sprite": "sp-anchoviella_juruasanga.png", "group": "other", "rarity": 1}, {"lat": -59.8667, "lng": -82.8333, "id": "234767", "name": "Tenison’s lanternfish", "thumb": "tn_Prten_u0.jpg", "sprite": "sp-anchoviella_juruasanga.png", "group": "other", "rarity": 1, "waterType": "Saltwater"}, {"lat": -60.9833, "lng": -82.8333, "id": "341561", "name": "Fragilariopsis separanda", "sprite": "sp-anchoviella_juruasanga.png", "group": "other", "rarity": 1}, {"lat": -61.3333, "lng": -78.9167, "id": "217697", "name": "Electrona antarctica", "thumb": "tn_Elant_u0.gif", "sprite": "sp-anchoviella_juruasanga.png", "group": "other", "rarity": 1, "waterType": "Saltwater"}, {"lat": -61.2955, "lng": -78.854, "id": "104172", "name": "Rhincalanus", "sprite": "sp-anchoviella_juruasanga.png", "group": "other", "rarity": 1}, {"lat": -61.3165, "lng": -82.6125, "id": "160816", "name": "Pilematechinus vesica", "sprite": "sp-sea_cucumber.png", "group": "starfish", "rarity": 1}, {"lat": -60.92, "lng": -82.87, "id": "11676", "name": "Pisces", "sprite": "sp-anchoviella_juruasanga.png", "group": "other", "rarity": 1}, {"lat": -59.59, "lng": -82.8025, "id": "19494", "name": "Hydroidolina", "sprite": "sp-anchoviella_juruasanga.png", "group": "other", "rarity": 1}, {"lat": -59.811, "lng": -82.5303, "id": "104087", "name": "Heterorhabdidae", "sprite": "sp-anchoviella_juruasanga.png", "group": "other", "rarity": 1}, {"lat": -61.1757, "lng": -80.1967, "id": "231404", "name": "Arctocephalus gazella", "sprite": "sp-elephant_seal.png", "group": "seal", "rarity": 1}, {"lat": -59.7, "lng": -82.408, "id": "104179", "name": "Heterostylites", "sprite": "sp-anchoviella_juruasanga.png", "group": "other", "rarity": 1}, {"lat": -59.8, "lng": -82.6052, "id": "101607", "name": "Eurythenes", "sprite": "sp-american_lobster.png", "group": "crab_lobster", "rarity": 1}, {"lat": -59.3333, "lng": -82.6167, "id": "345847", "name": "Actinocyclus curvatulus", "sprite": "sp-anchoviella_juruasanga.png", "group": "other", "rarity": 1}, {"lat": -61.3333, "lng": -78.9167, "id": "234749", "name": "Gymnoscopelus opisthopterus", "thumb": "tn_Gyopi_u0.jpg", "sprite": "sp-anchoviella_juruasanga.png", "group": "other", "rarity": 1, "waterType": "Saltwater"}, {"lat": -61.233, "lng": -78.775, "id": "221297", "name": "Pseudochirella hirsuta", "sprite": "sp-anchoviella_juruasanga.png", "group": "other", "rarity": 1}, {"lat": -59.7, "lng": -82.408, "id": "101426", "name": "Vibiliidae", "sprite": "sp-american_lobster.png", "group": "crab_lobster", "rarity": 1}, {"lat": -60.9833, "lng": -82.8333, "id": "341506", "name": "Rhizosolenia simplex", "sprite": "sp-anchoviella_juruasanga.png", "group": "other", "rarity": 1}, {"lat": -61.233, "lng": -78.775, "id": "104171", "name": "Eucalanus", "sprite": "sp-anchoviella_juruasanga.png", "group": "other", "rarity": 1}, {"lat": -61.2833, "lng": -78.8458, "id": "101603", "name": "Cyphocaris", "sprite": "sp-american_lobster.png", "group": "crab_lobster", "rarity": 1}, {"lat": -60.9833, "lng": -82.8333, "id": "573516", "name": "Nitzschia lineola", "sprite": "sp-anchoviella_juruasanga.png", "group": "other", "rarity": 1}, {"lat": -59.88, "lng": -79.03, "id": "1128", "name": "Euphausiacea", "sprite": "sp-antarctic_krill.png", "group": "shrimp", "rarity": 1}, {"lat": -60.15, "lng": -82.675, "id": "959", "name": "Typhloscolecidae", "sprite": "sp-anchoviella_juruasanga.png", "group": "other", "rarity": 1}, {"lat": -59.3333, "lng": -82.6167, "id": "149168", "name": "Proboscia alata", "sprite": "sp-anchoviella_juruasanga.png", "group": "other", "rarity": 1}, {"lat": -60.775, "lng": -79.86, "id": "1082", "name": "Cirripedia", "sprite": "sp-anchoviella_juruasanga.png", "group": "other", "rarity": 1}, {"lat": -60.9833, "lng": -82.8333, "id": "248088", "name": "Pleurosigma directum", "sprite": "sp-anchoviella_juruasanga.png", "group": "other", "rarity": 1}, {"lat": -60.15, "lng": -82.675, "id": "325405", "name": "Cyllopus", "sprite": "sp-american_lobster.png", "group": "crab_lobster", "rarity": 1}, {"lat": -61.35, "lng": -82.608, "id": "135108", "name": "Balanophyllia", "sprite": "sp-actiniidae.png", "group": "coral", "rarity": 1}, {"lat": -60.9833, "lng": -82.8333, "id": "573621", "name": "Terebraria kerguelensis", "sprite": "sp-anchoviella_juruasanga.png", "group": "other", "rarity": 1}, {"lat": -60.15, "lng": -82.675, "id": "137222", "name": "Doliolum", "sprite": "sp-anchoviella_juruasanga.png", "group": "other", "rarity": 1}, {"lat": -59.33, "lng": -82.58, "id": "1135", "name": "Amphipoda", "sprite": "sp-american_lobster.png", "group": "crab_lobster", "rarity": 1}, {"lat": -60.0415, "lng": -82.7125, "id": "101800", "name": "Themisto", "sprite": "sp-american_lobster.png", "group": "crab_lobster", "rarity": 1}, {"lat": -59.7387, "lng": -82.5553, "id": "104183", "name": "Lucicutia", "sprite": "sp-anchoviella_juruasanga.png", "group": "other", "rarity": 1}, {"lat": -61.0566, "lng": -79.374, "id": "1078", "name": "Ostracoda", "sprite": "sp-anchoviella_juruasanga.png", "group": "other", "rarity": 1}, {"lat": -59.7, "lng": -82.408, "id": "101812", "name": "Vibilia", "sprite": "sp-american_lobster.png", "group": "crab_lobster", "rarity": 1}, {"lat": -61.233, "lng": -78.775, "id": "104620", "name": "Bathycalanus richardi", "sprite": "sp-anchoviella_juruasanga.png", "group": "other", "rarity": 1}, {"lat": -60.92, "lng": -82.87, "id": "1410", "name": "Foraminifera", "sprite": "sp-anchoviella_juruasanga.png", "group": "other", "rarity": 1}, {"lat": -59.3333, "lng": -82.6167, "id": "149288", "name": "Chaetoceros atlanticus", "sprite": "sp-anchoviella_juruasanga.png", "group": "other", "rarity": 1}, {"lat": -61.0878, "lng": -82.2964, "id": "343995", "name": "Thalassarche melanophris", "sprite": "sp-anchoviella_juruasanga.png", "group": "other", "rarity": 1}, {"lat": -59.4912, "lng": -82.7244, "id": "1078", "name": "Ostracoda", "sprite": "sp-anchoviella_juruasanga.png", "group": "other", "rarity": 1}, {"lat": -59.583, "lng": -82.508, "id": "237653", "name": "Harcledo", "sprite": "sp-american_lobster.png", "group": "crab_lobster", "rarity": 1}, {"lat": -60.9833, "lng": -82.8333, "id": "178215", "name": "Chaetoceros dichaeta", "sprite": "sp-anchoviella_juruasanga.png", "group": "other", "rarity": 1}, {"lat": -61.358, "lng": -78.933, "id": "104152", "name": "Calanus", "sprite": "sp-anchoviella_juruasanga.png", "group": "other", "rarity": 1}, {"lat": -60.92, "lng": -82.87, "id": "2081", "name": "Chaetognatha", "sprite": "sp-anchoviella_juruasanga.png", "group": "other", "rarity": 1}, {"lat": -61.1528, "lng": -79.9151, "id": "225760", "name": "Thalassarche chrysostoma", "sprite": "sp-anchoviella_juruasanga.png", "group": "other", "rarity": 1}, {"lat": -61.2955, "lng": -78.854, "id": "603038", "name": "Heterorhabdus", "sprite": "sp-anchoviella_juruasanga.png", "group": "other", "rarity": 1}, {"lat": -60.87, "lng": -80.33, "id": "263968", "name": "Vanhoeffenura fragilis", "sprite": "sp-american_lobster.png", "group": "crab_lobster", "rarity": 1}, {"lat": -61.233, "lng": -78.775, "id": "104137", "name": "Augaptilus", "sprite": "sp-anchoviella_juruasanga.png", "group": "other", "rarity": 1}, {"lat": -61.35, "lng": -82.608, "id": "173052", "name": "Flabellum (Flabellum) curvatum", "sprite": "sp-actiniidae.png", "group": "coral", "rarity": 1}]}