{"zoom": 6, "x": 19, "y": 48, "points": [{"lat": -67.7678, "lng": -68.4157, "id": "131905", "name": "Isodictya", "sprite": "sp-barrel_sponge.png", "group": "sponge", "rarity": 1}, {"lat": -68.5461, "lng": -71.0912, "id": "220837", "name": "Rhincalanus gigas", "sprite": "sp-anchoviella_juruasanga.png", "group": "other", "rarity": 1}, {"lat": -67.5722, "lng": -68.1334, "id": "164875", "name": "Dendrilla antarctica", "sprite": "sp-barrel_sponge.png", "group": "sponge", "rarity": 1}, {"lat": -66.7917, "lng": -71.3257, "id": "465389", "name": "Chaetoceros criophilus", "sprite": "sp-anchoviella_juruasanga.png", "group": "other", "rarity": 1}, {"lat": -66.7931, "lng": -69.0173, "id": "391376", "name": "Xestoleberis rigusa", "sprite": "sp-anchoviella_juruasanga.png", "group": "other", "rarity": 1}, {"lat": -66.7222, "lng": -70.9084, "id": "397223", "name": "Textularia antarctica", "sprite": "sp-anchoviella_juruasanga.png", "group": "other", "rarity": 1}, {"lat": -67.7852, "lng": -69.7113, "id": "173198", "name": "Colossendeis megalonyx", "sprite": "sp-anchoviella_juruasanga.png", "group": "other", "rarity": 1}, {"lat": -67.5997, "lng": -68.2256, "id": "267895", "name": "Tenuisis", "sprite": "sp-actiniidae.png", "group": "coral", "rarity": 1}, {"lat": -67.83, "lng": -69.175, "id": "172785", "name": "Lophaster gaini", "sprite": "sp-sea_cucumber.png", "group": "starfish", "rarity": 1}, {"lat": -67.75, "lng": -70.7633, "id": "167400", "name": "Iophon flabellodigitatum", "sprite": "sp-barrel_sponge.png", "group": "sponge", "rarity": 1}, {"lat": -67.8503, "lng": -68.5528, "id": "173368", "name": "Nymphon australe", "sprite": "sp-anchoviella_juruasanga.png", "group": "other", "rarity": 1}, {"lat": -67.8539, "lng": -69.7753, "id": "160830", "name": "Sterechinus diadema", "sprite": "sp-sea_cucumber.png", "group": "starfish", "rarity": 1}, {"lat": -67.9848, "lng": -68.7442, "id": "135311", "name": "Stygiomedusa gigantea", "sprite": "sp-box_jellyfish.png", "group": "jellyfish", "rarity": 1}, {"lat": -68.223, "lng": -69.0693, "id": "2081", "name": "Chaetognatha", "sprite": "sp-anchoviella_juruasanga.png", "group": "other", "rarity": 1}, {"lat": -67.15, "lng": -69.45, "id": "173167", "name": "Astrotoma agassizii", "sprite": "sp-sea_cucumber.png", "group": "starfish", "rarity": 1}, {"lat": -66.696, "lng": -69.4875, "id": "104229", "name": "Scolecithricella", "sprite": "sp-anchoviella_juruasanga.png", "group": "other", "rarity": 1}, {"lat": -67.1333, "lng": -69.1083, "id": "1574977", "name": "Ophiosabine pentactis", "sprite": "sp-sea_cucumber.png", "group": "starfish", "rarity": 1}, {"lat": -67.5667, "lng": -68.1167, "id": "110993", "name": "Alcyonidium", "sprite": "sp-anchoviella_juruasanga.png", "group": "other", "rarity": 1}, {"lat": -66.8088, "lng": -70.357, "id": "2081", "name": "Chaetognatha", "sprite": "sp-anchoviella_juruasanga.png", "group": "other", "rarity": 1}, {"lat": -67.5334, "lng": -68.1083, "id": "247918", "name": "Philodina", "sprite": "sp-anchoviella_juruasanga.png", "group": "other", "rarity": 1}, {"lat": -67.9612, "lng": -71.0603, "id": "174300", "name": "Micropora notialis", "sprite": "sp-anchoviella_juruasanga.png", "group": "other", "rarity": 1}, {"lat": -66.5417, "lng": -71.3417, "id": "412756", "name": "Ammoglobigerina globulosa", "sprite": "sp-anchoviella_juruasanga.png", "group": "other", "rarity": 1}, {"lat": -67.3392, "lng": -70.9571, "id": "231417", "name": "Hydrurga leptonyx", "sprite": "sp-elephant_seal.png", "group": "seal", "rarity": 1}, {"lat": -67.1958, "lng": -69.875, "id": "113988", "name": "Nodulina dentaliniformis", "sprite": "sp-anchoviella_juruasanga.png", "group": "other", "rarity": 1}, {"lat": -66.8125, "lng": -70.9, "id": "113988", "name": "Nodulina dentaliniformis", "sprite": "sp-anchoviella_juruasanga.png", "group": "other", "rarity": 1}, {"lat": -67.7601, "lng": -68.3562, "id": "172533", "name": "Notasterias", "sprite": "sp-sea_cucumber.png", "group": "starfish", "rarity": 1}, {"lat": -67.1958, "lng": -69.875, "id": "114273", "name": "Textularia earlandi", "sprite": "sp-anchoviella_juruasanga.png", "group": "other", "rarity": 1}, {"lat": -67.354, "lng": -69.8165, "id": "160820", "name": "Pourtalesia debilis", "sprite": "sp-sea_cucumber.png", "group": "starfish", "rarity": 1}, {"lat": -68.3562, "lng": -72.4272, "id": "101", "name": "Gastropoda", "sprite": "sp-cowrie_shell.png", "group": "sea_snail", "rarity": 1}, {"lat": -67.9085, "lng": -68.3398, "id": "110671", "name": "Euphausiidae", "sprite": "sp-antarctic_krill.png", "group": "shrimp", "rarity": 1}, {"lat": -67.8333, "lng": -68.75, "id": "174311", "name": "Reteporella hippocrepis", "sprite": "sp-anchoviella_juruasanga.png", "group": "other", "rarity": 1}, {"lat": -66.8125, "lng": -71.0042, "id": "114306", "name": "Lepidodeuterammina ochracea", "sprite": "sp-anchoviella_juruasanga.png", "group": "other", "rarity": 1}, {"lat": -68.5, "lng": -68.5, "id": "123386", "name": "Echinus", "sprite": "sp-sea_cucumber.png", "group": "starfish", "rarity": 1}, {"lat": -68.203, "lng": -68.9102, "id": "212638", "name": "Fulmarus glacialoides", "sprite": "sp-anchoviella_juruasanga.png", "group": "other", "rarity": 1}, {"lat": -67.9582, "lng": -72.3632, "id": "343995", "name": "Thalassarche melanophris", "sprite": "sp-anchoviella_juruasanga.png", "group": "other", "rarity": 1}, {"lat": -66.843, "lng": -68.7359, "id": "104162", "name": "Ctenocalanus", "sprite": "sp-anchoviella_juruasanga.png", "group": "other", "rarity": 1}, {"lat": -68.5, "lng": -68.5, "id": "834406", "name": "Debroyerella similis", "sprite": "sp-american_lobster.png", "group": "crab_lobster", "rarity": 1}, {"lat": -67.3333, "lng": -67.8333, "id": "234707", "name": "Pagetopsis macropterus", "thumb": "tn_Pamac_uf.jpg", "sprite": "sp-anchoviella_juruasanga.png", "group": "other", "rarity": 1, "waterType": "Saltwater"}, {"lat": -67.82, "lng": -68.6872, "id": "125276", "name": "Isididae", "sprite": "sp-actiniidae.png", "group": "coral", "rarity": 1}, {"lat": -67.5773, "lng": -68.192, "id": "197259", "name": "Margarella whiteana", "sprite": "sp-cowrie_shell.png", "group": "sea_snail", "rarity": 1}, {"lat": -67.26, "lng": -70.2, "id": "173185", "name": "Tylobranchion speciosum", "sprite": "sp-anchoviella_juruasanga.png", "group": "other", "rarity": 1}, {"lat": -68.0773, "lng": -68.6052, "id": "342434", "name": "Calanoides acutus", "sprite": "sp-anchoviella_juruasanga.png", "group": "other", "rarity": 1}, {"lat": -66.9079, "lng": -68.9697, "id": "237965", "name": "Gaetanus tenuispinus", "sprite": "sp-anchoviella_juruasanga.png", "group": "other", "rarity": 1}, {"lat": -68.4867, "lng": -72.735, "id": "22612", "name": "Hexactinellida", "sprite": "sp-barrel_sponge.png", "group": "sponge", "rarity": 1}, {"lat": -66.5417, "lng": -71.3417, "id": "113898", "name": "Rhabdammina abyssorum", "sprite": "sp-anchoviella_juruasanga.png", "group": "other", "rarity": 1}, {"lat": -67.2059, "lng": -69.6049, "id": "160828", "name": "Sterechinus antarcticus", "sprite": "sp-sea_cucumber.png", "group": "starfish", "rarity": 1}, {"lat": -66.7458, "lng": -70.8542, "id": "146263", "name": "Fursenkoina schreibersiana", "sprite": "sp-anchoviella_juruasanga.png", "group": "other", "rarity": 1}, {"lat": -68.2266, "lng": -69.1457, "id": "138132", "name": "Limopsis", "sprite": "sp-blue_mussel.png", "group": "clam_mussel", "rarity": 1}, {"lat": -67.8333, "lng": -68.75, "id": "469406", "name": "Notoplites drygalskii", "sprite": "sp-anchoviella_juruasanga.png", "group": "other", "rarity": 1}, {"lat": -67.0833, "lng": -70.6667, "id": "113495", "name": "Lagena hispida", "sprite": "sp-anchoviella_juruasanga.png", "group": "other", "rarity": 1}, {"lat": -67.6011, "lng": -68.2244, "id": "131636", "name": "Chalinidae", "sprite": "sp-barrel_sponge.png", "group": "sponge", "rarity": 1}, {"lat": -67.5722, "lng": -68.1167, "id": "173260", "name": "Xylochotridens rangifer", "sprite": "sp-anchoviella_juruasanga.png", "group": "other", "rarity": 1}, {"lat": -68.5, "lng": -68.5, "id": "110864", "name": "Caberea", "sprite": "sp-anchoviella_juruasanga.png", "group": "other", "rarity": 1}, {"lat": -66.6084, "lng": -71.1792, "id": "114207", "name": "Tholosina laevis", "sprite": "sp-anchoviella_juruasanga.png", "group": "other", "rarity": 1}, {"lat": -67.15, "lng": -70.1334, "id": "398905", "name": "Eratidus foliaceus", "sprite": "sp-anchoviella_juruasanga.png", "group": "other", "rarity": 1}, {"lat": -67.8333, "lng": -68.75, "id": "471070", "name": "Arachnopusia monoceros", "sprite": "sp-anchoviella_juruasanga.png", "group": "other", "rarity": 1}, {"lat": -66.5417, "lng": -71.3417, "id": "491734", "name": "Pseudonodosinella nodulosa", "sprite": "sp-anchoviella_juruasanga.png", "group": "other", "rarity": 1}, {"lat": -66.975, "lng": -71.861, "id": "164", "name": "Gymnosomata", "sprite": "sp-cowrie_shell.png", "group": "sea_snail", "rarity": 1}, {"lat": -68.2317, "lng": -67.5183, "id": "167421", "name": "Iophon radiatum", "sprite": "sp-barrel_sponge.png", "group": "sponge", "rarity": 1}, {"lat": -67.8565, "lng": -69.175, "id": "173680", "name": "Ophiuroglypha carinifera", "sprite": "sp-sea_cucumber.png", "group": "starfish", "rarity": 1}, {"lat": -68.1499, "lng": -68.9941, "id": "137092", "name": "Megaptera novaeangliae", "sprite": "sp-blue_whale.png", "group": "whale", "rarity": 1}, {"lat": -68.22, "lng": -68.5525, "id": "1337", "name": "Hydrozoa", "sprite": "sp-anchoviella_juruasanga.png", "group": "other", "rarity": 1}, {"lat": -67.156, "lng": -69.7417, "id": "163161", "name": "Chaetoceros tortissimus", "sprite": "sp-anchoviella_juruasanga.png", "group": "other", "rarity": 1}, {"lat": -68.404, "lng": -72.304, "id": "236220", "name": "Euphausia triacantha", "sprite": "sp-antarctic_krill.png", "group": "shrimp", "rarity": 1}, {"lat": -68.3401, "lng": -72.4624, "id": "1078", "name": "Ostracoda", "sprite": "sp-anchoviella_juruasanga.png", "group": "other", "rarity": 1}, {"lat": -67.5892, "lng": -68.2056, "id": "171285", "name": "Cinachyra antarctica", "sprite": "sp-barrel_sponge.png", "group": "sponge", "rarity": 1}, {"lat": -67.8242, "lng": -68.91, "id": "1589849", "name": "Amphiura acuta", "sprite": "sp-sea_cucumber.png", "group": "starfish", "rarity": 1}, {"lat": -66.825, "lng": -70.675, "id": "113115", "name": "Pullenia subcarinata", "sprite": "sp-anchoviella_juruasanga.png", "group": "other", "rarity": 1}, {"lat": -66.95, "lng": -70.3667, "id": "480183", "name": "Loeblichopsis sabulosa", "sprite": "sp-anchoviella_juruasanga.png", "group": "other", "rarity": 1}, {"lat": -67.883, "lng": -69.175, "id": "130513", "name": "Leitoscoloplos kerguelensis", "sprite": "sp-anchoviella_juruasanga.png", "group": "other", "rarity": 1}, {"lat": -68.51, "lng": -68.5, "id": "111400", "name": "Hippothoa flagellum", "sprite": "sp-anchoviella_juruasanga.png", "group": "other", "rarity": 1}, {"lat": -67.5953, "lng": -68.2133, "id": "125322", "name": "Primnoella", "sprite": "sp-actiniidae.png", "group": "coral", "rarity": 1}, {"lat": -67.2271, "lng": -69.7, "id": "149152", "name": "Pseudo-nitzschia seriata", "sprite": "sp-anchoviella_juruasanga.png", "group": "other", "rarity": 1}, {"lat": -67.8565, "lng": -69.175, "id": "1574978", "name": "Ophiosabine vivipara", "sprite": "sp-sea_cucumber.png", "group": "starfish", "rarity": 1}, {"lat": -67.75, "lng": -70.7633, "id": "869817", "name": "Primnoisis (Delicatisis) gracilis", "sprite": "sp-actiniidae.png", "group": "coral", "rarity": 1}, {"lat": -66.8, "lng": -69.11, "id": "291452", "name": "Philomedes heptathrix", "sprite": "sp-anchoviella_juruasanga.png", "group": "other", "rarity": 1}, {"lat": -67.575, "lng": -68.1417, "id": "173229", "name": "Valdemunitella lata", "sprite": "sp-anchoviella_juruasanga.png", "group": "other", "rarity": 1}, {"lat": -68.0709, "lng": -68.6191, "id": "11676", "name": "Pisces", "sprite": "sp-anchoviella_juruasanga.png", "group": "other", "rarity": 1}, {"lat": -68.5, "lng": -68.5, "id": "286091", "name": "Acanthogorgia thomsoni", "sprite": "sp-actiniidae.png", "group": "coral", "rarity": 1}, {"lat": -68.3656, "lng": -72.2804, "id": "883", "name": "Polychaeta", "sprite": "sp-anchoviella_juruasanga.png", "group": "other", "rarity": 1}, {"lat": -67.1333, "lng": -69.1083, "id": "326393", "name": "Amphitrite kerguelensis", "sprite": "sp-anchoviella_juruasanga.png", "group": "other", "rarity": 1}, {"lat": -68.5, "lng": -70.75, "id": "341658", "name": "Codonellopsis gaussi", "sprite": "sp-anchoviella_juruasanga.png", "group": "other", "rarity": 1}, {"lat": -67.0766, "lng": -69.3616, "id": "173040", "name": "Austropallene cornigera", "sprite": "sp-anchoviella_juruasanga.png", "group": "other", "rarity": 1}, {"lat": -67.0926, "lng": -69.7067, "id": "573621", "name": "Terebraria kerguelensis", "sprite": "sp-anchoviella_juruasanga.png", "group": "other", "rarity": 1}, {"lat": -67.5997, "lng": -68.2256, "id": "169603", "name": "Tedania (Tedaniopsis) vanhoeffeni", "sprite": "sp-barrel_sponge.png", "group": "sponge", "rarity": 1}, {"lat": -68.07, "lng": -72.9, "id": "817507", "name": "Ammoflintina argentea", "sprite": "sp-anchoviella_juruasanga.png", "group": "other", "rarity": 1}, {"lat": -67.8333, "lng": -68.9667, "id": "168461", "name": "Isodictya lankesteri", "sprite": "sp-barrel_sponge.png", "group": "sponge", "rarity": 1}, {"lat": -67.5688, "lng": -68.1315, "id": "172680", "name": "Cryptasterias turqueti", "sprite": "sp-sea_cucumber.png", "group": "starfish", "rarity": 1}, {"lat": -68.5, "lng": -69.0, "id": "197408", "name": "Prosipho hedleyi", "sprite": "sp-cowrie_shell.png", "group": "sea_snail", "rarity": 1}, {"lat": -67.5712, "lng": -68.1208, "id": "197475", "name": "Toledonia limnaeaeformis", "sprite": "sp-cowrie_shell.png", "group": "sea_snail", "rarity": 1}, {"lat": -68.5, "lng": -68.5, "id": "735779", "name": "Antarctonemertes valida", "sprite": "sp-anchoviella_juruasanga.png", "group": "other", "rarity": 1}, {"lat": -67.5997, "lng": -68.2256, "id": "131851", "name": "Calyx", "sprite": "sp-barrel_sponge.png", "group": "sponge", "rarity": 1}, {"lat": -68.404, "lng": -72.304, "id": "104117", "name": "Chiridius", "sprite": "sp-anchoviella_juruasanga.png", "group": "other", "rarity": 1}, {"lat": -67.8394, "lng": -68.8128, "id": "174160", "name": "Neofungella claviformis", "sprite": "sp-anchoviella_juruasanga.png", "group": "other", "rarity": 1}, {"lat": -67.82, "lng": -68.97, "id": "197365", "name": "Philobrya sublaevis", "sprite": "sp-blue_mussel.png", "group": "clam_mussel", "rarity": 1}, {"lat": -67.333, "lng": -67.667, "id": "101380", "name": "Eusiridae", "sprite": "sp-american_lobster.png", "group": "crab_lobster", "rarity": 1}, {"lat": -67.721, "lng": -70.762, "id": "172722", "name": "Leptychaster magnificus", "sprite": "sp-sea_cucumber.png", "group": "starfish", "rarity": 1}, {"lat": -67.1333, "lng": -69.1083, "id": "174266", "name": "Fenestrulina antarctica", "sprite": "sp-anchoviella_juruasanga.png", "group": "other", "rarity": 1}, {"lat": -67.9612, "lng": -71.0603, "id": "111400", "name": "Hippothoa flagellum", "sprite": "sp-anchoviella_juruasanga.png", "group": "other", "rarity": 1}, {"lat": -66.9592, "lng": -72.5829, "id": "160830", "name": "Sterechinus diadema", "sprite": "sp-sea_cucumber.png", "group": "starfish", "rarity": 1}, {"lat": -68.0, "lng": -70.3331, "id": "712789", "name": "Artedidraco lonnbergi", "thumb": "tn_Arloe_u2.jpg", "sprite": "sp-anchoviella_juruasanga.png", "group": "other", "rarity": 1, "waterType": "Saltwater"}, {"lat": -67.05, "lng": -68.3917, "id": "234777", "name": "Prionodraco evansii", "thumb": "tn_Preva_u0.gif", "sprite": "sp-anchoviella_juruasanga.png", "group": "other", "rarity": 1, "waterType": "Saltwater"}, {"lat": -67.163, "lng": -69.45, "id": "172897", "name": "Ammothea bicorniculata", "sprite": "sp-anchoviella_juruasanga.png", "group": "other", "rarity": 1}, {"lat": -67.5824, "lng": -68.2314, "id": "197282", "name": "Microdiscula vanhoeffeni", "sprite": "sp-cowrie_shell.png", "group": "sea_snail", "rarity": 1}, {"lat": -67.3, "lng": -69.4667, "id": "254694", "name": "Textularia wiesneri", "sprite": "sp-anchoviella_juruasanga.png", "group": "other", "rarity": 1}, {"lat": -66.675, "lng": -71.0167, "id": "113997", "name": "Reophax curtus", "sprite": "sp-anchoviella_juruasanga.png", "group": "other", "rarity": 1}, {"lat": -66.8875, "lng": -70.5209, "id": "591214", "name": "Silicoflagellata", "sprite": "sp-anchoviella_juruasanga.png", "group": "other", "rarity": 1}, {"lat": -67.83, "lng": -69.175, "id": "173217", "name": "Euphrosine monroi", "sprite": "sp-anchoviella_juruasanga.png", "group": "other", "rarity": 1}, {"lat": -67.82, "lng": -68.97, "id": "244605", "name": "Nototanais antarcticus", "sprite": "sp-american_lobster.png", "group": "crab_lobster", "rarity": 1}, {"lat": -67.8333, "lng": -68.75, "id": "169598", "name": "Tedania (Tedaniopsis) massa", "sprite": "sp-barrel_sponge.png", "group": "sponge", "rarity": 1}, {"lat": -67.8833, "lng": -69.1767, "id": "862676", "name": "Pseudoscalibregma bransfieldium", "sprite": "sp-anchoviella_juruasanga.png", "group": "other", "rarity": 1}, {"lat": -67.8562, "lng": -68.7706, "id": "172715", "name": "Bathybiaster loripes", "sprite": "sp-sea_cucumber.png", "group": "starfish", "rarity": 1}, {"lat": -66.7993, "lng": -69.1113, "id": "391291", "name": "Antarctiloxoconcha frigida", "sprite": "sp-anchoviella_juruasanga.png", "group": "other", "rarity": 1}, {"lat": -67.8653, "lng": -69.175, "id": "173647", "name": "Ophiura rouchi", "sprite": "sp-sea_cucumber.png", "group": "starfish", "rarity": 1}, {"lat": -67.8333, "lng": -68.75, "id": "172890", "name": "Arachnopusia latiavicularis", "sprite": "sp-anchoviella_juruasanga.png", "group": "other", "rarity": 1}, {"lat": -67.1048, "lng": -69.7333, "id": "465380", "name": "Biddulphia striata", "sprite": "sp-anchoviella_juruasanga.png", "group": "other", "rarity": 1}, {"lat": -67.1333, "lng": -69.1083, "id": "173155", "name": "Colossendeis australis", "sprite": "sp-anchoviella_juruasanga.png", "group": "other", "rarity": 1}, {"lat": -67.8333, "lng": -68.75, "id": "172972", "name": "Camptoplites bicornis", "sprite": "sp-anchoviella_juruasanga.png", "group": "other", "rarity": 1}, {"lat": -67.1333, "lng": -69.1083, "id": "472760", "name": "Camptoplites latus striatus", "sprite": "sp-anchoviella_juruasanga.png", "group": "other", "rarity": 1}, {"lat": -67.1333, "lng": -69.1083, "id": "173196", "name": "Amphiblestrum inermis", "sprite": "sp-anchoviella_juruasanga.png", "group": "other", "rarity": 1}]}