{"zoom": 6, "x": 1, "y": 16, "points": [{"lat": 64.378, "lng": -173.35, "id": "416573", "name": "Byblis gaimardii", "sprite": "sp-american_lobster.png", "group": "crab_lobster", "rarity": 1}, {"lat": 65.7606, "lng": -169.3216, "id": "106738", "name": "Paguridae", "sprite": "sp-american_lobster.png", "group": "crab_lobster", "rarity": 1}, {"lat": 64.447, "lng": -170.2025, "id": "254523", "name": "Butterfly sculpin", "thumb": "tn_Hepap_m1.jpg", "sprite": "sp-anchoviella_juruasanga.png", "group": "other", "rarity": 1, "waterType": "Saltwater"}, {"lat": 65.5, "lng": -172.1667, "id": "127203", "name": "Shorthorn sculpin", "thumb": "tn_Mysco_m0.jpg", "sprite": "sp-anchoviella_juruasanga.png", "group": "other", "rarity": 1, "waterType": "Brackish"}, {"lat": 65.9847, "lng": -169.6667, "id": "102888", "name": "Monoculodes latimanus", "sprite": "sp-american_lobster.png", "group": "crab_lobster", "rarity": 1}, {"lat": 64.39, "lng": -172.75, "id": "127070", "name": "Stout eelblenny", "thumb": "tn_Anmed_u0.jpg", "sprite": "sp-anchoviella_juruasanga.png", "group": "other", "rarity": 1, "waterType": "Saltwater"}, {"lat": 66.35, "lng": -168.83, "id": "157214", "name": "Arcteobia anticostiensis", "sprite": "sp-anchoviella_juruasanga.png", "group": "other", "rarity": 1}, {"lat": 64.35, "lng": -171.38, "id": "149168", "name": "Proboscia alata", "sprite": "sp-anchoviella_juruasanga.png", "group": "other", "rarity": 1}, {"lat": 66.086, "lng": -169.2967, "id": "104171", "name": "Eucalanus", "sprite": "sp-anchoviella_juruasanga.png", "group": "other", "rarity": 1}, {"lat": 66.35, "lng": -168.83, "id": "123083", "name": "Holothuroidea", "sprite": "sp-sea_cucumber.png", "group": "starfish", "rarity": 1}, {"lat": 65.66, "lng": -171.0, "id": "254383", "name": "Pored sculpin", "sprite": "sp-anchoviella_juruasanga.png", "group": "other", "rarity": 1, "waterType": "Saltwater"}, {"lat": 64.36, "lng": -173.0, "id": "254562", "name": "Yellowfin sole", "thumb": "tn_Liasp_u0.jpg", "sprite": "sp-atlantic_halibut.png", "group": "flatfish", "rarity": 1, "waterType": "Saltwater"}, {"lat": 64.699, "lng": -169.2, "id": "138823", "name": "Astarte montagui", "sprite": "sp-blue_mussel.png", "group": "clam_mussel", "rarity": 1}, {"lat": 64.6667, "lng": -169.4633, "id": "449204", "sprite": "sp-anchoviella_juruasanga.png", "group": "other", "rarity": 1}, {"lat": 64.9123, "lng": -169.1982, "id": "137145", "name": "Larus hyperboreus", "sprite": "sp-anchoviella_juruasanga.png", "group": "other", "rarity": 1}, {"lat": 64.7317, "lng": -168.8872, "id": "117849", "name": "Aglantha digitale", "sprite": "sp-anchoviella_juruasanga.png", "group": "other", "rarity": 1}, {"lat": 64.35, "lng": -171.38, "id": "156607", "name": "Chaetoceros concavicornis", "sprite": "sp-anchoviella_juruasanga.png", "group": "other", "rarity": 1}, {"lat": 65.6682, "lng": -169.5504, "id": "104075", "name": "Aetideidae", "sprite": "sp-anchoviella_juruasanga.png", "group": "other", "rarity": 1}, {"lat": 64.6667, "lng": -169.4633, "id": "148912", "name": "Thalassiosira", "sprite": "sp-anchoviella_juruasanga.png", "group": "other", "rarity": 1}, {"lat": 65.667, "lng": -171.167, "id": "124860", "name": "Ophiocten sericeum", "sprite": "sp-sea_cucumber.png", "group": "starfish", "rarity": 1}, {"lat": 64.6667, "lng": -169.435, "id": "254537", "name": "Saffron cod", "thumb": "tn_Elgra_u0.jpg", "sprite": "sp-arctogadus.png", "group": "cod", "rarity": 1, "waterType": "Brackish"}, {"lat": 65.9488, "lng": -169.5087, "id": "148985", "name": "Chaetoceros", "sprite": "sp-anchoviella_juruasanga.png", "group": "other", "rarity": 1}, {"lat": 64.38, "lng": -173.317, "id": "254545", "name": "Whitespotted greenling", "thumb": "tn_Heste_u8.jpg", "sprite": "sp-anchoviella_juruasanga.png", "group": "other", "rarity": 1, "waterType": "Saltwater"}, {"lat": 65.967, "lng": -169.867, "id": "124934", "name": "Ophiura sarsii", "sprite": "sp-sea_cucumber.png", "group": "starfish", "rarity": 1}, {"lat": 66.35, "lng": -168.83, "id": "225", "name": "Montacutinae", "sprite": "sp-blue_mussel.png", "group": "clam_mussel", "rarity": 1}, {"lat": 65.8208, "lng": -169.075, "id": "168584", "name": "Mycale (Carmia) helios", "sprite": "sp-barrel_sponge.png", "group": "sponge", "rarity": 1}, {"lat": 64.5503, "lng": -169.9203, "id": "137115", "name": "Delphinapterus leucas", "sprite": "sp-anchoviella_juruasanga.png", "group": "other", "rarity": 1}, {"lat": 64.6512, "lng": -169.6014, "id": "582749", "name": "Serripes groenlandicus", "sprite": "sp-blue_mussel.png", "group": "clam_mussel", "rarity": 1}, {"lat": 64.417, "lng": -173.025, "id": "513698", "name": "Strongylocentrotus polyacanthus apicimagis", "sprite": "sp-sea_cucumber.png", "group": "starfish", "rarity": 1}, {"lat": 64.37, "lng": -173.3333, "id": "159846", "name": "Banded gunnel", "thumb": "tn_Phfas_u0.jpg", "sprite": "sp-anchoviella_juruasanga.png", "group": "other", "rarity": 1, "waterType": "Saltwater"}, {"lat": 64.6667, "lng": -169.4633, "id": "110217", "name": "Protoperidinium depressum", "sprite": "sp-anchoviella_juruasanga.png", "group": "other", "rarity": 1}, {"lat": 65.5, "lng": -169.0, "id": "445660", "name": "Littorina squalida", "sprite": "sp-cowrie_shell.png", "group": "sea_snail", "rarity": 1}, {"lat": 65.9167, "lng": -169.3967, "id": "126433", "name": "Polar cod", "thumb": "tn_Bosai_u0.jpg", "sprite": "sp-arctogadus.png", "group": "cod", "rarity": 1, "waterType": "Brackish"}, {"lat": 64.6667, "lng": -169.4633, "id": "149004", "name": "Cylindrotheca closterium", "sprite": "sp-anchoviella_juruasanga.png", "group": "other", "rarity": 1}, {"lat": 64.691, "lng": -169.026, "id": "903", "name": "Paraonidae", "sprite": "sp-anchoviella_juruasanga.png", "group": "other", "rarity": 1}, {"lat": 64.74, "lng": -169.3465, "id": "101446", "name": "Byblis", "sprite": "sp-american_lobster.png", "group": "crab_lobster", "rarity": 1}, {"lat": 64.38, "lng": -173.3167, "id": "254578", "name": "Bearded warbonnet", "thumb": "tn_Chsny_u1.jpg", "sprite": "sp-anchoviella_juruasanga.png", "group": "other", "rarity": 1, "waterType": "Saltwater"}, {"lat": 64.49, "lng": -169.6543, "id": "126150", "name": "Icelus", "sprite": "sp-anchoviella_juruasanga.png", "group": "other", "rarity": 1}, {"lat": 66.35, "lng": -168.83, "id": "101563", "name": "Photis", "sprite": "sp-american_lobster.png", "group": "crab_lobster", "rarity": 1}, {"lat": 65.9382, "lng": -169.3548, "id": "101908", "name": "Ampelisca macrocephala", "sprite": "sp-american_lobster.png", "group": "crab_lobster", "rarity": 1}, {"lat": 65.66, "lng": -171.0, "id": "126507", "name": "Ninespine stickleback", "thumb": "tn_Pupun_u9.jpg", "sprite": "sp-anchoviella_juruasanga.png", "group": "other", "rarity": 1, "waterType": "Brackish"}, {"lat": 64.4003, "lng": -173.2953, "id": "124934", "name": "Ophiura sarsii", "sprite": "sp-sea_cucumber.png", "group": "starfish", "rarity": 1}, {"lat": 64.6667, "lng": -169.4633, "id": "149320", "name": "Navicula transitans", "sprite": "sp-anchoviella_juruasanga.png", "group": "other", "rarity": 1}, {"lat": 64.3731, "lng": -173.1974, "id": "127203", "name": "Shorthorn sculpin", "thumb": "tn_Mysco_m0.jpg", "sprite": "sp-anchoviella_juruasanga.png", "group": "other", "rarity": 1, "waterType": "Brackish"}, {"lat": 65.9115, "lng": -169.118, "id": "254523", "name": "Butterfly sculpin", "thumb": "tn_Hepap_m1.jpg", "sprite": "sp-anchoviella_juruasanga.png", "group": "other", "rarity": 1, "waterType": "Saltwater"}, {"lat": 66.35, "lng": -168.83, "id": "129218", "name": "Mediomastus", "sprite": "sp-anchoviella_juruasanga.png", "group": "other", "rarity": 1}, {"lat": 64.3667, "lng": -173.35, "id": "118217", "name": "Hemiarthrus abdominalis", "sprite": "sp-american_lobster.png", "group": "crab_lobster", "rarity": 1}, {"lat": 64.699, "lng": -169.2, "id": "1269", "name": "Echiura", "sprite": "sp-anchoviella_juruasanga.png", "group": "other", "rarity": 1}, {"lat": 65.5847, "lng": -169.8856, "id": "157670", "name": "Eurytemora herdmani", "sprite": "sp-anchoviella_juruasanga.png", "group": "other", "rarity": 1}, {"lat": 64.41, "lng": -173.3, "id": "254509", "name": "Podothecus veternus", "thumb": "tn_Povet_u1.gif", "sprite": "sp-anchoviella_juruasanga.png", "group": "other", "rarity": 1, "waterType": "Saltwater"}, {"lat": 64.99, "lng": -168.86, "id": "1267", "name": "Cnidaria", "sprite": "sp-anchoviella_juruasanga.png", "group": "other", "rarity": 1}, {"lat": 64.99, "lng": -168.86, "id": "104171", "name": "Eucalanus", "sprite": "sp-anchoviella_juruasanga.png", "group": "other", "rarity": 1}, {"lat": 64.683, "lng": -168.852, "id": "1131", "name": "Isopoda", "sprite": "sp-american_lobster.png", "group": "crab_lobster", "rarity": 1}, {"lat": 64.417, "lng": -173.25, "id": "101877", "name": "Acanthonotozoma serratum", "sprite": "sp-american_lobster.png", "group": "crab_lobster", "rarity": 1}, {"lat": 64.4408, "lng": -169.1883, "id": "106738", "name": "Paguridae", "sprite": "sp-american_lobster.png", "group": "crab_lobster", "rarity": 1}, {"lat": 66.033, "lng": -169.458, "id": "103133", "name": "Metopa robusta", "sprite": "sp-american_lobster.png", "group": "crab_lobster", "rarity": 1}, {"lat": 65.93, "lng": -169.08, "id": "149294", "name": "Chaetoceros simplex", "sprite": "sp-anchoviella_juruasanga.png", "group": "other", "rarity": 1}, {"lat": 66.35, "lng": -168.83, "id": "138823", "name": "Astarte montagui", "sprite": "sp-blue_mussel.png", "group": "clam_mussel", "rarity": 1}, {"lat": 65.821, "lng": -169.1436, "id": "117849", "name": "Aglantha digitale", "sprite": "sp-anchoviella_juruasanga.png", "group": "other", "rarity": 1}, {"lat": 65.7577, "lng": -169.3365, "id": "254453", "name": "Themisto pacifica", "sprite": "sp-american_lobster.png", "group": "crab_lobster", "rarity": 1}, {"lat": 64.417, "lng": -173.1895, "id": "125100", "name": "Amphiura sundevalli", "sprite": "sp-sea_cucumber.png", "group": "starfish", "rarity": 1}, {"lat": 64.35, "lng": -171.38, "id": "162673", "name": "Aphanocapsa reinboldii", "sprite": "sp-anchoviella_juruasanga.png", "group": "other", "rarity": 1}, {"lat": 66.35, "lng": -168.83, "id": "106215", "name": "Balanus crenatus", "sprite": "sp-anchoviella_juruasanga.png", "group": "other", "rarity": 1}, {"lat": 65.4064, "lng": -168.794, "id": "137145", "name": "Larus hyperboreus", "sprite": "sp-anchoviella_juruasanga.png", "group": "other", "rarity": 1}, {"lat": 64.75, "lng": -171.517, "id": "103413", "name": "Oikopleura (Vexillaria) labradoriensis", "sprite": "sp-anchoviella_juruasanga.png", "group": "other", "rarity": 1}, {"lat": 64.5677, "lng": -169.2128, "id": "138672", "name": "Yoldia", "sprite": "sp-blue_mussel.png", "group": "clam_mussel", "rarity": 1}, {"lat": 66.1394, "lng": -169.279, "id": "103375", "name": "Fritillaria borealis", "sprite": "sp-anchoviella_juruasanga.png", "group": "other", "rarity": 1}, {"lat": 65.9166, "lng": -169.625, "id": "134958", "name": "Synchaeta", "sprite": "sp-anchoviella_juruasanga.png", "group": "other", "rarity": 1}, {"lat": 65.7483, "lng": -168.8939, "id": "156452", "name": "Themisto libellula", "sprite": "sp-american_lobster.png", "group": "crab_lobster", "rarity": 1}, {"lat": 64.3, "lng": -173.0415, "id": "102514", "name": "Anonyx nugax", "sprite": "sp-american_lobster.png", "group": "crab_lobster", "rarity": 1}, {"lat": 66.35, "lng": -168.83, "id": "254727", "name": "Barantolla americana", "sprite": "sp-anchoviella_juruasanga.png", "group": "other", "rarity": 1}, {"lat": 65.7558, "lng": -168.937, "id": "282289", "name": "Atka mackerel", "thumb": "tn_Plmon_u3.jpg", "sprite": "sp-anchoviella_juruasanga.png", "group": "other", "rarity": 1, "waterType": "Saltwater"}, {"lat": 64.783, "lng": -168.9898, "id": "137171", "name": "Stercorarius longicaudus", "sprite": "sp-anchoviella_juruasanga.png", "group": "other", "rarity": 1}, {"lat": 64.6863, "lng": -170.2859, "id": "148736", "name": "Pinnipedia", "sprite": "sp-anchoviella_juruasanga.png", "group": "other", "rarity": 1}, {"lat": 65.71, "lng": -168.8333, "id": "254508", "name": "Fourhorn poacher", "thumb": "tn_Hyqua_u0.jpg", "sprite": "sp-anchoviella_juruasanga.png", "group": "other", "rarity": 1, "waterType": "Saltwater"}, {"lat": 65.135, "lng": -169.425, "id": "963482", "name": "Nitzschia closterium", "sprite": "sp-anchoviella_juruasanga.png", "group": "other", "rarity": 1}, {"lat": 66.395, "lng": -169.2184, "id": "104632", "name": "Metridia longa", "sprite": "sp-anchoviella_juruasanga.png", "group": "other", "rarity": 1}, {"lat": 64.35, "lng": -171.38, "id": "156617", "name": "Chaetoceros lorenzianus", "sprite": "sp-anchoviella_juruasanga.png", "group": "other", "rarity": 1}, {"lat": 64.9622, "lng": -170.0992, "id": "104517", "name": "Pseudocalanus minutus", "sprite": "sp-anchoviella_juruasanga.png", "group": "other", "rarity": 1}, {"lat": 64.7328, "lng": -169.5004, "id": "921", "name": "Capitellidae", "sprite": "sp-anchoviella_juruasanga.png", "group": "other", "rarity": 1}, {"lat": 64.7111, "lng": -169.5532, "id": "138531", "name": "Macoma", "sprite": "sp-blue_mussel.png", "group": "clam_mussel", "rarity": 1}, {"lat": 65.7196, "lng": -168.7723, "id": "137041", "name": "Uria", "sprite": "sp-anchoviella_juruasanga.png", "group": "other", "rarity": 1}, {"lat": 65.533, "lng": -168.9024, "id": "137112", "name": "Eschrichtius robustus", "sprite": "sp-blue_whale.png", "group": "whale", "rarity": 1}, {"lat": 66.35, "lng": -168.83, "id": "101400", "name": "Oedicerotidae", "sprite": "sp-american_lobster.png", "group": "crab_lobster", "rarity": 1}, {"lat": 64.7333, "lng": -169.5833, "id": "158088", "name": "Ericthonius tolli", "sprite": "sp-american_lobster.png", "group": "crab_lobster", "rarity": 1}, {"lat": 65.7183, "lng": -168.9667, "id": "13703", "name": "Thecosomata", "sprite": "sp-cowrie_shell.png", "group": "sea_snail", "rarity": 1}, {"lat": 65.667, "lng": -169.499, "id": "6", "name": "Bacteria", "sprite": "sp-anchoviella_juruasanga.png", "group": "other", "rarity": 1}, {"lat": 65.7924, "lng": -169.3655, "id": "137086", "name": "Balaena mysticetus", "sprite": "sp-blue_whale.png", "group": "whale", "rarity": 1}, {"lat": 65.0529, "lng": -168.908, "id": "343903", "name": "Fratercula corniculata", "sprite": "sp-anchoviella_juruasanga.png", "group": "other", "rarity": 1}, {"lat": 64.4916, "lng": -170.441, "id": "254565", "name": "Smoothcheek sculpin", "thumb": "tn_Eugyr_u0.jpg", "sprite": "sp-anchoviella_juruasanga.png", "group": "other", "rarity": 1, "waterType": "Saltwater"}, {"lat": 64.3479, "lng": -171.3631, "id": "254561", "name": "Bering flounder", "sprite": "sp-atlantic_halibut.png", "group": "flatfish", "rarity": 1, "waterType": "Saltwater"}, {"lat": 64.42, "lng": -172.2, "id": "963482", "name": "Nitzschia closterium", "sprite": "sp-anchoviella_juruasanga.png", "group": "other", "rarity": 1}, {"lat": 64.9824, "lng": -169.4261, "id": "137102", "name": "Orcinus orca", "sprite": "sp-bottlenose_dolphin.png", "group": "dolphin", "rarity": 1}, {"lat": 65.4794, "lng": -168.8445, "id": "137173", "name": "Stercorarius pomarinus", "sprite": "sp-anchoviella_juruasanga.png", "group": "other", "rarity": 1}, {"lat": 64.8449, "lng": -168.9247, "id": "137167", "name": "Xema sabini", "sprite": "sp-anchoviella_juruasanga.png", "group": "other", "rarity": 1}, {"lat": 65.4315, "lng": -168.8732, "id": "137003", "name": "Somateria", "sprite": "sp-anchoviella_juruasanga.png", "group": "other", "rarity": 1}, {"lat": 65.9585, "lng": -169.6307, "id": "416573", "name": "Byblis gaimardii", "sprite": "sp-american_lobster.png", "group": "crab_lobster", "rarity": 1}, {"lat": 64.5221, "lng": -169.8311, "id": "254584", "name": "Saddled eelpout", "thumb": "tn_Lymuc_u0.gif", "sprite": "sp-anchoviella_juruasanga.png", "group": "other", "rarity": 1, "waterType": "Saltwater"}, {"lat": 64.9011, "lng": -169.9841, "id": "128956", "name": "Triconia borealis", "sprite": "sp-anchoviella_juruasanga.png", "group": "other", "rarity": 1}, {"lat": 65.8605, "lng": -169.15, "id": "124154", "name": "Crossaster papposus", "sprite": "sp-sea_cucumber.png", "group": "starfish", "rarity": 1}, {"lat": 64.2815, "lng": -173.0702, "id": "2", "name": "Animalia", "sprite": "sp-anchoviella_juruasanga.png", "group": "other", "rarity": 1}, {"lat": 64.6862, "lng": -168.9216, "id": "137683", "name": "Astarte", "sprite": "sp-blue_mussel.png", "group": "clam_mussel", "rarity": 1}, {"lat": 64.7703, "lng": -168.9913, "id": "105440", "name": "Parasagitta elegans", "sprite": "sp-anchoviella_juruasanga.png", "group": "other", "rarity": 1}, {"lat": 64.417, "lng": -173.233, "id": "101873", "name": "Acanthonotozoma inflatum", "sprite": "sp-american_lobster.png", "group": "crab_lobster", "rarity": 1}, {"lat": 66.35, "lng": -168.83, "id": "152391", "name": "Nemertea", "sprite": "sp-anchoviella_juruasanga.png", "group": "other", "rarity": 1}, {"lat": 66.35, "lng": -168.83, "id": "1292", "name": "Anthozoa", "sprite": "sp-actiniidae.png", "group": "coral", "rarity": 1}, {"lat": 66.35, "lng": -168.83, "id": "130603", "name": "Pholoe minuta", "sprite": "sp-anchoviella_juruasanga.png", "group": "other", "rarity": 1}, {"lat": 64.6667, "lng": -169.4633, "id": "19539", "name": "Euglenophyceae", "sprite": "sp-anchoviella_juruasanga.png", "group": "other", "rarity": 1}, {"lat": 65.1333, "lng": -169.44, "id": "1806", "name": "Echinodermata", "sprite": "sp-sea_cucumber.png", "group": "starfish", "rarity": 1}, {"lat": 64.7526, "lng": -169.7804, "id": "101", "name": "Gastropoda", "sprite": "sp-cowrie_shell.png", "group": "sea_snail", "rarity": 1}, {"lat": 65.708, "lng": -170.078, "id": "149219", "name": "Chaetoceros debilis", "sprite": "sp-anchoviella_juruasanga.png", "group": "other", "rarity": 1}, {"lat": 65.2131, "lng": -171.4127, "id": "137075", "name": "Somateria spectabilis", "sprite": "sp-anchoviella_juruasanga.png", "group": "other", "rarity": 1}, {"lat": 65.788, "lng": -169.928, "id": "882", "name": "Annelida", "sprite": "sp-anchoviella_juruasanga.png", "group": "other", "rarity": 1}, {"lat": 66.35, "lng": -168.83, "id": "130537", "name": "Scoloplos armiger", "sprite": "sp-anchoviella_juruasanga.png", "group": "other", "rarity": 1}, {"lat": 64.4748, "lng": -169.7677, "id": "22496", "name": "Nereididae", "sprite": "sp-anchoviella_juruasanga.png", "group": "other", "rarity": 1}, {"lat": 65.85, "lng": -169.233, "id": "102524", "name": "Aristias tumidus", "sprite": "sp-american_lobster.png", "group": "crab_lobster", "rarity": 1}, {"lat": 66.35, "lng": -168.83, "id": "146142", "name": "Bryozoa", "sprite": "sp-anchoviella_juruasanga.png", "group": "other", "rarity": 1}, {"lat": 64.7228, "lng": -169.4076, "id": "985", "name": "Sabellidae", "sprite": "sp-anchoviella_juruasanga.png", "group": "other", "rarity": 1}, {"lat": 66.35, "lng": -168.83, "id": "130355", "name": "Nephtys caeca", "sprite": "sp-anchoviella_juruasanga.png", "group": "other", "rarity": 1}, {"lat": 64.6383, "lng": -170.1306, "id": "1100", "name": "Calanoida", "sprite": "sp-anchoviella_juruasanga.png", "group": "other", "rarity": 1}]}