{"zoom": 6, "x": 1, "y": 26, "points": [{"lat": 29.9733, "lng": -169.8667, "id": "146557", "name": "Microcystis", "sprite": "sp-anchoviella_juruasanga.png", "group": "other", "rarity": 1}, {"lat": 28.987, "lng": -170.105, "id": "106645", "name": "Oithona fallax", "sprite": "sp-anchoviella_juruasanga.png", "group": "other", "rarity": 1}, {"lat": 27.6542, "lng": -169.8523, "id": "136980", "name": "Delphinidae", "sprite": "sp-bottlenose_dolphin.png", "group": "dolphin", "rarity": 1}, {"lat": 29.94, "lng": -169.866, "id": "387338", "name": "Pterotracheoidea", "sprite": "sp-cowrie_shell.png", "group": "sea_snail", "rarity": 1}, {"lat": 29.885, "lng": -169.952, "id": "106659", "name": "Oithona vivida", "sprite": "sp-anchoviella_juruasanga.png", "group": "other", "rarity": 1}, {"lat": 29.28, "lng": -173.92, "id": "1207", "name": "Gammaridea", "sprite": "sp-american_lobster.png", "group": "crab_lobster", "rarity": 1}, {"lat": 29.28, "lng": -173.92, "id": "104157", "name": "Candacia", "sprite": "sp-anchoviella_juruasanga.png", "group": "other", "rarity": 1}, {"lat": 27.2, "lng": -170.9, "id": "275170", "name": "Photonectes achirus", "sprite": "sp-anchoviella_juruasanga.png", "group": "other", "rarity": 1, "waterType": "Saltwater"}, {"lat": 29.9611, "lng": -169.7722, "id": "573437", "name": "Coscinodiscus sol", "sprite": "sp-anchoviella_juruasanga.png", "group": "other", "rarity": 1}, {"lat": 29.9917, "lng": -170.0084, "id": "156505", "name": "Phalacroma rotundatum", "sprite": "sp-anchoviella_juruasanga.png", "group": "other", "rarity": 1}, {"lat": 29.0967, "lng": -174.1613, "id": "220293", "name": "Lepidochelys olivacea", "sprite": "sp-green_sea_turtle.png", "group": "sea_turtle", "rarity": 1}, {"lat": 30.8075, "lng": -172.58, "id": "882", "name": "Annelida", "sprite": "sp-anchoviella_juruasanga.png", "group": "other", "rarity": 1}, {"lat": 28.288, "lng": -169.5492, "id": "137089", "name": "Balaenoptera edeni", "sprite": "sp-blue_whale.png", "group": "whale", "rarity": 1}, {"lat": 28.987, "lng": -170.105, "id": "106656", "name": "Oithona similis", "sprite": "sp-anchoviella_juruasanga.png", "group": "other", "rarity": 1}, {"lat": 29.3502, "lng": -172.9541, "id": "137107", "name": "Stenella coeruleoalba", "sprite": "sp-bottlenose_dolphin.png", "group": "dolphin", "rarity": 1}, {"lat": 28.465, "lng": -173.585, "id": "2081", "name": "Chaetognatha", "sprite": "sp-anchoviella_juruasanga.png", "group": "other", "rarity": 1}, {"lat": 27.6525, "lng": -173.575, "id": "136980", "name": "Delphinidae", "sprite": "sp-bottlenose_dolphin.png", "group": "dolphin", "rarity": 1}, {"lat": 29.9, "lng": -169.3, "id": "842517", "name": "Tripos trichoceros", "sprite": "sp-anchoviella_juruasanga.png", "group": "other", "rarity": 1}, {"lat": 29.9917, "lng": -170.0084, "id": "109549", "name": "Peridinium", "sprite": "sp-anchoviella_juruasanga.png", "group": "other", "rarity": 1}, {"lat": 29.9, "lng": -169.3, "id": "109474", "name": "Cochlodinium", "sprite": "sp-anchoviella_juruasanga.png", "group": "other", "rarity": 1}, {"lat": 30.0833, "lng": -170.7167, "id": "465390", "name": "Chaetoceros dadayi", "sprite": "sp-anchoviella_juruasanga.png", "group": "other", "rarity": 1}, {"lat": 30.9933, "lng": -172.5167, "id": "1078", "name": "Ostracoda", "sprite": "sp-anchoviella_juruasanga.png", "group": "other", "rarity": 1}, {"lat": 28.987, "lng": -170.105, "id": "138007", "name": "Fiona", "sprite": "sp-cowrie_shell.png", "group": "sea_snail", "rarity": 1}, {"lat": 29.95, "lng": -170.18, "id": "236629", "name": "Parapronoe", "sprite": "sp-american_lobster.png", "group": "crab_lobster", "rarity": 1}, {"lat": 31.0, "lng": -172.53, "id": "1135", "name": "Amphipoda", "sprite": "sp-american_lobster.png", "group": "crab_lobster", "rarity": 1}, {"lat": 29.9, "lng": -169.3, "id": "149288", "name": "Chaetoceros atlanticus", "sprite": "sp-anchoviella_juruasanga.png", "group": "other", "rarity": 1}, {"lat": 29.95, "lng": -170.18, "id": "883", "name": "Polychaeta", "sprite": "sp-anchoviella_juruasanga.png", "group": "other", "rarity": 1}, {"lat": 30.8075, "lng": -172.58, "id": "13703", "name": "Thecosomata", "sprite": "sp-cowrie_shell.png", "group": "sea_snail", "rarity": 1}, {"lat": 30.0375, "lng": -170.3625, "id": "109566", "name": "Prorocentrum", "sprite": "sp-anchoviella_juruasanga.png", "group": "other", "rarity": 1}, {"lat": 29.885, "lng": -169.952, "id": "106658", "name": "Oithona tenuis", "sprite": "sp-anchoviella_juruasanga.png", "group": "other", "rarity": 1}, {"lat": 28.4902, "lng": -170.324, "id": "344104", "name": "Phoebastria immutabilis", "sprite": "sp-anchoviella_juruasanga.png", "group": "other", "rarity": 1}, {"lat": 31.1667, "lng": -171.5833, "id": "117865", "name": "Rhopalonema velatum", "sprite": "sp-anchoviella_juruasanga.png", "group": "other", "rarity": 1}, {"lat": 30.0833, "lng": -170.7167, "id": "178229", "name": "Chaetoceros pseudocurvisetus", "sprite": "sp-anchoviella_juruasanga.png", "group": "other", "rarity": 1}, {"lat": 29.28, "lng": -173.92, "id": "101812", "name": "Vibilia", "sprite": "sp-american_lobster.png", "group": "crab_lobster", "rarity": 1}, {"lat": 30.0833, "lng": -170.7167, "id": "178600", "name": "Coccolithus pelagicus", "sprite": "sp-anchoviella_juruasanga.png", "group": "other", "rarity": 1}, {"lat": 30.0833, "lng": -170.7167, "id": "576930", "name": "Achradina sulcata", "sprite": "sp-anchoviella_juruasanga.png", "group": "other", "rarity": 1}, {"lat": 29.28, "lng": -173.92, "id": "137217", "name": "Salpidae", "sprite": "sp-anchoviella_juruasanga.png", "group": "other", "rarity": 1}, {"lat": 30.0467, "lng": -170.4334, "id": "840364", "name": "Poropila dubia", "sprite": "sp-anchoviella_juruasanga.png", "group": "other", "rarity": 1}, {"lat": 31.517, "lng": -172.417, "id": "140115", "name": "Histioteuthis meleagroteuthis", "sprite": "sp-giant_pacific_octopus.png", "group": "octopus_squid", "rarity": 1}, {"lat": 30.0833, "lng": -170.7167, "id": "110109", "name": "Oxytoxum parvum", "sprite": "sp-anchoviella_juruasanga.png", "group": "other", "rarity": 1}, {"lat": 30.1333, "lng": -171.8, "id": "221512", "name": "Elongated bristlemouth fish", "thumb": "tn_Goelo_u3.jpg", "sprite": "sp-anchoviella_juruasanga.png", "group": "other", "rarity": 1, "waterType": "Saltwater"}, {"lat": 29.95, "lng": -170.18, "id": "1207", "name": "Gammaridea", "sprite": "sp-american_lobster.png", "group": "crab_lobster", "rarity": 1}, {"lat": 30.8075, "lng": -172.58, "id": "11676", "name": "Pisces", "sprite": "sp-anchoviella_juruasanga.png", "group": "other", "rarity": 1}, {"lat": 29.9, "lng": -169.3, "id": "110100", "name": "Oxytoxum longum", "sprite": "sp-anchoviella_juruasanga.png", "group": "other", "rarity": 1}, {"lat": 27.7585, "lng": -173.6585, "id": "137096", "name": "Globicephala macrorhynchus", "sprite": "sp-bottlenose_dolphin.png", "group": "dolphin", "rarity": 1}, {"lat": 29.9, "lng": -169.3, "id": "149233", "name": "Lauderia borealis", "sprite": "sp-anchoviella_juruasanga.png", "group": "other", "rarity": 1}, {"lat": 30.0833, "lng": -170.7167, "id": "110099", "name": "Oxytoxum longiceps", "sprite": "sp-anchoviella_juruasanga.png", "group": "other", "rarity": 1}, {"lat": 29.95, "lng": -170.18, "id": "155670", "name": "Diplostraca", "sprite": "sp-anchoviella_juruasanga.png", "group": "other", "rarity": 1}, {"lat": 29.28, "lng": -173.92, "id": "236571", "name": "Phronimopsis", "sprite": "sp-american_lobster.png", "group": "crab_lobster", "rarity": 1}, {"lat": 27.45, "lng": -174.0, "id": "126600", "name": "Electric lantern fish", "thumb": "tn_Elris_u3.jpg", "sprite": "sp-anchoviella_juruasanga.png", "group": "other", "rarity": 1, "waterType": "Saltwater"}, {"lat": 28.4876, "lng": -172.601, "id": "344104", "name": "Phoebastria immutabilis", "sprite": "sp-anchoviella_juruasanga.png", "group": "other", "rarity": 1}, {"lat": 29.28, "lng": -173.92, "id": "1410", "name": "Foraminifera", "sprite": "sp-anchoviella_juruasanga.png", "group": "other", "rarity": 1}, {"lat": 28.987, "lng": -170.105, "id": "106654", "name": "Oithona robusta", "sprite": "sp-anchoviella_juruasanga.png", "group": "other", "rarity": 1}, {"lat": 28.1863, "lng": -170.4242, "id": "137096", "name": "Globicephala macrorhynchus", "sprite": "sp-bottlenose_dolphin.png", "group": "dolphin", "rarity": 1}, {"lat": 29.95, "lng": -170.18, "id": "101423", "name": "Pronoidae", "sprite": "sp-american_lobster.png", "group": "crab_lobster", "rarity": 1}, {"lat": 29.9815, "lng": -169.9296, "id": "178598", "name": "Coccolithus", "sprite": "sp-anchoviella_juruasanga.png", "group": "other", "rarity": 1}, {"lat": 30.0146, "lng": -170.1854, "id": "573399", "name": "Discosphaera tubifera", "sprite": "sp-anchoviella_juruasanga.png", "group": "other", "rarity": 1}, {"lat": 29.95, "lng": -170.18, "id": "104097", "name": "Pontellidae", "sprite": "sp-anchoviella_juruasanga.png", "group": "other", "rarity": 1}, {"lat": 29.28, "lng": -173.92, "id": "236626", "name": "Eupronoe", "sprite": "sp-american_lobster.png", "group": "crab_lobster", "rarity": 1}, {"lat": 29.9, "lng": -169.3, "id": "235866", "name": "Calyptrosphaera oblonga", "sprite": "sp-anchoviella_juruasanga.png", "group": "other", "rarity": 1}, {"lat": 27.8, "lng": -168.82, "id": "225986", "name": "Puffinus bulleri", "sprite": "sp-anchoviella_juruasanga.png", "group": "other", "rarity": 1}, {"lat": 29.95, "lng": -170.18, "id": "236577", "name": "Lycaeopsidae", "sprite": "sp-american_lobster.png", "group": "crab_lobster", "rarity": 1}, {"lat": 29.9, "lng": -169.3, "id": "109567", "name": "Protoceratium", "sprite": "sp-anchoviella_juruasanga.png", "group": "other", "rarity": 1}, {"lat": 29.1105, "lng": -172.1967, "id": "344106", "name": "Phoebastria nigripes", "sprite": "sp-anchoviella_juruasanga.png", "group": "other", "rarity": 1}, {"lat": 28.1667, "lng": -173.1667, "id": "137209", "name": "Dermochelys coriacea", "sprite": "sp-green_sea_turtle.png", "group": "sea_turtle", "rarity": 1}, {"lat": 30.8075, "lng": -172.58, "id": "1267", "name": "Cnidaria", "sprite": "sp-anchoviella_juruasanga.png", "group": "other", "rarity": 1}, {"lat": 28.9942, "lng": -173.1908, "id": "217718", "name": "Evermann's lantern fish", "thumb": "tn_Syeve_u2.gif", "sprite": "sp-anchoviella_juruasanga.png", "group": "other", "rarity": 1, "waterType": "Saltwater"}, {"lat": 29.885, "lng": -169.952, "id": "106652", "name": "Oithona plumifera", "sprite": "sp-anchoviella_juruasanga.png", "group": "other", "rarity": 1}, {"lat": 29.885, "lng": -169.952, "id": "106642", "name": "Oithona atlantica", "sprite": "sp-anchoviella_juruasanga.png", "group": "other", "rarity": 1}, {"lat": 28.4739, "lng": -173.5739, "id": "217700", "name": "Firefly lanternfish", "thumb": "tn_Hypro_u1.gif", "sprite": "sp-anchoviella_juruasanga.png", "group": "other", "rarity": 1, "waterType": "Saltwater"}, {"lat": 30.7655, "lng": -170.0554, "id": "344106", "name": "Phoebastria nigripes", "sprite": "sp-anchoviella_juruasanga.png", "group": "other", "rarity": 1}, {"lat": 29.95, "lng": -170.18, "id": "105", "name": "Bivalvia", "sprite": "sp-blue_mussel.png", "group": "clam_mussel", "rarity": 1}, {"lat": 29.28, "lng": -173.92, "id": "1205", "name": "Hyperiidea", "sprite": "sp-american_lobster.png", "group": "crab_lobster", "rarity": 1}, {"lat": 29.9, "lng": -169.3, "id": "109993", "name": "Micracanthodinium setiferum", "sprite": "sp-anchoviella_juruasanga.png", "group": "other", "rarity": 1}, {"lat": 30.8075, "lng": -172.58, "id": "1080", "name": "Copepoda", "sprite": "sp-anchoviella_juruasanga.png", "group": "other", "rarity": 1}, {"lat": 29.95, "lng": -170.18, "id": "101804", "name": "Phronima", "sprite": "sp-american_lobster.png", "group": "crab_lobster", "rarity": 1}, {"lat": 28.987, "lng": -170.105, "id": "106651", "name": "Oithona nana", "sprite": "sp-anchoviella_juruasanga.png", "group": "other", "rarity": 1}, {"lat": 29.9, "lng": -169.3, "id": "110257", "name": "Protoperidinium steinii", "sprite": "sp-anchoviella_juruasanga.png", "group": "other", "rarity": 1}, {"lat": 29.9458, "lng": -169.6542, "id": "149318", "name": "Nitzschia delicatissima", "sprite": "sp-anchoviella_juruasanga.png", "group": "other", "rarity": 1}, {"lat": 29.9, "lng": -169.3, "id": "233869", "name": "Oxytoxum ovum", "sprite": "sp-anchoviella_juruasanga.png", "group": "other", "rarity": 1}, {"lat": 30.8075, "lng": -172.58, "id": "146420", "name": "Tunicata", "sprite": "sp-anchoviella_juruasanga.png", "group": "other", "rarity": 1}, {"lat": 29.95, "lng": -170.18, "id": "11707", "name": "Cephalopoda", "sprite": "sp-giant_pacific_octopus.png", "group": "octopus_squid", "rarity": 1}, {"lat": 29.95, "lng": -170.18, "id": "236626", "name": "Eupronoe", "sprite": "sp-american_lobster.png", "group": "crab_lobster", "rarity": 1}, {"lat": 29.94, "lng": -169.866, "id": "2081", "name": "Chaetognatha", "sprite": "sp-anchoviella_juruasanga.png", "group": "other", "rarity": 1}, {"lat": 27.45, "lng": -174.0, "id": "125498", "name": "Myctophidae", "sprite": "sp-anchoviella_juruasanga.png", "group": "other", "rarity": 1}, {"lat": 29.9, "lng": -169.3, "id": "651995", "name": "Michaelsarsia splendens", "sprite": "sp-anchoviella_juruasanga.png", "group": "other", "rarity": 1}, {"lat": 29.94, "lng": -169.866, "id": "582421", "name": "Radiozoa", "sprite": "sp-anchoviella_juruasanga.png", "group": "other", "rarity": 1}, {"lat": 29.28, "lng": -173.92, "id": "883", "name": "Polychaeta", "sprite": "sp-anchoviella_juruasanga.png", "group": "other", "rarity": 1}, {"lat": 30.0833, "lng": -170.7167, "id": "232376", "name": "Prorocentrum cordatum", "sprite": "sp-anchoviella_juruasanga.png", "group": "other", "rarity": 1}, {"lat": 29.66, "lng": -173.2163, "id": "137104", "name": "Pseudorca crassidens", "sprite": "sp-bottlenose_dolphin.png", "group": "dolphin", "rarity": 1}, {"lat": 27.7513, "lng": -170.3271, "id": "137107", "name": "Stenella coeruleoalba", "sprite": "sp-bottlenose_dolphin.png", "group": "dolphin", "rarity": 1}, {"lat": 29.95, "lng": -170.8333, "id": "117865", "name": "Rhopalonema velatum", "sprite": "sp-anchoviella_juruasanga.png", "group": "other", "rarity": 1}, {"lat": 29.95, "lng": -170.18, "id": "236571", "name": "Phronimopsis", "sprite": "sp-american_lobster.png", "group": "crab_lobster", "rarity": 1}, {"lat": 30.0048, "lng": -170.1095, "id": "110298", "name": "Prorocentrum dentatum", "sprite": "sp-anchoviella_juruasanga.png", "group": "other", "rarity": 1}, {"lat": 29.94, "lng": -169.866, "id": "1410", "name": "Foraminifera", "sprite": "sp-anchoviella_juruasanga.png", "group": "other", "rarity": 1}, {"lat": 29.95, "lng": -170.18, "id": "149668", "name": "Mysida", "sprite": "sp-american_lobster.png", "group": "crab_lobster", "rarity": 1}, {"lat": 29.885, "lng": -169.952, "id": "734517", "name": "Oithona setigera setigera", "sprite": "sp-anchoviella_juruasanga.png", "group": "other", "rarity": 1}, {"lat": 28.987, "lng": -170.105, "id": "220944", "name": "Oithona attenuata", "sprite": "sp-anchoviella_juruasanga.png", "group": "other", "rarity": 1}, {"lat": 28.3917, "lng": -170.583, "id": "143906", "name": "Chondria", "sprite": "sp-anchoviella_juruasanga.png", "group": "other", "rarity": 1}, {"lat": 29.9846, "lng": -169.9539, "id": "157081", "name": "Thalassiothrix", "sprite": "sp-anchoviella_juruasanga.png", "group": "other", "rarity": 1}, {"lat": 27.183, "lng": -170.9, "id": "342313", "name": "Eucleoteuthis luminosa", "sprite": "sp-giant_pacific_octopus.png", "group": "octopus_squid", "rarity": 1}, {"lat": 29.9, "lng": -169.3, "id": "235978", "name": "Syracosphaera prolongata", "sprite": "sp-anchoviella_juruasanga.png", "group": "other", "rarity": 1}, {"lat": 29.9833, "lng": -169.8167, "id": "1525960", "name": "Spiny lantern fish", "thumb": "tn_Myspi_u1.gif", "sprite": "sp-anchoviella_juruasanga.png", "group": "other", "rarity": 1, "waterType": "Saltwater"}, {"lat": 29.9917, "lng": -170.0084, "id": "109716", "name": "Achradina pulchra", "sprite": "sp-anchoviella_juruasanga.png", "group": "other", "rarity": 1}, {"lat": 29.0398, "lng": -170.1184, "id": "137205", "name": "Caretta caretta", "sprite": "sp-green_sea_turtle.png", "group": "sea_turtle", "rarity": 1}, {"lat": 29.94, "lng": -169.866, "id": "1128", "name": "Euphausiacea", "sprite": "sp-antarctic_krill.png", "group": "shrimp", "rarity": 1}, {"lat": 27.183, "lng": -170.9, "id": "220268", "name": "Funchalia taaningi", "sprite": "sp-american_lobster.png", "group": "crab_lobster", "rarity": 1}, {"lat": 28.987, "lng": -170.105, "id": "106644", "name": "Oithona decipiens", "sprite": "sp-anchoviella_juruasanga.png", "group": "other", "rarity": 1}, {"lat": 27.8582, "lng": -170.7122, "id": "137127", "name": "Ziphius cavirostris", "sprite": "sp-blue_whale.png", "group": "whale", "rarity": 1}, {"lat": 29.9, "lng": -169.3, "id": "149152", "name": "Pseudo-nitzschia seriata", "sprite": "sp-anchoviella_juruasanga.png", "group": "other", "rarity": 1}, {"lat": 29.94, "lng": -169.866, "id": "1080", "name": "Copepoda", "sprite": "sp-anchoviella_juruasanga.png", "group": "other", "rarity": 1}, {"lat": 29.9375, "lng": -169.7875, "id": "11676", "name": "Pisces", "sprite": "sp-anchoviella_juruasanga.png", "group": "other", "rarity": 1}, {"lat": 29.95, "lng": -170.18, "id": "101421", "name": "Phrosinidae", "sprite": "sp-american_lobster.png", "group": "crab_lobster", "rarity": 1}, {"lat": 28.1933, "lng": -173.4733, "id": "2", "name": "Animalia", "sprite": "sp-anchoviella_juruasanga.png", "group": "other", "rarity": 1}, {"lat": 29.95, "lng": -170.18, "id": "1205", "name": "Hyperiidea", "sprite": "sp-american_lobster.png", "group": "crab_lobster", "rarity": 1}, {"lat": 29.95, "lng": -170.18, "id": "101806", "name": "Primno", "sprite": "sp-american_lobster.png", "group": "crab_lobster", "rarity": 1}, {"lat": 29.9, "lng": -169.3, "id": "841202", "name": "Tripos declinatus", "sprite": "sp-anchoviella_juruasanga.png", "group": "other", "rarity": 1}, {"lat": 29.9786, "lng": -169.9072, "id": "109519", "name": "Gonyaulax", "sprite": "sp-anchoviella_juruasanga.png", "group": "other", "rarity": 1}, {"lat": 29.28, "lng": -173.92, "id": "958", "name": "Tomopteridae", "sprite": "sp-anchoviella_juruasanga.png", "group": "other", "rarity": 1}, {"lat": 31.0889, "lng": -174.133, "id": "606920", "name": "Nidificaria levensteinae", "sprite": "sp-anchoviella_juruasanga.png", "group": "other", "rarity": 1}]}