{"zoom": 6, "x": 20, "y": 33, "points": [{"lat": -11.0567, "lng": -66.0123, "id": "270410", "name": "Pimelodella", "sprite": "sp-blue_catfish.png", "group": "catfish", "rarity": 1}, {"lat": -10.8125, "lng": -65.4167, "id": "22942", "name": "Tetrameres", "sprite": "sp-anchoviella_juruasanga.png", "group": "other", "rarity": 1}, {"lat": -11.1167, "lng": -66.1833, "id": "268770", "name": "Cichla", "sprite": "sp-coptodon_louka.png", "group": "cichlid", "rarity": 1}, {"lat": -11.1167, "lng": -66.1833, "id": "125465", "name": "Engraulidae", "sprite": "sp-anchoviella_juruasanga.png", "group": "anchovy", "rarity": 1}, {"lat": -7.2833, "lng": -62.3667, "id": "277286", "name": "Yellowfin river pellona", "thumb": "tn_Pefla_u1.gif", "sprite": "sp-anchoviella_juruasanga.png", "group": "other", "rarity": 1, "waterType": "Brackish"}, {"lat": -8.0225, "lng": -62.8771, "id": "270882", "name": "Serrasalmus", "sprite": "sp-astyanax.png", "group": "piranha", "rarity": 1}, {"lat": -11.1298, "lng": -66.1345, "id": "1020510", "name": "Pirambeba", "thumb": "tn_Sehum_u0.jpg", "sprite": "sp-serrasalmus_humeralis.png", "group": "piranha", "rarity": 1, "waterType": "Brackish"}, {"lat": -8.12, "lng": -67.15, "id": "343595", "name": "Crocodylus", "sprite": "sp-anchoviella_juruasanga.png", "group": "other", "rarity": 1}, {"lat": -10.7718, "lng": -65.4859, "id": "269463", "name": "Hypostomus", "sprite": "sp-blue_catfish.png", "group": "catfish", "rarity": 1}, {"lat": -11.065, "lng": -66.0544, "id": "270412", "name": "Pimelodus", "sprite": "sp-blue_catfish.png", "group": "catfish", "rarity": 1}, {"lat": -10.9396, "lng": -65.729, "id": "269449", "name": "Hyphessobrycon", "sprite": "sp-astyanax.png", "group": "piranha", "rarity": 1}, {"lat": -7.5739, "lng": -63.1108, "id": "267155", "name": "Hypoptopomatinae", "sprite": "sp-blue_catfish.png", "group": "catfish", "rarity": 1}, {"lat": -9.25, "lng": -64.3833, "id": "277284", "name": "Amazon pellona", "thumb": "tn_Pecas_u0.jpg", "sprite": "sp-anchoviella_juruasanga.png", "group": "other", "rarity": 1, "waterType": "Brackish"}, {"lat": -10.8, "lng": -64.167, "id": "11707", "name": "Cephalopoda", "sprite": "sp-giant_pacific_octopus.png", "group": "octopus_squid", "rarity": 1}, {"lat": -10.0, "lng": -62.0, "id": "766475", "name": "Amusium papyraceum", "sprite": "sp-blue_mussel.png", "group": "clam_mussel", "rarity": 1}, {"lat": -9.25, "lng": -64.3833, "id": "280466", "name": "Cynodon gibbus", "thumb": "tn_Cygib_u0.jpg", "sprite": "sp-anchoviella_juruasanga.png", "group": "other", "rarity": 1, "waterType": "Brackish"}, {"lat": -7.2833, "lng": -62.3667, "id": "280183", "name": "Peacock cichlid", "thumb": "tn_Cioce_f0.jpg", "sprite": "sp-coptodon_louka.png", "group": "cichlid", "rarity": 1, "waterType": "Brackish"}, {"lat": -10.8, "lng": -65.4167, "id": "275543", "name": "Guyana anchovy", "thumb": "tn_Angui_u0.jpg", "sprite": "sp-anchoviella_juruasanga.png", "group": "anchovy", "rarity": 1, "waterType": "Brackish"}, {"lat": -11.1167, "lng": -66.1833, "id": "270424", "name": "Plagioscion", "sprite": "sp-anchoviella_juruasanga.png", "group": "other", "rarity": 1}, {"lat": -11.1167, "lng": -66.1833, "id": "270838", "name": "Sciades", "sprite": "sp-blue_catfish.png", "group": "catfish", "rarity": 1}, {"lat": -11.1167, "lng": -66.1833, "id": "125464", "name": "Clupeidae", "sprite": "sp-atlantic_herring.png", "group": "herring", "rarity": 1}, {"lat": -7.883, "lng": -67.483, "id": "1821", "name": "Chordata", "sprite": "sp-anchoviella_juruasanga.png", "group": "other", "rarity": 1}, {"lat": -11.1167, "lng": -66.1833, "id": "270611", "name": "Pseudoplatystoma", "sprite": "sp-blue_catfish.png", "group": "catfish", "rarity": 1}, {"lat": -9.25, "lng": -64.3833, "id": "277286", "name": "Yellowfin river pellona", "thumb": "tn_Pefla_u1.gif", "sprite": "sp-anchoviella_juruasanga.png", "group": "other", "rarity": 1, "waterType": "Brackish"}, {"lat": -9.75, "lng": -62.0, "id": "270412", "name": "Pimelodus", "sprite": "sp-blue_catfish.png", "group": "catfish", "rarity": 1}, {"lat": -10.732, "lng": -65.586, "id": "268424", "name": "Astyanax", "sprite": "sp-astyanax.png", "group": "piranha", "rarity": 1}, {"lat": -11.1167, "lng": -66.1833, "id": "270515", "name": "Prochilodus", "sprite": "sp-anchoviella_juruasanga.png", "group": "other", "rarity": 1}, {"lat": -11.0641, "lng": -66.0142, "id": "268345", "name": "Apistogramma", "sprite": "sp-coptodon_louka.png", "group": "cichlid", "rarity": 1}, {"lat": -11.1167, "lng": -66.1833, "id": "270723", "name": "Rhamdia", "sprite": "sp-blue_catfish.png", "group": "catfish", "rarity": 1}, {"lat": -11.0254, "lng": -65.9008, "id": "281050", "name": "Banded cichlid", "thumb": "tn_Hesev_m0.jpg", "sprite": "sp-coptodon_louka.png", "group": "cichlid", "rarity": 1, "waterType": "Brackish"}, {"lat": -11.0342, "lng": -65.9582, "id": "270882", "name": "Serrasalmus", "sprite": "sp-astyanax.png", "group": "piranha", "rarity": 1}, {"lat": -10.8, "lng": -65.4, "id": "151383", "name": "Cichlidae", "sprite": "sp-coptodon_louka.png", "group": "cichlid", "rarity": 1}, {"lat": -8.883, "lng": -64.066, "id": "1821", "name": "Chordata", "sprite": "sp-anchoviella_juruasanga.png", "group": "other", "rarity": 1}, {"lat": -8.65, "lng": -63.5167, "id": "268345", "name": "Apistogramma", "sprite": "sp-coptodon_louka.png", "group": "cichlid", "rarity": 1}, {"lat": -7.5739, "lng": -63.1108, "id": "826629", "name": "Tridentinae", "sprite": "sp-blue_catfish.png", "group": "catfish", "rarity": 1}, {"lat": -11.1167, "lng": -66.1833, "id": "158697", "name": "Anchoa", "sprite": "sp-anchoviella_juruasanga.png", "group": "anchovy", "rarity": 1}, {"lat": -10.8167, "lng": -65.3617, "id": "126118", "name": "Microstomus", "sprite": "sp-atlantic_halibut.png", "group": "flatfish", "rarity": 1}, {"lat": -11.1167, "lng": -66.1833, "id": "282920", "name": "Marbled swamp eel", "thumb": "tn_Symar_u3.jpg", "sprite": "sp-anchoviella_juruasanga.png", "group": "other", "rarity": 1, "waterType": "Brackish"}, {"lat": -11.1167, "lng": -66.1833, "id": "154426", "name": "Doradidae", "sprite": "sp-blue_catfish.png", "group": "catfish", "rarity": 1}, {"lat": -7.2833, "lng": -62.3667, "id": "281050", "name": "Banded cichlid", "thumb": "tn_Hesev_m0.jpg", "sprite": "sp-coptodon_louka.png", "group": "cichlid", "rarity": 1, "waterType": "Brackish"}, {"lat": -11.1267, "lng": -66.1809, "id": "282263", "name": "Bloch's catfish", "thumb": "tn_Piblo_u1.jpg", "sprite": "sp-blue_catfish.png", "group": "catfish", "rarity": 1, "waterType": "Brackish"}]}