{"zoom": 6, "x": 20, "y": 46, "points": [{"lat": -62.526, "lng": -62.3208, "id": "341479", "name": "Chaetoceros neglectus", "sprite": "sp-anchoviella_juruasanga.png", "group": "other", "rarity": 1}, {"lat": -63.2309, "lng": -63.2365, "id": "196139", "name": "Cylindroleberididae", "sprite": "sp-anchoviella_juruasanga.png", "group": "other", "rarity": 1}, {"lat": -64.0367, "lng": -64.1217, "id": "173280", "name": "Molgula euplicata", "sprite": "sp-anchoviella_juruasanga.png", "group": "other", "rarity": 1}, {"lat": -63.5919, "lng": -62.7519, "id": "173771", "name": "Pyura bouvetensis", "sprite": "sp-anchoviella_juruasanga.png", "group": "other", "rarity": 1}, {"lat": -63.025, "lng": -62.8, "id": "173219", "name": "Colossendeis tenuipedis", "sprite": "sp-anchoviella_juruasanga.png", "group": "other", "rarity": 1}, {"lat": -63.9986, "lng": -64.0181, "id": "225747", "name": "Pygoscelis", "sprite": "sp-anchoviella_juruasanga.png", "group": "other", "rarity": 1}, {"lat": -63.5942, "lng": -63.0062, "id": "1078", "name": "Ostracoda", "sprite": "sp-anchoviella_juruasanga.png", "group": "other", "rarity": 1}, {"lat": -63.6333, "lng": -62.5333, "id": "113986", "name": "Hormosinella ovicula", "sprite": "sp-anchoviella_juruasanga.png", "group": "other", "rarity": 1}, {"lat": -62.8, "lng": -65.4, "id": "173031", "name": "Pantopipetta buccina", "sprite": "sp-anchoviella_juruasanga.png", "group": "other", "rarity": 1}, {"lat": -63.4667, "lng": -62.5167, "id": "134257", "name": "Pseudosuberites montiniger", "sprite": "sp-barrel_sponge.png", "group": "sponge", "rarity": 1}, {"lat": -62.5, "lng": -62.0, "id": "175004", "name": "Parapneustes cordatus", "sprite": "sp-sea_cucumber.png", "group": "starfish", "rarity": 1}, {"lat": -63.7308, "lng": -63.1858, "id": "173779", "name": "Pyura setosa", "sprite": "sp-anchoviella_juruasanga.png", "group": "other", "rarity": 1}, {"lat": -64.0366, "lng": -64.1216, "id": "173198", "name": "Colossendeis megalonyx", "sprite": "sp-anchoviella_juruasanga.png", "group": "other", "rarity": 1}, {"lat": -62.5268, "lng": -63.0303, "id": "526131", "name": "Miliammina oblonga", "sprite": "sp-anchoviella_juruasanga.png", "group": "other", "rarity": 1}, {"lat": -63.496, "lng": -63.2726, "id": "231413", "name": "Mirounga leonina", "sprite": "sp-elephant_seal.png", "group": "seal", "rarity": 1}, {"lat": -62.4758, "lng": -62.8821, "id": "11676", "name": "Pisces", "sprite": "sp-anchoviella_juruasanga.png", "group": "other", "rarity": 1}, {"lat": -62.3207, "lng": -63.0214, "id": "225760", "name": "Thalassarche chrysostoma", "sprite": "sp-anchoviella_juruasanga.png", "group": "other", "rarity": 1}, {"lat": -63.85, "lng": -62.633, "id": "129846", "name": "Laetmonice producta", "sprite": "sp-anchoviella_juruasanga.png", "group": "other", "rarity": 1}, {"lat": -63.3083, "lng": -61.8833, "id": "173575", "name": "Pentapycnon charcoti", "sprite": "sp-anchoviella_juruasanga.png", "group": "other", "rarity": 1}, {"lat": -63.85, "lng": -62.63, "id": "118276", "name": "Serolidae", "sprite": "sp-american_lobster.png", "group": "crab_lobster", "rarity": 1}, {"lat": -63.864, "lng": -62.6137, "id": "172700", "name": "Smilasterias scalprifera", "sprite": "sp-sea_cucumber.png", "group": "starfish", "rarity": 1}, {"lat": -64.15, "lng": -65.4, "id": "171285", "name": "Cinachyra antarctica", "sprite": "sp-barrel_sponge.png", "group": "sponge", "rarity": 1}, {"lat": -62.732, "lng": -62.396, "id": "100672", "name": "Hormathiidae", "sprite": "sp-actiniidae.png", "group": "coral", "rarity": 1}, {"lat": -63.842, "lng": -62.608, "id": "138611", "name": "Leucosyrinx", "sprite": "sp-cowrie_shell.png", "group": "sea_snail", "rarity": 1}, {"lat": -64.0, "lng": -63.0, "id": "160774", "name": "Amphipneustes lorioli", "sprite": "sp-sea_cucumber.png", "group": "starfish", "rarity": 1}, {"lat": -63.8083, "lng": -62.4333, "id": "523123", "name": "Trochammina malovensis", "sprite": "sp-anchoviella_juruasanga.png", "group": "other", "rarity": 1}, {"lat": -63.425, "lng": -62.25, "id": "173817", "name": "Isometra", "sprite": "sp-sea_cucumber.png", "group": "starfish", "rarity": 1}, {"lat": -63.0, "lng": -62.26, "id": "704078", "sprite": "sp-anchoviella_juruasanga.png", "group": "other", "rarity": 1}, {"lat": -63.33, "lng": -64.6073, "id": "173687", "name": "Aglaophamus paramalmgreni", "sprite": "sp-anchoviella_juruasanga.png", "group": "other", "rarity": 1}, {"lat": -63.5646, "lng": -62.9591, "id": "231404", "name": "Arctocephalus gazella", "sprite": "sp-elephant_seal.png", "group": "seal", "rarity": 1}, {"lat": -62.4197, "lng": -62.3334, "id": "234788", "name": "Grey rockcod", "thumb": "tn_Lesqu_u1.jpg", "sprite": "sp-anchoviella_juruasanga.png", "group": "other", "rarity": 1, "waterType": "Saltwater"}, {"lat": -62.1167, "lng": -62.55, "id": "398905", "name": "Eratidus foliaceus", "sprite": "sp-anchoviella_juruasanga.png", "group": "other", "rarity": 1}, {"lat": -62.1167, "lng": -62.55, "id": "466282", "name": "Oolina setosa", "sprite": "sp-anchoviella_juruasanga.png", "group": "other", "rarity": 1}, {"lat": -62.63, "lng": -64.02, "id": "899197", "name": "Recurvoides contortus", "sprite": "sp-anchoviella_juruasanga.png", "group": "other", "rarity": 1}, {"lat": -63.767, "lng": -62.467, "id": "123532", "name": "Psychropotes", "sprite": "sp-sea_cucumber.png", "group": "starfish", "rarity": 1}, {"lat": -63.5509, "lng": -62.4224, "id": "167479", "name": "Clathria (Axosuberites) nidificata", "sprite": "sp-barrel_sponge.png", "group": "sponge", "rarity": 1}, {"lat": -62.2125, "lng": -62.7125, "id": "149099", "name": "Thalassiosira antarctica", "sprite": "sp-anchoviella_juruasanga.png", "group": "other", "rarity": 1}, {"lat": -63.5941, "lng": -62.6691, "id": "172865", "name": "Achelia spicata", "sprite": "sp-anchoviella_juruasanga.png", "group": "other", "rarity": 1}, {"lat": -63.0, "lng": -62.26, "id": "109475", "name": "Gymnodinium", "sprite": "sp-anchoviella_juruasanga.png", "group": "other", "rarity": 1}, {"lat": -64.1167, "lng": -65.185, "id": "536012", "name": "Austrinoecia isocheira", "sprite": "sp-anchoviella_juruasanga.png", "group": "other", "rarity": 1}, {"lat": -62.2857, "lng": -62.8353, "id": "567471", "name": "Stercorarius antarcticus", "sprite": "sp-anchoviella_juruasanga.png", "group": "other", "rarity": 1}, {"lat": -62.3736, "lng": -63.558, "id": "465995", "name": "Miliammina obliqua", "sprite": "sp-anchoviella_juruasanga.png", "group": "other", "rarity": 1}, {"lat": -63.85, "lng": -62.6333, "id": "197175", "name": "Falsimargarita gemma", "sprite": "sp-cowrie_shell.png", "group": "sea_snail", "rarity": 1}, {"lat": -64.0367, "lng": -64.1217, "id": "173531", "name": "Aplidium meridianum", "sprite": "sp-anchoviella_juruasanga.png", "group": "other", "rarity": 1}, {"lat": -62.017, "lng": -65.1, "id": "124597", "name": "Abyssocucumis abyssorum", "sprite": "sp-sea_cucumber.png", "group": "starfish", "rarity": 1}, {"lat": -63.433, "lng": -62.633, "id": "196936", "name": "Prosipho", "sprite": "sp-cowrie_shell.png", "group": "sea_snail", "rarity": 1}, {"lat": -62.6938, "lng": -62.7919, "id": "225783", "name": "Pygoscelis antarcticus", "sprite": "sp-anchoviella_juruasanga.png", "group": "other", "rarity": 1}, {"lat": -63.425, "lng": -62.242, "id": "1317811", "name": "Chaetozone bransfieldensis", "sprite": "sp-anchoviella_juruasanga.png", "group": "other", "rarity": 1}, {"lat": -63.869, "lng": -61.9493, "id": "225766", "name": "Sterna vittata", "sprite": "sp-anchoviella_juruasanga.png", "group": "other", "rarity": 1}, {"lat": -63.4207, "lng": -62.2708, "id": "174595", "name": "Staurotheca compressa", "sprite": "sp-anchoviella_juruasanga.png", "group": "other", "rarity": 1}, {"lat": -63.85, "lng": -62.633, "id": "103469", "name": "Sycozoa", "sprite": "sp-anchoviella_juruasanga.png", "group": "other", "rarity": 1}, {"lat": -63.0838, "lng": -64.0331, "id": "212645", "name": "Halobaena caerulea", "sprite": "sp-anchoviella_juruasanga.png", "group": "other", "rarity": 1}, {"lat": -63.4914, "lng": -62.6081, "id": "883", "name": "Polychaeta", "sprite": "sp-anchoviella_juruasanga.png", "group": "other", "rarity": 1}, {"lat": -63.668, "lng": -63.52, "id": "129721", "name": "Travisiopsis", "sprite": "sp-anchoviella_juruasanga.png", "group": "other", "rarity": 1}, {"lat": -63.842, "lng": -62.608, "id": "289785", "name": "Dasystenella acanthina", "sprite": "sp-actiniidae.png", "group": "coral", "rarity": 1}, {"lat": -63.8333, "lng": -62.4667, "id": "581982", "name": "Hormosinella gracilis", "sprite": "sp-anchoviella_juruasanga.png", "group": "other", "rarity": 1}, {"lat": -63.425, "lng": -62.242, "id": "174686", "name": "Oswaldella terranovae", "sprite": "sp-anchoviella_juruasanga.png", "group": "other", "rarity": 1}, {"lat": -62.2756, "lng": -65.055, "id": "212639", "name": "Thalassoica antarctica", "sprite": "sp-anchoviella_juruasanga.png", "group": "other", "rarity": 1}, {"lat": -61.967, "lng": -65.275, "id": "1078", "name": "Ostracoda", "sprite": "sp-anchoviella_juruasanga.png", "group": "other", "rarity": 1}, {"lat": -62.3656, "lng": -62.6126, "id": "313400", "name": "Painted notie", "thumb": "tn_Lelar_u0.jpg", "sprite": "sp-anchoviella_juruasanga.png", "group": "other", "rarity": 1, "waterType": "Saltwater"}, {"lat": -63.425, "lng": -62.25, "id": "290495", "name": "Notisis elongata", "sprite": "sp-actiniidae.png", "group": "coral", "rarity": 1}, {"lat": -63.15, "lng": -62.45, "id": "149342", "name": "Licmophora", "sprite": "sp-anchoviella_juruasanga.png", "group": "other", "rarity": 1}, {"lat": -64.158, "lng": -62.675, "id": "287496", "name": "Oswaldella vervoorti", "sprite": "sp-anchoviella_juruasanga.png", "group": "other", "rarity": 1}, {"lat": -63.5688, "lng": -62.8097, "id": "172104", "name": "Rossella racovitzae", "sprite": "sp-barrel_sponge.png", "group": "sponge", "rarity": 1}, {"lat": -62.7183, "lng": -62.2916, "id": "173500", "name": "Nymphon proceroides", "sprite": "sp-anchoviella_juruasanga.png", "group": "other", "rarity": 1}, {"lat": -63.5774, "lng": -65.8327, "id": "11676", "name": "Pisces", "sprite": "sp-anchoviella_juruasanga.png", "group": "other", "rarity": 1}, {"lat": -62.5, "lng": -62.76, "id": "344719", "name": "Oncaea curvata", "sprite": "sp-anchoviella_juruasanga.png", "group": "other", "rarity": 1}, {"lat": -63.6684, "lng": -64.1684, "id": "172992", "name": "Caryophyllia (Caryophyllia) antarctica", "sprite": "sp-actiniidae.png", "group": "coral", "rarity": 1}, {"lat": -63.8333, "lng": -62.4667, "id": "921403", "name": "Reophax subfusiformis", "sprite": "sp-anchoviella_juruasanga.png", "group": "other", "rarity": 1}, {"lat": -63.85, "lng": -62.6332, "id": "174789", "name": "Spinther usarpia", "sprite": "sp-anchoviella_juruasanga.png", "group": "other", "rarity": 1}, {"lat": -64.15, "lng": -62.5, "id": "172101", "name": "Rossella nuda", "sprite": "sp-barrel_sponge.png", "group": "sponge", "rarity": 1}, {"lat": -62.2201, "lng": -65.001, "id": "103358", "name": "Fritillaria", "sprite": "sp-anchoviella_juruasanga.png", "group": "other", "rarity": 1}, {"lat": -63.4, "lng": -62.2251, "id": "197476", "name": "Toledonia major", "sprite": "sp-cowrie_shell.png", "group": "sea_snail", "rarity": 1}, {"lat": -63.4952, "lng": -62.6411, "id": "173749", "name": "Carbasea curva", "sprite": "sp-anchoviella_juruasanga.png", "group": "other", "rarity": 1}, {"lat": -62.4305, "lng": -62.864, "id": "140223", "name": "Limacina helicina", "sprite": "sp-cowrie_shell.png", "group": "sea_snail", "rarity": 1}, {"lat": -63.7694, "lng": -62.4694, "id": "113293", "name": "Haynesina depressula", "sprite": "sp-anchoviella_juruasanga.png", "group": "other", "rarity": 1}, {"lat": -62.0137, "lng": -62.1707, "id": "234641", "name": "Rhombic lanternfish", "thumb": "tn_Krand_u1.gif", "sprite": "sp-anchoviella_juruasanga.png", "group": "other", "rarity": 1, "waterType": "Saltwater"}, {"lat": -63.425, "lng": -62.246, "id": "289368", "name": "Ainigmaptilon antarcticum", "sprite": "sp-actiniidae.png", "group": "coral", "rarity": 1}, {"lat": -61.8241, "lng": -64.0096, "id": "212648", "name": "Pachyptila turtur", "sprite": "sp-anchoviella_juruasanga.png", "group": "other", "rarity": 1}, {"lat": -63.3346, "lng": -64.6111, "id": "234904", "name": "Eremicaster pacificus", "sprite": "sp-sea_cucumber.png", "group": "starfish", "rarity": 1}, {"lat": -63.835, "lng": -62.5983, "id": "231740", "name": "Ekleptostylis debroyeri", "sprite": "sp-american_lobster.png", "group": "crab_lobster", "rarity": 1}, {"lat": -62.0157, "lng": -65.0014, "id": "325384", "name": "Themisto gaudichaudii", "sprite": "sp-american_lobster.png", "group": "crab_lobster", "rarity": 1}, {"lat": -63.425, "lng": -62.242, "id": "266752", "name": "Cephalodiscus hodgsoni", "sprite": "sp-anchoviella_juruasanga.png", "group": "other", "rarity": 1}, {"lat": -63.4538, "lng": -62.1263, "id": "411132", "name": "Doris kerguelenensis", "sprite": "sp-cowrie_shell.png", "group": "sea_snail", "rarity": 1}, {"lat": -63.4329, "lng": -62.2786, "id": "183566", "name": "Salpingella", "sprite": "sp-anchoviella_juruasanga.png", "group": "other", "rarity": 1}, {"lat": -63.8083, "lng": -62.4333, "id": "113585", "name": "Nonion commune", "sprite": "sp-anchoviella_juruasanga.png", "group": "other", "rarity": 1}, {"lat": -63.842, "lng": -62.608, "id": "237443", "name": "Prostebbingia serrata", "sprite": "sp-american_lobster.png", "group": "crab_lobster", "rarity": 1}, {"lat": -63.2711, "lng": -63.711, "id": "391422", "name": "Macromckenziea glacierae", "sprite": "sp-anchoviella_juruasanga.png", "group": "other", "rarity": 1}, {"lat": -62.433, "lng": -62.633, "id": "173820", "name": "Isometra graminea", "sprite": "sp-sea_cucumber.png", "group": "starfish", "rarity": 1}, {"lat": -62.1084, "lng": -66.1322, "id": "212656", "name": "Aptenodytes patagonicus", "sprite": "sp-anchoviella_juruasanga.png", "group": "other", "rarity": 1}, {"lat": -64.0367, "lng": -64.1217, "id": "173846", "name": "Bathypera splendens", "sprite": "sp-anchoviella_juruasanga.png", "group": "other", "rarity": 1}, {"lat": -63.3333, "lng": -66.45, "id": "227091", "name": "Euchaetomera zurstrasseni", "sprite": "sp-american_lobster.png", "group": "crab_lobster", "rarity": 1}, {"lat": -63.3833, "lng": -66.0, "id": "344000", "name": "Diomedea epomophora", "sprite": "sp-anchoviella_juruasanga.png", "group": "other", "rarity": 1}, {"lat": -63.6333, "lng": -62.5459, "id": "113115", "name": "Pullenia subcarinata", "sprite": "sp-anchoviella_juruasanga.png", "group": "other", "rarity": 1}, {"lat": -64.0375, "lng": -64.1125, "id": "138671", "name": "Portlandia", "sprite": "sp-blue_mussel.png", "group": "clam_mussel", "rarity": 1}, {"lat": -64.0833, "lng": -62.8333, "id": "237654", "name": "Eusirus microps", "sprite": "sp-american_lobster.png", "group": "crab_lobster", "rarity": 1}, {"lat": -63.433, "lng": -62.633, "id": "291197", "name": "Tenuisis microspiculata", "sprite": "sp-actiniidae.png", "group": "coral", "rarity": 1}, {"lat": -62.5, "lng": -65.0, "id": "234751", "name": "Patagonian rockcod", "thumb": "tn_Pabre_u1.gif", "sprite": "sp-anchoviella_juruasanga.png", "group": "other", "rarity": 1, "waterType": "Saltwater"}, {"lat": -62.031, "lng": -66.2564, "id": "212583", "name": "Diomedea exulans", "sprite": "sp-anchoviella_juruasanga.png", "group": "other", "rarity": 1}, {"lat": -63.33, "lng": -64.6073, "id": "474813", "name": "Ammotrypanella mcintoshi", "sprite": "sp-anchoviella_juruasanga.png", "group": "other", "rarity": 1}, {"lat": -63.283, "lng": -62.15, "id": "174380", "name": "Smittina obicullata", "sprite": "sp-anchoviella_juruasanga.png", "group": "other", "rarity": 1}, {"lat": -63.4, "lng": -62.167, "id": "985", "name": "Sabellidae", "sprite": "sp-anchoviella_juruasanga.png", "group": "other", "rarity": 1}, {"lat": -64.1267, "lng": -65.23, "id": "337548", "name": "Eulalia picta", "sprite": "sp-anchoviella_juruasanga.png", "group": "other", "rarity": 1}, {"lat": -63.5693, "lng": -62.5053, "id": "173885", "name": "Notocrinus virilis", "sprite": "sp-sea_cucumber.png", "group": "starfish", "rarity": 1}, {"lat": -62.5, "lng": -62.76, "id": "850801", "name": "Metridia lucens lucens", "sprite": "sp-anchoviella_juruasanga.png", "group": "other", "rarity": 1}, {"lat": -63.4, "lng": -62.329, "id": "173243", "name": "Decolopoda australis", "sprite": "sp-anchoviella_juruasanga.png", "group": "other", "rarity": 1}, {"lat": -63.158, "lng": -62.308, "id": "104174", "name": "Euchaeta", "sprite": "sp-anchoviella_juruasanga.png", "group": "other", "rarity": 1}, {"lat": -63.33, "lng": -64.6073, "id": "817988", "name": "Eusyllis maxima", "sprite": "sp-anchoviella_juruasanga.png", "group": "other", "rarity": 1}, {"lat": -63.6375, "lng": -62.6205, "id": "173323", "name": "Melicerita obliqua", "sprite": "sp-anchoviella_juruasanga.png", "group": "other", "rarity": 1}, {"lat": -63.5, "lng": -62.0, "id": "160830", "name": "Sterechinus diadema", "sprite": "sp-sea_cucumber.png", "group": "starfish", "rarity": 1}, {"lat": -63.425, "lng": -62.242, "id": "743429", "name": "Fannyella (Scyphogorgia) abies", "sprite": "sp-actiniidae.png", "group": "coral", "rarity": 1}, {"lat": -63.9414, "lng": -65.5856, "id": "113458", "name": "Neogloboquadrina pachyderma", "sprite": "sp-anchoviella_juruasanga.png", "group": "other", "rarity": 1}, {"lat": -64.155, "lng": -62.672, "id": "101566", "name": "Cerapus", "sprite": "sp-american_lobster.png", "group": "crab_lobster", "rarity": 1}, {"lat": -63.85, "lng": -62.6332, "id": "174746", "name": "Clavodorum fusum", "sprite": "sp-anchoviella_juruasanga.png", "group": "other", "rarity": 1}, {"lat": -63.5228, "lng": -64.67, "id": "1341", "name": "Octocorallia", "sprite": "sp-actiniidae.png", "group": "coral", "rarity": 1}, {"lat": -63.709, "lng": -65.591, "id": "1080", "name": "Copepoda", "sprite": "sp-anchoviella_juruasanga.png", "group": "other", "rarity": 1}, {"lat": -63.4332, "lng": -62.25, "id": "247698", "name": "Typhlotanoides rostralis", "sprite": "sp-american_lobster.png", "group": "crab_lobster", "rarity": 1}, {"lat": -63.8333, "lng": -62.4667, "id": "114226", "name": "Spiroplectammina biformis", "sprite": "sp-anchoviella_juruasanga.png", "group": "other", "rarity": 1}, {"lat": -63.505, "lng": -62.4914, "id": "225783", "name": "Pygoscelis antarcticus", "sprite": "sp-anchoviella_juruasanga.png", "group": "other", "rarity": 1}, {"lat": -63.454, "lng": -62.2286, "id": "172962", "name": "Austroraptus juvenilis", "sprite": "sp-anchoviella_juruasanga.png", "group": "other", "rarity": 1}]}