{"zoom": 6, "x": 21, "y": 27, "points": [{"lat": 25.5667, "lng": -58.7, "id": "127349", "name": "Eustomias simplex", "sprite": "sp-anchoviella_juruasanga.png", "group": "other", "rarity": 1, "waterType": "Saltwater"}, {"lat": 25.0, "lng": -60.0, "id": "274187", "name": "Plate fish", "thumb": "tn_Bolun_u3.jpg", "sprite": "sp-atlantic_halibut.png", "group": "flatfish", "rarity": 1, "waterType": "Saltwater"}, {"lat": 25.533, "lng": -58.983, "id": "141694", "name": "Tremoctopus violaceus", "sprite": "sp-giant_pacific_octopus.png", "group": "octopus_squid", "rarity": 1}, {"lat": 23.1044, "lng": -58.4188, "id": "137119", "name": "Physeter macrocephalus", "sprite": "sp-blue_whale.png", "group": "whale", "rarity": 1}, {"lat": 26.183, "lng": -58.433, "id": "126412", "name": "Redmouth whalefish", "thumb": "tn_Rolor_u0.jpg", "sprite": "sp-anchoviella_juruasanga.png", "group": "other", "rarity": 1, "waterType": "Saltwater"}, {"lat": 25.0561, "lng": -60.6256, "id": "362199", "name": "Neorhabdus subcapitaneus", "sprite": "sp-anchoviella_juruasanga.png", "group": "other", "rarity": 1}, {"lat": 24.9789, "lng": -60.5309, "id": "103395", "name": "Bathochordaeus stygius", "sprite": "sp-anchoviella_juruasanga.png", "group": "other", "rarity": 1}, {"lat": 26.183, "lng": -58.433, "id": "126840", "name": "Black swallower", "thumb": "tn_Chnig_ue.jpg", "sprite": "sp-anchoviella_juruasanga.png", "group": "other", "rarity": 1, "waterType": "Saltwater"}, {"lat": 22.6889, "lng": -60.6189, "id": "126863", "name": "Escolar", "thumb": "tn_Lefla_u1.jpg", "sprite": "sp-anchoviella_juruasanga.png", "group": "other", "rarity": 1, "waterType": "Saltwater"}, {"lat": 24.945, "lng": -60.5914, "id": "104103", "name": "Scolecitrichidae", "sprite": "sp-anchoviella_juruasanga.png", "group": "other", "rarity": 1}, {"lat": 25.05, "lng": -60.62, "id": "127801", "name": "Macroconchoecia spinireticulata", "sprite": "sp-anchoviella_juruasanga.png", "group": "other", "rarity": 1}, {"lat": 25.05, "lng": -60.62, "id": "127845", "name": "Paraconchoecia oblonga", "sprite": "sp-anchoviella_juruasanga.png", "group": "other", "rarity": 1}, {"lat": 26.183, "lng": -58.433, "id": "127279", "name": "Ragged bigscale", "thumb": "tn_Scmiz_u1.jpg", "sprite": "sp-anchoviella_juruasanga.png", "group": "other", "rarity": 1, "waterType": "Saltwater"}, {"lat": 26.4405, "lng": -60.7421, "id": "125620", "name": "Anguilla", "sprite": "sp-electric_eel.png", "group": "eel", "rarity": 1}, {"lat": 26.183, "lng": -58.433, "id": "126353", "name": "Barracudina", "sprite": "sp-anchoviella_juruasanga.png", "group": "other", "rarity": 1, "waterType": "Saltwater"}, {"lat": 24.8689, "lng": -60.4871, "id": "264934", "name": "Pyrosomella", "sprite": "sp-anchoviella_juruasanga.png", "group": "other", "rarity": 1}, {"lat": 24.8398, "lng": -60.8018, "id": "558968", "name": "Globoquadrina", "sprite": "sp-anchoviella_juruasanga.png", "group": "other", "rarity": 1}, {"lat": 25.1115, "lng": -57.7373, "id": "137092", "name": "Megaptera novaeangliae", "sprite": "sp-blue_whale.png", "group": "whale", "rarity": 1}, {"lat": 26.183, "lng": -58.433, "id": "127286", "name": "Veiled anglemouth", "thumb": "tn_Cymic_u5.jpg", "sprite": "sp-anchoviella_juruasanga.png", "group": "other", "rarity": 1, "waterType": "Saltwater"}, {"lat": 26.1873, "lng": -58.7585, "id": "157031", "name": "Pyroteuthis margaritifera", "sprite": "sp-giant_pacific_octopus.png", "group": "octopus_squid", "rarity": 1}, {"lat": 26.183, "lng": -58.433, "id": "127299", "name": "Stareye lightfish", "thumb": "tn_Pomau_u0.jpg", "sprite": "sp-anchoviella_juruasanga.png", "group": "other", "rarity": 1, "waterType": "Saltwater"}, {"lat": 22.356, "lng": -60.294, "id": "127014", "name": "Wahoo", "thumb": "tn_Acsol_ua.jpg", "sprite": "sp-bluefin_tuna.png", "group": "tuna_mackerel", "rarity": 1, "waterType": "Saltwater"}, {"lat": 25.64, "lng": -60.705, "id": "137205", "name": "Caretta caretta", "sprite": "sp-green_sea_turtle.png", "group": "sea_turtle", "rarity": 1}, {"lat": 22.6105, "lng": -57.6986, "id": "126846", "name": "Common dolphinfish", "thumb": "tn_Cohip_ud.jpg", "sprite": "sp-anchoviella_juruasanga.png", "group": "other", "rarity": 1, "waterType": "Brackish"}, {"lat": 26.167, "lng": -58.433, "id": "138848", "name": "Bathyteuthis abyssicola", "sprite": "sp-giant_pacific_octopus.png", "group": "octopus_squid", "rarity": 1}, {"lat": 25.0, "lng": -60.0, "id": "219928", "name": "Stellate puffer", "thumb": "tn_Arste_u4.jpg", "sprite": "sp-fahaka_pufferfish.png", "group": "pufferfish", "rarity": 1, "waterType": "Brackish"}, {"lat": 24.8398, "lng": -60.8018, "id": "346268", "name": "Chiridiella brachydactyla", "sprite": "sp-anchoviella_juruasanga.png", "group": "other", "rarity": 1}, {"lat": 23.8, "lng": -59.0, "id": "275107", "name": "Eustomias macrophthalmus", "sprite": "sp-anchoviella_juruasanga.png", "group": "other", "rarity": 1, "waterType": "Saltwater"}, {"lat": 26.183, "lng": -58.433, "id": "126356", "name": "Macroparalepis affinis", "thumb": "tn_Maaff_u1.jpg", "sprite": "sp-anchoviella_juruasanga.png", "group": "other", "rarity": 1, "waterType": "Saltwater"}, {"lat": 22.7294, "lng": -57.3269, "id": "127028", "name": "Bigeye tuna", "thumb": "tn_Thobe_u1.jpg", "sprite": "sp-bluefin_tuna.png", "group": "tuna_mackerel", "rarity": 1, "waterType": "Saltwater"}, {"lat": 25.0, "lng": -60.0, "id": "272070", "name": "Bathypterois bigelowi", "sprite": "sp-anchoviella_juruasanga.png", "group": "other", "rarity": 1, "waterType": "Saltwater"}, {"lat": 24.8689, "lng": -60.4871, "id": "137227", "name": "Cyclosalpa", "sprite": "sp-anchoviella_juruasanga.png", "group": "other", "rarity": 1}, {"lat": 26.183, "lng": -58.433, "id": "126613", "name": "Lampanyctus cuprarius", "sprite": "sp-anchoviella_juruasanga.png", "group": "other", "rarity": 1, "waterType": "Saltwater"}, {"lat": 25.0, "lng": -60.0, "id": "125435", "name": "Serrivomeridae", "sprite": "sp-electric_eel.png", "group": "eel", "rarity": 1}, {"lat": 24.995, "lng": -60.485, "id": "127838", "name": "Paraconchoecia dorsotuberculata", "sprite": "sp-anchoviella_juruasanga.png", "group": "other", "rarity": 1}, {"lat": 26.183, "lng": -58.433, "id": "159330", "name": "Melamphaes pumilus", "sprite": "sp-anchoviella_juruasanga.png", "group": "other", "rarity": 1, "waterType": "Saltwater"}, {"lat": 25.05, "lng": -60.62, "id": "127822", "name": "Mikroconchoecia echinulata", "sprite": "sp-anchoviella_juruasanga.png", "group": "other", "rarity": 1}, {"lat": 25.0, "lng": -60.0, "id": "127402", "name": "Longspined porcupinefish", "thumb": "tn_Dihol_u3.jpg", "sprite": "sp-fahaka_pufferfish.png", "group": "pufferfish", "rarity": 1, "waterType": "Saltwater"}, {"lat": 24.8225, "lng": -60.4469, "id": "272096", "name": "Slender barracudina", "sprite": "sp-anchoviella_juruasanga.png", "group": "other", "rarity": 1, "waterType": "Saltwater"}, {"lat": 26.1, "lng": -57.5333, "id": "478730", "name": "Paranarthrurella dissimilis", "sprite": "sp-american_lobster.png", "group": "crab_lobster", "rarity": 1}, {"lat": 24.8398, "lng": -60.8018, "id": "107583", "name": "Acanthephyra stylorostratis", "sprite": "sp-american_lobster.png", "group": "crab_lobster", "rarity": 1}, {"lat": 24.0, "lng": -59.94, "id": "536008", "name": "Clausoecia pusilla", "sprite": "sp-anchoviella_juruasanga.png", "group": "other", "rarity": 1}, {"lat": 25.05, "lng": -60.62, "id": "127860", "name": "Proceroecia microprocera", "sprite": "sp-anchoviella_juruasanga.png", "group": "other", "rarity": 1}, {"lat": 22.18, "lng": -60.5367, "id": "127029", "name": "Atlantic bluefin tuna", "thumb": "tn_Ththy_ug.jpg", "sprite": "sp-bluefin_tuna.png", "group": "tuna_mackerel", "rarity": 1, "waterType": "Brackish"}, {"lat": 25.0561, "lng": -60.6256, "id": "104589", "name": "Mesorhabdus brevicaudatus", "sprite": "sp-anchoviella_juruasanga.png", "group": "other", "rarity": 1}, {"lat": 26.0, "lng": -60.0, "id": "273823", "name": "Pacific bluefin tuna", "thumb": "tn_Thori_u1.gif", "sprite": "sp-bluefin_tuna.png", "group": "tuna_mackerel", "rarity": 1, "waterType": "Brackish"}, {"lat": 24.83, "lng": -60.08, "id": "127849", "name": "Paramollicia dichotoma", "sprite": "sp-anchoviella_juruasanga.png", "group": "other", "rarity": 1}, {"lat": 25.1112, "lng": -60.4648, "id": "1314235", "name": "Hyalocoecia hyalophyllum", "sprite": "sp-anchoviella_juruasanga.png", "group": "other", "rarity": 1}, {"lat": 23.033, "lng": -60.0, "id": "104528", "name": "Disco inflatus", "sprite": "sp-anchoviella_juruasanga.png", "group": "other", "rarity": 1}, {"lat": 25.1, "lng": -58.1, "id": "126202", "name": "Astronesthes", "sprite": "sp-anchoviella_juruasanga.png", "group": "other", "rarity": 1}, {"lat": 26.183, "lng": -58.433, "id": "127347", "name": "Eustomias obscurus", "thumb": "tn_Euobs_u0.gif", "sprite": "sp-anchoviella_juruasanga.png", "group": "other", "rarity": 1, "waterType": "Saltwater"}, {"lat": 25.0817, "lng": -57.6, "id": "270410", "name": "Pimelodella", "sprite": "sp-blue_catfish.png", "group": "catfish", "rarity": 1}, {"lat": 25.9943, "lng": -60.5, "id": "157031", "name": "Pyroteuthis margaritifera", "sprite": "sp-giant_pacific_octopus.png", "group": "octopus_squid", "rarity": 1}, {"lat": 25.0, "lng": -60.0, "id": "154721", "name": "Grey triggerfish", "thumb": "tn_Bacar_u4.jpg", "sprite": "sp-balistidae.png", "group": "triggerfish", "rarity": 1, "waterType": "Saltwater"}, {"lat": 22.605, "lng": -60.2175, "id": "126846", "name": "Common dolphinfish", "thumb": "tn_Cohip_ud.jpg", "sprite": "sp-anchoviella_juruasanga.png", "group": "other", "rarity": 1, "waterType": "Brackish"}, {"lat": 25.0482, "lng": -60.7281, "id": "104077", "name": "Augaptilidae", "sprite": "sp-anchoviella_juruasanga.png", "group": "other", "rarity": 1}, {"lat": 25.05, "lng": -60.62, "id": "127841", "name": "Paraconchoecia inermis", "sprite": "sp-anchoviella_juruasanga.png", "group": "other", "rarity": 1}, {"lat": 24.8398, "lng": -60.8018, "id": "119828", "name": "Lophogaster", "sprite": "sp-american_lobster.png", "group": "crab_lobster", "rarity": 1}, {"lat": 25.0, "lng": -60.0, "id": "342066", "name": "Sthenoteuthis oualaniensis", "sprite": "sp-giant_pacific_octopus.png", "group": "octopus_squid", "rarity": 1}, {"lat": 25.8, "lng": -59.0, "id": "127346", "name": "Yellowstem dragonfish", "thumb": "tn_Eumac_u1.jpg", "sprite": "sp-anchoviella_juruasanga.png", "group": "other", "rarity": 1, "waterType": "Saltwater"}, {"lat": 25.0, "lng": -60.0, "id": "158920", "name": "Scrawled cowfish", "thumb": "tn_Acqua_u4.jpg", "sprite": "sp-anchoviella_juruasanga.png", "group": "other", "rarity": 1, "waterType": "Saltwater"}, {"lat": 23.3, "lng": -56.9667, "id": "138849", "name": "Japetella diaphana", "sprite": "sp-giant_pacific_octopus.png", "group": "octopus_squid", "rarity": 1}, {"lat": 23.55, "lng": -59.4667, "id": "159518", "name": "Sea raven", "thumb": "tn_Heame_u0.jpg", "sprite": "sp-anchoviella_juruasanga.png", "group": "other", "rarity": 1, "waterType": "Saltwater"}, {"lat": 26.183, "lng": -58.433, "id": "126582", "name": "Lanternfish", "thumb": "tn_Boind_u0.gif", "sprite": "sp-anchoviella_juruasanga.png", "group": "other", "rarity": 1, "waterType": "Saltwater"}, {"lat": 24.2236, "lng": -58.535, "id": "127733", "name": "Alacia leptothrix", "sprite": "sp-anchoviella_juruasanga.png", "group": "other", "rarity": 1}, {"lat": 26.665, "lng": -59.888, "id": "128634", "name": "Corycaeus", "sprite": "sp-anchoviella_juruasanga.png", "group": "other", "rarity": 1}, {"lat": 23.267, "lng": -57.35, "id": "238742", "name": "Grimalditeuthis bonplandii", "sprite": "sp-giant_pacific_octopus.png", "group": "octopus_squid", "rarity": 1}, {"lat": 24.0, "lng": -59.94, "id": "127856", "name": "Porroecia spinirostris", "sprite": "sp-anchoviella_juruasanga.png", "group": "other", "rarity": 1}, {"lat": 25.7, "lng": -60.5, "id": "342387", "name": "Selenoteuthis scintillans", "sprite": "sp-giant_pacific_octopus.png", "group": "octopus_squid", "rarity": 1}, {"lat": 26.183, "lng": -58.433, "id": "127314", "name": "Diaphanous hatchet fish", "thumb": "tn_Stdia_u7.jpg", "sprite": "sp-anchoviella_juruasanga.png", "group": "other", "rarity": 1, "waterType": "Saltwater"}, {"lat": 25.98, "lng": -57.33, "id": "127027", "name": "Yellowfin tuna", "thumb": "tn_Thalb_u0.jpg", "sprite": "sp-bluefin_tuna.png", "group": "tuna_mackerel", "rarity": 1, "waterType": "Brackish"}, {"lat": 24.8398, "lng": -60.441, "id": "730985", "name": "Megacalanus princeps princeps", "sprite": "sp-anchoviella_juruasanga.png", "group": "other", "rarity": 1}, {"lat": 22.4, "lng": -57.48, "id": "127018", "name": "Skipjack tuna", "thumb": "tn_Kapel_m0.jpg", "sprite": "sp-bluefin_tuna.png", "group": "tuna_mackerel", "rarity": 1, "waterType": "Saltwater"}, {"lat": 24.83, "lng": -60.08, "id": "127714", "name": "Gigantocypris dracontovalis", "sprite": "sp-anchoviella_juruasanga.png", "group": "other", "rarity": 1}, {"lat": 26.7497, "lng": -58.789, "id": "127354", "name": "Ribbon sawtail fish", "thumb": "tn_Idfas_u1.jpg", "sprite": "sp-anchoviella_juruasanga.png", "group": "other", "rarity": 1, "waterType": "Saltwater"}, {"lat": 25.0561, "lng": -60.6256, "id": "107021", "name": "Hymenodora", "sprite": "sp-american_lobster.png", "group": "crab_lobster", "rarity": 1}, {"lat": 24.9084, "lng": -60.6004, "id": "107605", "name": "Systellaspis debilis", "sprite": "sp-american_lobster.png", "group": "crab_lobster", "rarity": 1}, {"lat": 25.0, "lng": -60.0, "id": "127403", "name": "Spot-fin porcupinefish", "thumb": "tn_Dihys_ub.jpg", "sprite": "sp-fahaka_pufferfish.png", "group": "pufferfish", "rarity": 1, "waterType": "Saltwater"}, {"lat": 24.1975, "lng": -58.6142, "id": "127714", "name": "Gigantocypris dracontovalis", "sprite": "sp-anchoviella_juruasanga.png", "group": "other", "rarity": 1}, {"lat": 22.23, "lng": -61.56, "id": "159343", "name": "Blackfin tuna", "thumb": "tn_Thatl_u4.jpg", "sprite": "sp-bluefin_tuna.png", "group": "tuna_mackerel", "rarity": 1, "waterType": "Saltwater"}, {"lat": 26.8583, "lng": -61.125, "id": "125960", "name": "Coryphaena", "sprite": "sp-anchoviella_juruasanga.png", "group": "other", "rarity": 1}, {"lat": 24.83, "lng": -60.08, "id": "127553", "name": "Paramollicia", "sprite": "sp-anchoviella_juruasanga.png", "group": "other", "rarity": 1}, {"lat": 23.767, "lng": -58.983, "id": "140649", "name": "Onychoteuthis banksii", "sprite": "sp-giant_pacific_octopus.png", "group": "octopus_squid", "rarity": 1}, {"lat": 24.0, "lng": -59.94, "id": "127846", "name": "Paraconchoecia spinifera", "sprite": "sp-anchoviella_juruasanga.png", "group": "other", "rarity": 1}, {"lat": 25.45, "lng": -58.5585, "id": "341837", "name": "Abralia redfieldi", "sprite": "sp-giant_pacific_octopus.png", "group": "octopus_squid", "rarity": 1}, {"lat": 26.506, "lng": -60.2155, "id": "2081", "name": "Chaetognatha", "sprite": "sp-anchoviella_juruasanga.png", "group": "other", "rarity": 1}, {"lat": 23.0263, "lng": -60.5288, "id": "343999", "name": "Fregata magnificens", "sprite": "sp-anchoviella_juruasanga.png", "group": "other", "rarity": 1}, {"lat": 25.0561, "lng": -60.6256, "id": "104386", "name": "Euaugaptilus elongatus", "sprite": "sp-anchoviella_juruasanga.png", "group": "other", "rarity": 1}, {"lat": 27.0, "lng": -59.0, "id": "273379", "name": "Chiasmodon subniger", "sprite": "sp-anchoviella_juruasanga.png", "group": "other", "rarity": 1, "waterType": "Saltwater"}, {"lat": 25.9053, "lng": -58.689, "id": "342337", "name": "Hyaloteuthis pelagica", "sprite": "sp-giant_pacific_octopus.png", "group": "octopus_squid", "rarity": 1}, {"lat": 25.001, "lng": -59.945, "id": "175691", "name": "Archiconchoecissa", "sprite": "sp-anchoviella_juruasanga.png", "group": "other", "rarity": 1}, {"lat": 24.1975, "lng": -58.6142, "id": "176595", "name": "Halocypretta striata", "sprite": "sp-anchoviella_juruasanga.png", "group": "other", "rarity": 1}, {"lat": 22.5738, "lng": -60.6025, "id": "127026", "name": "Albacore", "thumb": "tn_Thala_u4.jpg", "sprite": "sp-bluefin_tuna.png", "group": "tuna_mackerel", "rarity": 1, "waterType": "Saltwater"}, {"lat": 26.023, "lng": -61.192, "id": "840626", "name": "Tripos fusus", "sprite": "sp-anchoviella_juruasanga.png", "group": "other", "rarity": 1}, {"lat": 25.8, "lng": -59.0, "id": "127360", "name": "Melanostomias biseriatus", "thumb": "tn_Mebis_u0.jpg", "sprite": "sp-anchoviella_juruasanga.png", "group": "other", "rarity": 1, "waterType": "Saltwater"}, {"lat": 22.415, "lng": -57.745, "id": "127014", "name": "Wahoo", "thumb": "tn_Acsol_ua.jpg", "sprite": "sp-bluefin_tuna.png", "group": "tuna_mackerel", "rarity": 1, "waterType": "Saltwater"}, {"lat": 26.7, "lng": -60.5, "id": "140649", "name": "Onychoteuthis banksii", "sprite": "sp-giant_pacific_octopus.png", "group": "octopus_squid", "rarity": 1}, {"lat": 25.0, "lng": -60.0, "id": "127397", "name": "Queen triggerfish", "thumb": "tn_Bavet_ub.jpg", "sprite": "sp-balistidae.png", "group": "triggerfish", "rarity": 1, "waterType": "Saltwater"}, {"lat": 25.15, "lng": -58.117, "id": "196598", "name": "Joubiniteuthis portieri", "sprite": "sp-giant_pacific_octopus.png", "group": "octopus_squid", "rarity": 1}, {"lat": 25.0817, "lng": -57.6, "id": "268345", "name": "Apistogramma", "sprite": "sp-coptodon_louka.png", "group": "cichlid", "rarity": 1}, {"lat": 24.9999, "lng": -60.2292, "id": "127289", "name": "Slender bristlemouth", "thumb": "tn_Cypse_u1.gif", "sprite": "sp-anchoviella_juruasanga.png", "group": "other", "rarity": 1, "waterType": "Saltwater"}, {"lat": 24.88, "lng": -58.13, "id": "126863", "name": "Escolar", "thumb": "tn_Lefla_u1.jpg", "sprite": "sp-anchoviella_juruasanga.png", "group": "other", "rarity": 1, "waterType": "Saltwater"}, {"lat": 25.05, "lng": -60.62, "id": "175693", "name": "Archiconchoecissa cucullata", "sprite": "sp-anchoviella_juruasanga.png", "group": "other", "rarity": 1}, {"lat": 26.2387, "lng": -58.7943, "id": "237819", "name": "Abraliopsis morisii", "sprite": "sp-giant_pacific_octopus.png", "group": "octopus_squid", "rarity": 1}, {"lat": 24.0, "lng": -59.94, "id": "176642", "name": "Archiconchoecetta bispicula", "sprite": "sp-anchoviella_juruasanga.png", "group": "other", "rarity": 1}, {"lat": 24.0, "lng": -59.94, "id": "536001", "name": "Muelleroecia glandulosa", "sprite": "sp-anchoviella_juruasanga.png", "group": "other", "rarity": 1}, {"lat": 25.05, "lng": -60.62, "id": "127794", "name": "Halocypris inflata", "sprite": "sp-anchoviella_juruasanga.png", "group": "other", "rarity": 1}, {"lat": 25.0, "lng": -60.0, "id": "126320", "name": "Bronze sawtooth eel", "thumb": "tn_Selan_u0.gif", "sprite": "sp-electric_eel.png", "group": "eel", "rarity": 1, "waterType": "Saltwater"}, {"lat": 26.183, "lng": -58.433, "id": "221512", "name": "Elongated bristlemouth fish", "thumb": "tn_Goelo_u3.jpg", "sprite": "sp-anchoviella_juruasanga.png", "group": "other", "rarity": 1, "waterType": "Saltwater"}, {"lat": 26.183, "lng": -58.433, "id": "158858", "name": "Telescopefish", "thumb": "tn_Giind_u0.gif", "sprite": "sp-anchoviella_juruasanga.png", "group": "other", "rarity": 1, "waterType": "Saltwater"}, {"lat": 24.8689, "lng": -60.4871, "id": "104192", "name": "Acrocalanus", "sprite": "sp-anchoviella_juruasanga.png", "group": "other", "rarity": 1}, {"lat": 24.9982, "lng": -59.9999, "id": "144208", "name": "Ganonema", "sprite": "sp-anchoviella_juruasanga.png", "group": "other", "rarity": 1}, {"lat": 26.183, "lng": -58.433, "id": "159666", "name": "Kali indica", "thumb": "tn_Kaind_u0.gif", "sprite": "sp-anchoviella_juruasanga.png", "group": "other", "rarity": 1, "waterType": "Saltwater"}, {"lat": 24.0, "lng": -59.94, "id": "127802", "name": "Metaconchoecia acuta", "sprite": "sp-anchoviella_juruasanga.png", "group": "other", "rarity": 1}, {"lat": 25.65, "lng": -60.5, "id": "275072", "name": "Eustomias binghami", "sprite": "sp-anchoviella_juruasanga.png", "group": "other", "rarity": 1, "waterType": "Saltwater"}, {"lat": 24.1, "lng": -60.0, "id": "158562", "name": "American eel", "thumb": "tn_Anros_u1.jpg", "sprite": "sp-electric_eel.png", "group": "eel", "rarity": 1, "waterType": "Brackish"}, {"lat": 27.033, "lng": -58.967, "id": "140624", "name": "Todarodes sagittatus", "sprite": "sp-giant_pacific_octopus.png", "group": "octopus_squid", "rarity": 1}, {"lat": 23.033, "lng": -60.0, "id": "104410", "name": "Euaugaptilus penicillatus", "sprite": "sp-anchoviella_juruasanga.png", "group": "other", "rarity": 1}, {"lat": 24.8616, "lng": -60.5658, "id": "113448", "name": "Globorotalia hirsuta", "sprite": "sp-anchoviella_juruasanga.png", "group": "other", "rarity": 1}, {"lat": 24.8398, "lng": -60.8018, "id": "113450", "name": "Globorotalia menardii", "sprite": "sp-anchoviella_juruasanga.png", "group": "other", "rarity": 1}]}