{"zoom": 6, "x": 22, "y": 30, "points": [{"lat": 10.0, "lng": -55.0, "id": "280068", "name": "Common snook", "thumb": "tn_Ceund_u1.jpg", "sprite": "sp-anchoviella_juruasanga.png", "group": "other", "rarity": 1, "waterType": "Brackish"}, {"lat": 6.85, "lng": -54.937, "id": "574543", "name": "Doryteuthis pleii", "sprite": "sp-giant_pacific_octopus.png", "group": "octopus_squid", "rarity": 1}, {"lat": 9.4538, "lng": -54.342, "id": "1026283", "name": "Sphaeroidinellopsis seminulina", "sprite": "sp-anchoviella_juruasanga.png", "group": "other", "rarity": 1}, {"lat": 7.1228, "lng": -52.7044, "id": "277416", "name": "Coloconger meadi", "thumb": "tn_Comea_u0.jpg", "sprite": "sp-electric_eel.png", "group": "eel", "rarity": 1, "waterType": "Saltwater"}, {"lat": 6.0267, "lng": -52.6167, "id": "158565", "name": "Longtrunk conger", "thumb": "tn_Arana_u1.jpg", "sprite": "sp-electric_eel.png", "group": "eel", "rarity": 1, "waterType": "Saltwater"}, {"lat": 5.7321, "lng": -53.9645, "id": "149142", "name": "Navicula", "sprite": "sp-anchoviella_juruasanga.png", "group": "other", "rarity": 1}, {"lat": 7.1657, "lng": -53.0563, "id": "124814", "name": "Bathypectinura heros", "sprite": "sp-sea_cucumber.png", "group": "starfish", "rarity": 1}, {"lat": 7.25, "lng": -53.35, "id": "125950", "name": "Centrolophus", "sprite": "sp-anchoviella_juruasanga.png", "group": "other", "rarity": 1}, {"lat": 7.8, "lng": -54.025, "id": "125702", "name": "Diretmoides", "sprite": "sp-anchoviella_juruasanga.png", "group": "other", "rarity": 1}, {"lat": 10.1017, "lng": -55.2333, "id": "141958", "name": "Verticordia quadrata", "sprite": "sp-blue_mussel.png", "group": "clam_mussel", "rarity": 1}, {"lat": 5.7894, "lng": -53.9016, "id": "126803", "name": "Crevalle jack", "thumb": "tn_Cahip_u0.jpg", "sprite": "sp-anchoviella_juruasanga.png", "group": "other", "rarity": 1, "waterType": "Brackish"}, {"lat": 7.755, "lng": -54.4, "id": "118340", "name": "Eurycope", "sprite": "sp-american_lobster.png", "group": "crab_lobster", "rarity": 1}, {"lat": 5.7198, "lng": -53.8435, "id": "159353", "name": "Atlantic goliath grouper", "thumb": "tn_Epita_u2.jpg", "sprite": "sp-chelidoperca_santosi.png", "group": "grouper", "rarity": 1, "waterType": "Brackish"}, {"lat": 10.5692, "lng": -55.1625, "id": "456782", "name": "Dacrydium hedleyi", "sprite": "sp-blue_mussel.png", "group": "clam_mussel", "rarity": 1}, {"lat": 6.9185, "lng": -54.1685, "id": "291040", "name": "Sclerobelemnon theseus", "sprite": "sp-actiniidae.png", "group": "coral", "rarity": 1}, {"lat": 9.3771, "lng": -54.2708, "id": "913745", "name": "Orbignyna ovata", "sprite": "sp-anchoviella_juruasanga.png", "group": "other", "rarity": 1}, {"lat": 8.867, "lng": -51.567, "id": "346026", "name": "Acartia (Acartia) danae", "sprite": "sp-anchoviella_juruasanga.png", "group": "other", "rarity": 1}, {"lat": 8.8418, "lng": -52.9671, "id": "136980", "name": "Delphinidae", "sprite": "sp-bottlenose_dolphin.png", "group": "dolphin", "rarity": 1}, {"lat": 6.5335, "lng": -54.9793, "id": "368299", "name": "Paguristes tortugae", "sprite": "sp-american_lobster.png", "group": "crab_lobster", "rarity": 1}, {"lat": 10.0, "lng": -55.0, "id": "1042858", "name": "Longnose stingray", "thumb": "tn_Dagut_u3.jpg", "sprite": "sp-himantura_australis.png", "group": "ray", "rarity": 1, "waterType": "Saltwater"}, {"lat": 6.4833, "lng": -55.0833, "id": "277582", "name": "Zebrias fasciatus", "thumb": "tn_Zefas_u2.jpg", "sprite": "sp-atlantic_halibut.png", "group": "flatfish", "rarity": 1, "waterType": "Saltwater"}, {"lat": 8.5975, "lng": -54.3803, "id": "567797", "name": "Sternula antillarum", "sprite": "sp-anchoviella_juruasanga.png", "group": "other", "rarity": 1}, {"lat": 5.8215, "lng": -54.1273, "id": "276074", "name": "Acoupa weakfish", "thumb": "tn_Cyaco_u2.jpg", "sprite": "sp-anchoviella_juruasanga.png", "group": "other", "rarity": 1, "waterType": "Brackish"}, {"lat": 6.9174, "lng": -55.02, "id": "220293", "name": "Lepidochelys olivacea", "sprite": "sp-green_sea_turtle.png", "group": "sea_turtle", "rarity": 1}, {"lat": 7.1066, "lng": -52.9495, "id": "243521", "name": "Ophiocamax fasciculata", "sprite": "sp-sea_cucumber.png", "group": "starfish", "rarity": 1}, {"lat": 5.7321, "lng": -53.9645, "id": "149510", "name": "Donkinia", "sprite": "sp-anchoviella_juruasanga.png", "group": "other", "rarity": 1}, {"lat": 9.262, "lng": -54.06, "id": "110321", "name": "Protoceratium reticulatum", "sprite": "sp-anchoviella_juruasanga.png", "group": "other", "rarity": 1}, {"lat": 9.4667, "lng": -55.5833, "id": "158888", "name": "Garman's lanternfish", "thumb": "tn_Digar_u0.jpg", "sprite": "sp-anchoviella_juruasanga.png", "group": "other", "rarity": 1, "waterType": "Saltwater"}, {"lat": 6.5833, "lng": -53.5833, "id": "159349", "name": "Diplectrum", "sprite": "sp-chelidoperca_santosi.png", "group": "grouper", "rarity": 1}, {"lat": 6.4051, "lng": -52.5454, "id": "243886", "name": "Ophionereis olivacea", "sprite": "sp-sea_cucumber.png", "group": "starfish", "rarity": 1}, {"lat": 8.0194, "lng": -54.8033, "id": "504609", "name": "Limopsis intermedia", "sprite": "sp-blue_mussel.png", "group": "clam_mussel", "rarity": 1}, {"lat": 10.0, "lng": -55.0, "id": "271865", "name": "Ocellated moray", "thumb": "tn_Gyoce_u4.jpg", "sprite": "sp-anarchias.png", "group": "moray", "rarity": 1, "waterType": "Brackish"}, {"lat": 9.3476, "lng": -54.2433, "id": "986609", "name": "Gavelinella lorneiana", "sprite": "sp-anchoviella_juruasanga.png", "group": "other", "rarity": 1}, {"lat": 6.3, "lng": -55.45, "id": "159279", "name": "Ballyhoo halfbeak", "thumb": "tn_Hebra_u4.jpg", "sprite": "sp-anchoviella_juruasanga.png", "group": "other", "rarity": 1, "waterType": "Saltwater"}, {"lat": 5.7667, "lng": -53.0, "id": "159166", "name": "Bay whiff", "thumb": "tn_Cispi_u1.jpg", "sprite": "sp-atlantic_halibut.png", "group": "flatfish", "rarity": 1, "waterType": "Brackish"}, {"lat": 7.9125, "lng": -54.3775, "id": "235", "name": "Tellinidae", "sprite": "sp-blue_mussel.png", "group": "clam_mussel", "rarity": 1}, {"lat": 8.2, "lng": -55.8333, "id": "182279", "name": "Bytholeucon hiscens", "sprite": "sp-american_lobster.png", "group": "crab_lobster", "rarity": 1}, {"lat": 7.0, "lng": -53.0, "id": "127340", "name": "Threadfin dragonfish", "thumb": "tn_Ecbar_u0.gif", "sprite": "sp-anchoviella_juruasanga.png", "group": "other", "rarity": 1, "waterType": "Saltwater"}, {"lat": 5.7321, "lng": -53.9645, "id": "837459", "name": "Tripos lineatus", "sprite": "sp-anchoviella_juruasanga.png", "group": "other", "rarity": 1}, {"lat": 6.7318, "lng": -54.472, "id": "105730", "name": "Sphyrna", "sprite": "sp-great_white_shark.png", "group": "shark", "rarity": 1}, {"lat": 8.48, "lng": -56.075, "id": "140714", "name": "Propeamussium lucidum", "sprite": "sp-blue_mussel.png", "group": "clam_mussel", "rarity": 1}, {"lat": 8.967, "lng": -54.067, "id": "246336", "name": "Lysmata moorei", "sprite": "sp-american_lobster.png", "group": "crab_lobster", "rarity": 1}, {"lat": 9.5133, "lng": -51.4483, "id": "1043480", "name": "Pacific guitarfish", "thumb": "tn_Rhpla_u0.jpg", "sprite": "sp-himantura_australis.png", "group": "ray", "rarity": 1, "waterType": "Saltwater"}, {"lat": 6.1167, "lng": -52.3167, "id": "159314", "name": "Equetus", "sprite": "sp-anchoviella_juruasanga.png", "group": "other", "rarity": 1}, {"lat": 7.9875, "lng": -55.0729, "id": "152905", "name": "Mendicula ferruginosa", "sprite": "sp-blue_mussel.png", "group": "clam_mussel", "rarity": 1}, {"lat": 8.8159, "lng": -55.5189, "id": "1484532", "name": "Piranga olivacea", "sprite": "sp-anchoviella_juruasanga.png", "group": "other", "rarity": 1}, {"lat": 9.083, "lng": -55.283, "id": "158347", "name": "Acanthephyra acutifrons", "sprite": "sp-american_lobster.png", "group": "crab_lobster", "rarity": 1}, {"lat": 10.55, "lng": -53.367, "id": "104343", "name": "Undeuchaeta plumosa", "sprite": "sp-anchoviella_juruasanga.png", "group": "other", "rarity": 1}, {"lat": 7.5185, "lng": -53.25, "id": "128499", "name": "Umbellula", "sprite": "sp-actiniidae.png", "group": "coral", "rarity": 1}, {"lat": 5.7212, "lng": -53.9432, "id": "281125", "name": "Wara wara", "sprite": "sp-blue_catfish.png", "group": "catfish", "rarity": 1, "waterType": "Brackish"}, {"lat": 6.7452, "lng": -52.7952, "id": "308721", "name": "Halieutichthys caribbaeus", "sprite": "sp-deep_sea_anglerfish.png", "group": "anglerfish", "rarity": 1, "waterType": "Saltwater"}, {"lat": 7.563, "lng": -54.1623, "id": "158764", "name": "Luciobrotula corethromycter", "thumb": "tn_Lucor_u1.jpg", "sprite": "sp-anchoviella_juruasanga.png", "group": "other", "rarity": 1, "waterType": "Saltwater"}, {"lat": 5.75, "lng": -52.3, "id": "276009", "name": "Foureyed flounder", "thumb": "tn_Ankum_u0.gif", "sprite": "sp-atlantic_halibut.png", "group": "flatfish", "rarity": 1, "waterType": "Saltwater"}, {"lat": 8.6416, "lng": -54.8365, "id": "137109", "name": "Stenella longirostris", "sprite": "sp-bottlenose_dolphin.png", "group": "dolphin", "rarity": 1}, {"lat": 10.0, "lng": -55.0, "id": "127089", "name": "Largehead hairtail", "thumb": "tn_Trlep_u0.jpg", "sprite": "sp-anchoviella_juruasanga.png", "group": "other", "rarity": 1, "waterType": "Brackish"}, {"lat": 9.4538, "lng": -54.342, "id": "113450", "name": "Globorotalia menardii", "sprite": "sp-anchoviella_juruasanga.png", "group": "other", "rarity": 1}, {"lat": 6.0198, "lng": -52.9417, "id": "159483", "name": "Atlantic bumper", "thumb": "tn_Chchr_ug.jpg", "sprite": "sp-anchoviella_juruasanga.png", "group": "other", "rarity": 1, "waterType": "Brackish"}, {"lat": 7.6444, "lng": -54.0611, "id": "299709", "name": "Blackfin sorcerer", "thumb": "tn_Nemel_ua.jpg", "sprite": "sp-electric_eel.png", "group": "eel", "rarity": 1, "waterType": "Saltwater"}, {"lat": 7.1152, "lng": -54.9848, "id": "420762", "name": "Argopecten lineolaris", "sprite": "sp-blue_mussel.png", "group": "clam_mussel", "rarity": 1}, {"lat": 9.0833, "lng": -55.7917, "id": "158996", "name": "Chain pearlfish", "thumb": "tn_Ecdaw_u0.gif", "sprite": "sp-anchoviella_juruasanga.png", "group": "other", "rarity": 1, "waterType": "Saltwater"}, {"lat": 6.5763, "lng": -54.7767, "id": "401818", "name": "Corocoro grunt", "thumb": "tn_Orrub_u1.jpg", "sprite": "sp-anchoviella_juruasanga.png", "group": "other", "rarity": 1, "waterType": "Brackish"}, {"lat": 6.3783, "lng": -52.6258, "id": "245516", "name": "Ophioderma brevispinum", "sprite": "sp-sea_cucumber.png", "group": "starfish", "rarity": 1}, {"lat": 7.9364, "lng": -54.9426, "id": "136986", "name": "Ziphiidae", "sprite": "sp-blue_whale.png", "group": "whale", "rarity": 1}, {"lat": 5.7798, "lng": -52.1601, "id": "159792", "name": "Mutton snapper", "thumb": "tn_Luana_u0.jpg", "sprite": "sp-mutton_snapper.png", "group": "snapper", "rarity": 1, "waterType": "Brackish"}, {"lat": 6.383, "lng": -55.0917, "id": "138363", "name": "Pleurobranchaea", "sprite": "sp-cowrie_shell.png", "group": "sea_snail", "rarity": 1}, {"lat": 6.6, "lng": -51.5, "id": "713180", "name": "False halfbeak", "thumb": "tn_Oxmic_u2.gif", "sprite": "sp-anchoviella_juruasanga.png", "group": "other", "rarity": 1, "waterType": "Saltwater"}, {"lat": 9.4538, "lng": -54.342, "id": "925038", "name": "Globorotalia whitei", "sprite": "sp-anchoviella_juruasanga.png", "group": "other", "rarity": 1}, {"lat": 6.2591, "lng": -54.7682, "id": "268211", "name": "Achirus", "sprite": "sp-atlantic_halibut.png", "group": "flatfish", "rarity": 1}, {"lat": 7.5778, "lng": -54.2667, "id": "157036", "name": "Semirossia tenera", "sprite": "sp-giant_pacific_octopus.png", "group": "octopus_squid", "rarity": 1}, {"lat": 6.6812, "lng": -52.4893, "id": "110349", "name": "Echiuridae", "sprite": "sp-anchoviella_juruasanga.png", "group": "other", "rarity": 1}, {"lat": 7.7271, "lng": -54.0417, "id": "272752", "name": "Barathronus bicolor", "thumb": "tn_Babic_u0.jpg", "sprite": "sp-anchoviella_juruasanga.png", "group": "other", "rarity": 1, "waterType": "Saltwater"}, {"lat": 8.0704, "lng": -54.2977, "id": "159046", "name": "Philomachus pugnax", "sprite": "sp-anchoviella_juruasanga.png", "group": "other", "rarity": 1}, {"lat": 6.1693, "lng": -52.725, "id": "409352", "name": "Squilla lijdingi", "sprite": "sp-american_lobster.png", "group": "crab_lobster", "rarity": 1}, {"lat": 7.6667, "lng": -54.25, "id": "126387", "name": "Mirrorwing flyingfish", "thumb": "tn_Hispe_u1.jpg", "sprite": "sp-flying_fish.png", "group": "flying_fish", "rarity": 1, "waterType": "Saltwater"}, {"lat": 8.7, "lng": -56.0, "id": "713180", "name": "False halfbeak", "thumb": "tn_Oxmic_u2.gif", "sprite": "sp-anchoviella_juruasanga.png", "group": "other", "rarity": 1, "waterType": "Saltwater"}, {"lat": 7.6519, "lng": -54.037, "id": "217956", "name": "Zenion longipinnis", "sprite": "sp-anchoviella_juruasanga.png", "group": "other", "rarity": 1, "waterType": "Saltwater"}, {"lat": 7.417, "lng": -54.133, "id": "440339", "name": "Paracyclois atlantis", "sprite": "sp-american_lobster.png", "group": "crab_lobster", "rarity": 1}, {"lat": 9.4997, "lng": -52.5059, "id": "137201", "name": "Puffinus gravis", "sprite": "sp-anchoviella_juruasanga.png", "group": "other", "rarity": 1}, {"lat": 9.3555, "lng": -54.2507, "id": "1044107", "name": "Brotzenella monterelensis", "sprite": "sp-anchoviella_juruasanga.png", "group": "other", "rarity": 1}, {"lat": 7.8333, "lng": -54.1667, "id": "126350", "name": "Scopelosaurus smithii", "thumb": "tn_Scsmi_u0.jpg", "sprite": "sp-anchoviella_juruasanga.png", "group": "other", "rarity": 1, "waterType": "Saltwater"}, {"lat": 10.0, "lng": -55.0, "id": "126973", "name": "Tripletail", "thumb": "tn_Losur_u7.jpg", "sprite": "sp-anchoviella_juruasanga.png", "group": "other", "rarity": 1, "waterType": "Brackish"}, {"lat": 6.85, "lng": -54.883, "id": "178646", "name": "Astropecten antillensis", "sprite": "sp-sea_cucumber.png", "group": "starfish", "rarity": 1}, {"lat": 7.417, "lng": -54.583, "id": "178759", "name": "Henricia sexradiata", "sprite": "sp-sea_cucumber.png", "group": "starfish", "rarity": 1}, {"lat": 6.25, "lng": -54.75, "id": "276080", "name": "Smooth weakfish", "thumb": "tn_Cylei_u3.jpg", "sprite": "sp-anchoviella_juruasanga.png", "group": "other", "rarity": 1, "waterType": "Brackish"}, {"lat": 9.932, "lng": -52.2738, "id": "137065", "name": "Puffinus", "sprite": "sp-anchoviella_juruasanga.png", "group": "other", "rarity": 1}, {"lat": 7.5667, "lng": -54.2167, "id": "126845", "name": "Pompano dolphinfish", "thumb": "tn_Coequ_m0.jpg", "sprite": "sp-anchoviella_juruasanga.png", "group": "other", "rarity": 1, "waterType": "Saltwater"}, {"lat": 8.2067, "lng": -55.8367, "id": "138473", "name": "Seguenzia", "sprite": "sp-cowrie_shell.png", "group": "sea_snail", "rarity": 1}, {"lat": 7.6833, "lng": -53.5833, "id": "126742", "name": "Maul's searsid", "thumb": "tn_Mamau_u0.jpg", "sprite": "sp-anchoviella_juruasanga.png", "group": "other", "rarity": 1, "waterType": "Saltwater"}, {"lat": 6.642, "lng": -55.5165, "id": "377665", "name": "Solenocera geijskesi", "sprite": "sp-american_lobster.png", "group": "crab_lobster", "rarity": 1}, {"lat": 8.4725, "lng": -51.7985, "id": "148746", "name": "Ciconiiformes", "sprite": "sp-anchoviella_juruasanga.png", "group": "other", "rarity": 1}, {"lat": 7.755, "lng": -54.4, "id": "504612", "name": "Limopsis surinamensis", "sprite": "sp-blue_mussel.png", "group": "clam_mussel", "rarity": 1}, {"lat": 9.3004, "lng": -54.1995, "id": "903873", "name": "Ramulina fusiformis", "sprite": "sp-anchoviella_juruasanga.png", "group": "other", "rarity": 1}, {"lat": 6.9167, "lng": -54.0167, "id": "125610", "name": "Monacanthidae", "sprite": "sp-anchoviella_juruasanga.png", "group": "other", "rarity": 1}, {"lat": 8.067, "lng": -54.3076, "id": "212597", "name": "Sula leucogaster", "sprite": "sp-anchoviella_juruasanga.png", "group": "other", "rarity": 1}, {"lat": 9.3583, "lng": -55.5083, "id": "158889", "name": "Luetken's lanternfish", "thumb": "tn_Dilue_u0.jpg", "sprite": "sp-anchoviella_juruasanga.png", "group": "other", "rarity": 1, "waterType": "Saltwater"}, {"lat": 6.4385, "lng": -55.601, "id": "159640", "name": "Bluntnose jack", "thumb": "tn_Heamb_u2.jpg", "sprite": "sp-anchoviella_juruasanga.png", "group": "other", "rarity": 1, "waterType": "Saltwater"}, {"lat": 6.1016, "lng": -54.4818, "id": "280367", "name": "Banded puffer", "thumb": "tn_Copsi_u4.jpg", "sprite": "sp-fahaka_pufferfish.png", "group": "pufferfish", "rarity": 1, "waterType": "Brackish"}, {"lat": 9.4047, "lng": -54.2964, "id": "1506878", "name": "Quadrimorphina camerata", "sprite": "sp-anchoviella_juruasanga.png", "group": "other", "rarity": 1}, {"lat": 5.7201, "lng": -52.4768, "id": "159649", "name": "Lookdown", "thumb": "tn_Sevom_u3.jpg", "sprite": "sp-anchoviella_juruasanga.png", "group": "other", "rarity": 1, "waterType": "Brackish"}, {"lat": 5.8617, "lng": -52.3467, "id": "1043607", "name": "Chola guitarfish", "thumb": "tn_Rhper_u1.jpg", "sprite": "sp-himantura_australis.png", "group": "ray", "rarity": 1, "waterType": "Saltwater"}, {"lat": 5.9813, "lng": -52.5646, "id": "158695", "name": "Atlantic thread herring", "thumb": "tn_Opogl_u5.jpg", "sprite": "sp-anchoviella_juruasanga.png", "group": "other", "rarity": 1, "waterType": "Saltwater"}, {"lat": 9.4538, "lng": -54.342, "id": "615435", "name": "Helicosphaera carteri", "sprite": "sp-anchoviella_juruasanga.png", "group": "other", "rarity": 1}, {"lat": 7.75, "lng": -53.4, "id": "221388", "name": "Shortdorsal cutthroat eel", "thumb": "tn_Sybre_u0.jpg", "sprite": "sp-electric_eel.png", "group": "eel", "rarity": 1, "waterType": "Saltwater"}, {"lat": 6.8556, "lng": -55.3056, "id": "127407", "name": "Unicorn leatherjacket filefish", "thumb": "tn_Almon_u1.jpg", "sprite": "sp-anchoviella_juruasanga.png", "group": "other", "rarity": 1, "waterType": "Saltwater"}, {"lat": 9.3004, "lng": -54.1995, "id": "919469", "name": "Marginulina seminotata", "sprite": "sp-anchoviella_juruasanga.png", "group": "other", "rarity": 1}, {"lat": 6.8185, "lng": -55.3926, "id": "127005", "name": "Atlantic bigeye", "thumb": "tn_Prare_u1.jpg", "sprite": "sp-anchoviella_juruasanga.png", "group": "other", "rarity": 1, "waterType": "Saltwater"}, {"lat": 9.3388, "lng": -54.2351, "id": "1027815", "name": "Pyramidulina majuscula", "sprite": "sp-anchoviella_juruasanga.png", "group": "other", "rarity": 1}, {"lat": 5.7231, "lng": -53.8576, "id": "281446", "name": "Atlantic sabretooth anchovy", "thumb": "tn_Lygro_u3.jpg", "sprite": "sp-anchoviella_juruasanga.png", "group": "anchovy", "rarity": 1, "waterType": "Brackish"}, {"lat": 7.7333, "lng": -54.3111, "id": "209380", "name": "Luminous deepsea cardinalfish", "thumb": "tn_Epmac_u9.jpg", "sprite": "sp-anchoviella_juruasanga.png", "group": "other", "rarity": 1, "waterType": "Brackish"}, {"lat": 5.7329, "lng": -54.5726, "id": "279759", "name": "Tenbarbed banjo", "thumb": "tn_Astib_u0.gif", "sprite": "sp-blue_catfish.png", "group": "catfish", "rarity": 1, "waterType": "Brackish"}, {"lat": 9.4538, "lng": -54.342, "id": "112341", "name": "Reophax", "sprite": "sp-anchoviella_juruasanga.png", "group": "other", "rarity": 1}, {"lat": 8.07, "lng": -54.355, "id": "954693", "name": "Parathyasira equalis", "sprite": "sp-blue_mussel.png", "group": "clam_mussel", "rarity": 1}, {"lat": 9.0, "lng": -52.2666, "id": "1056519", "name": "Robustosergia regalis", "sprite": "sp-american_lobster.png", "group": "crab_lobster", "rarity": 1}, {"lat": 6.1233, "lng": -52.4367, "id": "126283", "name": "Bandtooth conger", "thumb": "tn_Arbal_u5.jpg", "sprite": "sp-electric_eel.png", "group": "eel", "rarity": 1, "waterType": "Saltwater"}, {"lat": 7.1417, "lng": -54.3667, "id": "422495", "name": "Clypeaster euclastus", "sprite": "sp-sea_cucumber.png", "group": "starfish", "rarity": 1}, {"lat": 8.2067, "lng": -55.8367, "id": "345287", "name": "Kurtiella tumidula", "sprite": "sp-blue_mussel.png", "group": "clam_mussel", "rarity": 1}, {"lat": 7.2811, "lng": -54.7523, "id": "420226", "name": "Conus villepinii", "sprite": "sp-cowrie_shell.png", "group": "sea_snail", "rarity": 1}, {"lat": 5.7331, "lng": -53.9331, "id": "1297575", "name": "Chupare stingray", "thumb": "tn_Hisch_u0.jpg", "sprite": "sp-himantura_australis.png", "group": "ray", "rarity": 1, "waterType": "Saltwater"}, {"lat": 9.583, "lng": -52.517, "id": "104140", "name": "Haloptilus", "sprite": "sp-anchoviella_juruasanga.png", "group": "other", "rarity": 1}, {"lat": 5.7321, "lng": -53.9645, "id": "148969", "name": "Biddulphia sinensis", "sprite": "sp-anchoviella_juruasanga.png", "group": "other", "rarity": 1}]}