{"zoom": 6, "x": 23, "y": 37, "points": [{"lat": -27.5743, "lng": -48.5192, "id": "112849", "name": "Ammonia beccarii", "sprite": "sp-anchoviella_juruasanga.png", "group": "other", "rarity": 1}, {"lat": -27.6024, "lng": -48.5588, "id": "876297", "name": "Eumida minuta", "sprite": "sp-anchoviella_juruasanga.png", "group": "other", "rarity": 1}, {"lat": -28.5117, "lng": -45.5466, "id": "235863", "name": "Helicosphaera", "sprite": "sp-anchoviella_juruasanga.png", "group": "other", "rarity": 1}, {"lat": -27.5741, "lng": -47.0, "id": "117568", "name": "Liriope tetraphylla", "sprite": "sp-anchoviella_juruasanga.png", "group": "other", "rarity": 1}, {"lat": -27.1667, "lng": -48.55, "id": "276659", "name": "Dusky damselfish", "thumb": "tn_Stadu_u0.jpg", "sprite": "sp-chrysiptera_caesifrons.png", "group": "clownfish", "rarity": 1, "waterType": "Saltwater"}, {"lat": -30.0, "lng": -50.1167, "id": "273658", "name": "Redeye mullet", "thumb": "tn_Murub_u0.jpg", "sprite": "sp-anchoviella_juruasanga.png", "group": "other", "rarity": 1, "waterType": "Saltwater"}, {"lat": -29.2103, "lng": -47.985, "id": "276219", "name": "Tile fish", "thumb": "tn_Lovil_u3.jpg", "sprite": "sp-anchoviella_juruasanga.png", "group": "other", "rarity": 1, "waterType": "Saltwater"}, {"lat": -29.0187, "lng": -47.7, "id": "126134", "name": "Polymixia", "sprite": "sp-anchoviella_juruasanga.png", "group": "other", "rarity": 1}, {"lat": -31.3892, "lng": -49.9117, "id": "286340", "name": "Bebryce cinerea", "sprite": "sp-actiniidae.png", "group": "coral", "rarity": 1}, {"lat": -27.3167, "lng": -48.2333, "id": "273880", "name": "Gag", "thumb": "tn_Mymic_u3.jpg", "sprite": "sp-chelidoperca_santosi.png", "group": "grouper", "rarity": 1, "waterType": "Brackish"}, {"lat": -30.5809, "lng": -49.3991, "id": "118396", "name": "Rocinela", "sprite": "sp-american_lobster.png", "group": "crab_lobster", "rarity": 1}, {"lat": -28.0188, "lng": -49.086, "id": "269449", "name": "Hyphessobrycon", "sprite": "sp-astyanax.png", "group": "piranha", "rarity": 1}, {"lat": -27.58, "lng": -48.51, "id": "141114", "name": "Linatella caudata", "sprite": "sp-cowrie_shell.png", "group": "sea_snail", "rarity": 1}, {"lat": -31.1275, "lng": -49.207, "id": "217717", "name": "Multispotted lanternfish", "thumb": "tn_Scmul_u1.gif", "sprite": "sp-anchoviella_juruasanga.png", "group": "other", "rarity": 1, "waterType": "Saltwater"}, {"lat": -27.7464, "lng": -48.551, "id": "532463", "name": "Buccinanops cochlidium", "sprite": "sp-cowrie_shell.png", "group": "sea_snail", "rarity": 1}, {"lat": -29.3353, "lng": -49.7267, "id": "231413", "name": "Mirounga leonina", "sprite": "sp-elephant_seal.png", "group": "seal", "rarity": 1}, {"lat": -31.6382, "lng": -48.4835, "id": "235962", "name": "Oolithotus fragilis", "sprite": "sp-anchoviella_juruasanga.png", "group": "other", "rarity": 1}, {"lat": -31.6033, "lng": -49.1833, "id": "103291", "name": "Vibilia propinqua", "sprite": "sp-american_lobster.png", "group": "crab_lobster", "rarity": 1}, {"lat": -31.3166, "lng": -46.5722, "id": "128814", "name": "Farranula rostrata", "sprite": "sp-anchoviella_juruasanga.png", "group": "other", "rarity": 1}, {"lat": -28.0173, "lng": -47.6169, "id": "282972", "name": "White snake mackerel", "thumb": "tn_Thlep_u0.jpg", "sprite": "sp-anchoviella_juruasanga.png", "group": "other", "rarity": 1, "waterType": "Saltwater"}, {"lat": -27.5258, "lng": -47.3796, "id": "158924", "name": "Striped codlet", "thumb": "tn_Brcan_u0.jpg", "sprite": "sp-anchoviella_juruasanga.png", "group": "other", "rarity": 1, "waterType": "Saltwater"}, {"lat": -30.15, "lng": -48.285, "id": "160009", "name": "Prunum", "sprite": "sp-cowrie_shell.png", "group": "sea_snail", "rarity": 1}, {"lat": -29.8673, "lng": -47.8054, "id": "272392", "name": "Softhead grenadier", "thumb": "tn_Neaeq_u1.jpg", "sprite": "sp-anchoviella_juruasanga.png", "group": "other", "rarity": 1, "waterType": "Saltwater"}, {"lat": -30.388, "lng": -49.505, "id": "344190", "name": "Coccodentalium carduus", "sprite": "sp-anchoviella_juruasanga.png", "group": "other", "rarity": 1}, {"lat": -27.1478, "lng": -48.5207, "id": "123245", "name": "Astropecten", "sprite": "sp-sea_cucumber.png", "group": "starfish", "rarity": 1}, {"lat": -31.3328, "lng": -49.7692, "id": "271368", "name": "Polkadot catshark", "thumb": "tn_Scbes_u0.gif", "sprite": "sp-great_white_shark.png", "group": "shark", "rarity": 1, "waterType": "Saltwater"}, {"lat": -29.7556, "lng": -50.0889, "id": "280831", "name": "Pearl cichlid", "thumb": "tn_Gebra_u7.jpg", "sprite": "sp-coptodon_louka.png", "group": "cichlid", "rarity": 1, "waterType": "Brackish"}, {"lat": -27.4216, "lng": -48.4584, "id": "158695", "name": "Atlantic thread herring", "thumb": "tn_Opogl_u5.jpg", "sprite": "sp-anchoviella_juruasanga.png", "group": "other", "rarity": 1, "waterType": "Saltwater"}, {"lat": -27.7192, "lng": -48.5661, "id": "271326", "name": "Brazilian sharpnose shark", "thumb": "tn_Rhlal_u1.jpg", "sprite": "sp-great_white_shark.png", "group": "shark", "rarity": 1, "waterType": "Saltwater"}, {"lat": -28.5573, "lng": -47.9397, "id": "135417", "name": "Chelophyes appendiculata", "sprite": "sp-anchoviella_juruasanga.png", "group": "other", "rarity": 1}, {"lat": -29.712, "lng": -49.104, "id": "125946", "name": "Trachurus", "sprite": "sp-anchoviella_juruasanga.png", "group": "other", "rarity": 1}, {"lat": -30.9047, "lng": -49.6094, "id": "212651", "name": "Procellaria aequinoctialis", "sprite": "sp-anchoviella_juruasanga.png", "group": "other", "rarity": 1}, {"lat": -27.4669, "lng": -48.5097, "id": "2276", "name": "Atrochromadora", "sprite": "sp-anchoviella_juruasanga.png", "group": "other", "rarity": 1}, {"lat": -28.036, "lng": -47.3701, "id": "475101", "name": "Snowy grouper", "thumb": "tn_Hyniv_u0.jpg", "sprite": "sp-chelidoperca_santosi.png", "group": "grouper", "rarity": 1, "waterType": "Saltwater"}, {"lat": -28.75, "lng": -47.8333, "id": "127005", "name": "Atlantic bigeye", "thumb": "tn_Prare_u1.jpg", "sprite": "sp-anchoviella_juruasanga.png", "group": "other", "rarity": 1, "waterType": "Saltwater"}, {"lat": -27.1447, "lng": -48.9742, "id": "252289", "name": "Botrylloides niger", "sprite": "sp-anchoviella_juruasanga.png", "group": "other", "rarity": 1}, {"lat": -28.1371, "lng": -48.3118, "id": "2", "name": "Animalia", "sprite": "sp-anchoviella_juruasanga.png", "group": "other", "rarity": 1}, {"lat": -27.85, "lng": -48.5805, "id": "145091", "name": "Codium taylorii", "sprite": "sp-anchoviella_juruasanga.png", "group": "other", "rarity": 1}, {"lat": -29.1867, "lng": -47.9983, "id": "105729", "name": "Scyliorhinus", "sprite": "sp-great_white_shark.png", "group": "shark", "rarity": 1}, {"lat": -29.868, "lng": -47.8065, "id": "221512", "name": "Elongated bristlemouth fish", "thumb": "tn_Goelo_u3.jpg", "sprite": "sp-anchoviella_juruasanga.png", "group": "other", "rarity": 1, "waterType": "Saltwater"}, {"lat": -30.547, "lng": -49.141, "id": "1416384", "name": "Neoterebra doellojuradoi", "sprite": "sp-cowrie_shell.png", "group": "sea_snail", "rarity": 1}, {"lat": -28.3398, "lng": -47.5203, "id": "281650", "name": "Castaneta", "thumb": "tn_Neber_u0.jpg", "sprite": "sp-anchoviella_juruasanga.png", "group": "other", "rarity": 1, "waterType": "Saltwater"}, {"lat": -28.348, "lng": -46.821, "id": "135190", "name": "Enallopsammia rostrata", "sprite": "sp-actiniidae.png", "group": "coral", "rarity": 1}, {"lat": -27.1459, "lng": -48.5719, "id": "233761", "name": "Fibrocapsa japonica", "sprite": "sp-anchoviella_juruasanga.png", "group": "other", "rarity": 1}, {"lat": -27.5722, "lng": -48.425, "id": "413467", "name": "Tegula", "sprite": "sp-cowrie_shell.png", "group": "sea_snail", "rarity": 1}, {"lat": -30.0, "lng": -50.15, "id": "442765", "name": "Callinectes affinis", "sprite": "sp-american_lobster.png", "group": "crab_lobster", "rarity": 1}, {"lat": -27.2167, "lng": -48.0833, "id": "326637", "name": "Armandia hossfeldi", "sprite": "sp-anchoviella_juruasanga.png", "group": "other", "rarity": 1}, {"lat": -30.9695, "lng": -50.3986, "id": "287124", "name": "Astrangia rathbuni", "sprite": "sp-actiniidae.png", "group": "coral", "rarity": 1}, {"lat": -28.1907, "lng": -48.6985, "id": "113747", "name": "Buliminella elegantissima", "sprite": "sp-anchoviella_juruasanga.png", "group": "other", "rarity": 1}, {"lat": -27.149, "lng": -48.6633, "id": "103604", "name": "Distaplia bermudensis", "sprite": "sp-anchoviella_juruasanga.png", "group": "other", "rarity": 1}, {"lat": -30.2816, "lng": -48.7051, "id": "127426", "name": "Silvery John dory", "thumb": "tn_Zecon_f0.jpg", "sprite": "sp-anchoviella_juruasanga.png", "group": "other", "rarity": 1, "waterType": "Saltwater"}, {"lat": -28.4664, "lng": -48.7653, "id": "421480", "name": "Apohyale wakabarae", "sprite": "sp-american_lobster.png", "group": "crab_lobster", "rarity": 1}, {"lat": -30.3485, "lng": -48.713, "id": "420351", "name": "Kurtziella serga", "sprite": "sp-cowrie_shell.png", "group": "sea_snail", "rarity": 1}, {"lat": -28.0208, "lng": -47.3224, "id": "280308", "name": "Marini's grenadier", "thumb": "tn_Camar_u2.gif", "sprite": "sp-anchoviella_juruasanga.png", "group": "other", "rarity": 1, "waterType": "Saltwater"}, {"lat": -27.7667, "lng": -47.6667, "id": "468322", "name": "Hippomenella amaralae", "sprite": "sp-anchoviella_juruasanga.png", "group": "other", "rarity": 1}, {"lat": -27.3205, "lng": -47.2815, "id": "272284", "name": "Argentine anchovy", "thumb": "tn_Enanc_u1.jpg", "sprite": "sp-anchoviella_juruasanga.png", "group": "anchovy", "rarity": 1, "waterType": "Saltwater"}, {"lat": -27.4216, "lng": -48.4584, "id": "269193", "name": "Genidens", "sprite": "sp-blue_catfish.png", "group": "catfish", "rarity": 1}, {"lat": -30.0811, "lng": -50.0471, "id": "115805", "name": "Clytemnestra scutellata", "sprite": "sp-anchoviella_juruasanga.png", "group": "other", "rarity": 1}, {"lat": -31.3333, "lng": -48.6667, "id": "171202", "name": "Gastrophanella implexa", "sprite": "sp-barrel_sponge.png", "group": "sponge", "rarity": 1}, {"lat": -31.3563, "lng": -49.9281, "id": "135152", "name": "Dasmosmilia lymani", "sprite": "sp-actiniidae.png", "group": "coral", "rarity": 1}, {"lat": -28.0986, "lng": -45.8229, "id": "113452", "name": "Globorotalia scitula", "sprite": "sp-anchoviella_juruasanga.png", "group": "other", "rarity": 1}, {"lat": -27.3244, "lng": -48.4715, "id": "156924", "name": "Ostrea equestris", "sprite": "sp-blue_mussel.png", "group": "clam_mussel", "rarity": 1}, {"lat": -30.547, "lng": -49.141, "id": "420342", "name": "Ithycythara lanceolata", "sprite": "sp-cowrie_shell.png", "group": "sea_snail", "rarity": 1}, {"lat": -27.333, "lng": -48.483, "id": "283200", "name": "Xystreurys rasilis", "thumb": "tn_Xyras_u0.jpg", "sprite": "sp-atlantic_halibut.png", "group": "flatfish", "rarity": 1, "waterType": "Saltwater"}, {"lat": -29.4303, "lng": -48.1359, "id": "274978", "name": "Maurolicus stehmanni", "thumb": "tn_Maste_u1.jpg", "sprite": "sp-anchoviella_juruasanga.png", "group": "other", "rarity": 1, "waterType": "Saltwater"}, {"lat": -30.15, "lng": -48.285, "id": "160472", "name": "Rictaxis", "sprite": "sp-cowrie_shell.png", "group": "sea_snail", "rarity": 1}, {"lat": -31.2815, "lng": -49.701, "id": "131834", "name": "Haliclona", "sprite": "sp-barrel_sponge.png", "group": "sponge", "rarity": 1}, {"lat": -27.8684, "lng": -48.5805, "id": "421131", "name": "Tetraclita stalactifera", "sprite": "sp-anchoviella_juruasanga.png", "group": "other", "rarity": 1}, {"lat": -27.3167, "lng": -48.4833, "id": "275665", "name": "Lappetlip clingfish", "thumb": "tn_Gobar_u0.jpg", "sprite": "sp-anchoviella_juruasanga.png", "group": "other", "rarity": 1, "waterType": "Saltwater"}, {"lat": -27.3748, "lng": -48.3623, "id": "159483", "name": "Atlantic bumper", "thumb": "tn_Chchr_ug.jpg", "sprite": "sp-anchoviella_juruasanga.png", "group": "other", "rarity": 1, "waterType": "Brackish"}, {"lat": -27.5, "lng": -48.0, "id": "273878", "name": "Yellowmouth grouper", "thumb": "tn_Myint_u5.jpg", "sprite": "sp-chelidoperca_santosi.png", "group": "grouper", "rarity": 1, "waterType": "Saltwater"}, {"lat": -27.96, "lng": -47.63, "id": "137165", "name": "Sterna paradisaea", "sprite": "sp-anchoviella_juruasanga.png", "group": "other", "rarity": 1}, {"lat": -27.1396, "lng": -48.4977, "id": "420912", "name": "Ervilia nitens", "sprite": "sp-blue_mussel.png", "group": "clam_mussel", "rarity": 1}, {"lat": -28.445, "lng": -47.9175, "id": "105719", "name": "Carcharhinus", "sprite": "sp-great_white_shark.png", "group": "shark", "rarity": 1}, {"lat": -27.4216, "lng": -48.4584, "id": "159500", "name": "Pygmy filefish", "thumb": "tn_Moset_u0.jpg", "sprite": "sp-anchoviella_juruasanga.png", "group": "other", "rarity": 1, "waterType": "Saltwater"}, {"lat": -27.505, "lng": -48.4108, "id": "387357", "name": "Petromica (Chaladesma) citrina", "sprite": "sp-barrel_sponge.png", "group": "sponge", "rarity": 1}, {"lat": -30.0, "lng": -50.1167, "id": "159649", "name": "Lookdown", "thumb": "tn_Sevom_u3.jpg", "sprite": "sp-anchoviella_juruasanga.png", "group": "other", "rarity": 1, "waterType": "Brackish"}, {"lat": -30.0583, "lng": -47.9025, "id": "135190", "name": "Enallopsammia rostrata", "sprite": "sp-actiniidae.png", "group": "coral", "rarity": 1}, {"lat": -27.8783, "lng": -47.5337, "id": "158933", "name": "Smooth puffer", "thumb": "tn_Lalae_u2.jpg", "sprite": "sp-fahaka_pufferfish.png", "group": "pufferfish", "rarity": 1, "waterType": "Brackish"}, {"lat": -31.0345, "lng": -49.8415, "id": "159439", "name": "Red cornetfish", "thumb": "tn_Fipet_u2.jpg", "sprite": "sp-anchoviella_juruasanga.png", "group": "other", "rarity": 1, "waterType": "Brackish"}, {"lat": -30.458, "lng": -48.4915, "id": "131783", "name": "Bubaris", "sprite": "sp-barrel_sponge.png", "group": "sponge", "rarity": 1}, {"lat": -30.05, "lng": -47.9667, "id": "468331", "name": "Turbicellepora winstonae", "sprite": "sp-anchoviella_juruasanga.png", "group": "other", "rarity": 1}, {"lat": -30.125, "lng": -48.4667, "id": "105464", "name": "Serratosagitta serratodentata", "sprite": "sp-anchoviella_juruasanga.png", "group": "other", "rarity": 1}, {"lat": -28.3949, "lng": -48.7784, "id": "136825", "name": "Centropyxis constricta", "sprite": "sp-anchoviella_juruasanga.png", "group": "other", "rarity": 1}, {"lat": -27.5764, "lng": -48.5621, "id": "870588", "name": "Chionopsis intapurpurea", "sprite": "sp-blue_mussel.png", "group": "clam_mussel", "rarity": 1}, {"lat": -27.2495, "lng": -47.8003, "id": "283200", "name": "Xystreurys rasilis", "thumb": "tn_Xyras_u0.jpg", "sprite": "sp-atlantic_halibut.png", "group": "flatfish", "rarity": 1, "waterType": "Saltwater"}, {"lat": -27.8666, "lng": -48.5918, "id": "420721", "name": "Lunarca ovalis", "sprite": "sp-blue_mussel.png", "group": "clam_mussel", "rarity": 1}, {"lat": -30.1, "lng": -49.313, "id": "709392", "name": "Pleurotomella cala", "sprite": "sp-cowrie_shell.png", "group": "sea_snail", "rarity": 1}, {"lat": -27.1415, "lng": -48.4786, "id": "125122", "name": "Ophiactis savignyi", "sprite": "sp-sea_cucumber.png", "group": "starfish", "rarity": 1}, {"lat": -31.7, "lng": -45.6333, "id": "1296693", "name": "Pseudotanais nordenskioldi", "sprite": "sp-american_lobster.png", "group": "crab_lobster", "rarity": 1}, {"lat": -27.9337, "lng": -47.1593, "id": "158871", "name": "Atlantic barracudina", "thumb": "tn_Leatl_u5.jpg", "sprite": "sp-anchoviella_juruasanga.png", "group": "other", "rarity": 1, "waterType": "Saltwater"}, {"lat": -30.092, "lng": -48.244, "id": "127027", "name": "Yellowfin tuna", "thumb": "tn_Thalb_u0.jpg", "sprite": "sp-bluefin_tuna.png", "group": "tuna_mackerel", "rarity": 1, "waterType": "Brackish"}, {"lat": -29.2792, "lng": -47.9667, "id": "236484", "name": "Pinguipes", "sprite": "sp-anchoviella_juruasanga.png", "group": "other", "rarity": 1}, {"lat": -28.8253, "lng": -47.5867, "id": "105832", "name": "Sharpnose sevengill shark", "thumb": "tn_Heper_u6.jpg", "sprite": "sp-great_white_shark.png", "group": "shark", "rarity": 1, "waterType": "Saltwater"}, {"lat": -28.05, "lng": -47.7533, "id": "282218", "name": "Brazilian flathead", "thumb": "tn_Pebra_u0.jpg", "sprite": "sp-anchoviella_juruasanga.png", "group": "other", "rarity": 1, "waterType": "Saltwater"}, {"lat": -27.562, "lng": -47.431, "id": "273891", "name": "Blackear bass", "thumb": "tn_Seatr_ua.jpg", "sprite": "sp-chelidoperca_santosi.png", "group": "grouper", "rarity": 1, "waterType": "Saltwater"}, {"lat": -27.4833, "lng": -47.1667, "id": "243336", "name": "Ophiacantha cosmica", "sprite": "sp-sea_cucumber.png", "group": "starfish", "rarity": 1}, {"lat": -30.8158, "lng": -49.4908, "id": "377558", "name": "Parapenaeus americanus", "sprite": "sp-american_lobster.png", "group": "crab_lobster", "rarity": 1}, {"lat": -29.1775, "lng": -48.1828, "id": "158757", "name": "Smallscale lizardfish", "thumb": "tn_Sacar_u1.jpg", "sprite": "sp-anchoviella_juruasanga.png", "group": "other", "rarity": 1, "waterType": "Saltwater"}, {"lat": -30.228, "lng": -47.918, "id": "270831", "name": "Schroederichthys", "sprite": "sp-great_white_shark.png", "group": "shark", "rarity": 1}, {"lat": -30.887, "lng": -49.5087, "id": "105766", "name": "Raja", "sprite": "sp-himantura_australis.png", "group": "ray", "rarity": 1}, {"lat": -27.3668, "lng": -47.0227, "id": "272372", "name": "Hymenocephalus billsam", "thumb": "tn_Hybil_u0.jpg", "sprite": "sp-anchoviella_juruasanga.png", "group": "other", "rarity": 1, "waterType": "Saltwater"}, {"lat": -27.8825, "lng": -48.5782, "id": "1337", "name": "Hydrozoa", "sprite": "sp-anchoviella_juruasanga.png", "group": "other", "rarity": 1}, {"lat": -27.2167, "lng": -48.0833, "id": "131077", "name": "Sthenelais limicola", "sprite": "sp-anchoviella_juruasanga.png", "group": "other", "rarity": 1}, {"lat": -31.497, "lng": -50.405, "id": "160063", "name": "Tectonatica pusilla", "sprite": "sp-cowrie_shell.png", "group": "sea_snail", "rarity": 1}, {"lat": -30.3485, "lng": -48.713, "id": "504499", "name": "Glycymeris longior", "sprite": "sp-blue_mussel.png", "group": "clam_mussel", "rarity": 1}, {"lat": -30.0, "lng": -50.0, "id": "394314", "name": "Leptopecten bavayi", "sprite": "sp-blue_mussel.png", "group": "clam_mussel", "rarity": 1}, {"lat": -30.1, "lng": -49.313, "id": "407886", "name": "Cuspidaria platensis", "sprite": "sp-blue_mussel.png", "group": "clam_mussel", "rarity": 1}, {"lat": -28.2867, "lng": -48.9923, "id": "446914", "name": "Littoraria flava", "sprite": "sp-cowrie_shell.png", "group": "sea_snail", "rarity": 1}, {"lat": -29.228, "lng": -48.2668, "id": "286886", "name": "Trochocyathus (Trochocyathus) laboreli", "sprite": "sp-actiniidae.png", "group": "coral", "rarity": 1}, {"lat": -27.5122, "lng": -48.5193, "id": "1548543", "name": "Agathistoma viridulum", "sprite": "sp-cowrie_shell.png", "group": "sea_snail", "rarity": 1}, {"lat": -27.165, "lng": -47.468, "id": "129416", "name": "Tachytrypane", "sprite": "sp-anchoviella_juruasanga.png", "group": "other", "rarity": 1}, {"lat": -28.5744, "lng": -50.075, "id": "267153", "name": "Hypostominae", "sprite": "sp-blue_catfish.png", "group": "catfish", "rarity": 1}, {"lat": -29.696, "lng": -49.045, "id": "217888", "name": "Unicorn crestfish", "thumb": "tn_Eufis_u0.jpg", "sprite": "sp-anchoviella_juruasanga.png", "group": "other", "rarity": 1, "waterType": "Saltwater"}, {"lat": -28.8988, "lng": -48.1283, "id": "127063", "name": "Red porgy", "thumb": "tn_Papag_u2.jpg", "sprite": "sp-anchoviella_juruasanga.png", "group": "other", "rarity": 1, "waterType": "Saltwater"}, {"lat": -27.163, "lng": -48.5407, "id": "276669", "name": "Brazilian damsel", "thumb": "tn_Sttri_u1.jpg", "sprite": "sp-chrysiptera_caesifrons.png", "group": "clownfish", "rarity": 1, "waterType": "Saltwater"}, {"lat": -28.025, "lng": -47.6315, "id": "105923", "name": "Picked dogfish", "thumb": "tn_Sqaca_u6.jpg", "sprite": "sp-great_white_shark.png", "group": "shark", "rarity": 1, "waterType": "Brackish"}, {"lat": -30.4655, "lng": -48.42, "id": "138838", "name": "Atlanta peronii", "sprite": "sp-cowrie_shell.png", "group": "sea_snail", "rarity": 1}, {"lat": -29.5833, "lng": -47.95, "id": "105788", "name": "Spinner shark", "thumb": "tn_Cabre_u1.jpg", "sprite": "sp-great_white_shark.png", "group": "shark", "rarity": 1, "waterType": "Saltwater"}, {"lat": -27.358, "lng": -46.9385, "id": "126354", "name": "Pacific barracudina", "thumb": "tn_Lejay_u1.gif", "sprite": "sp-anchoviella_juruasanga.png", "group": "other", "rarity": 1, "waterType": "Saltwater"}]}