{"zoom": 6, "x": 25, "y": 24, "points": [{"lat": 37.9009, "lng": -35.1789, "id": "104157", "name": "Candacia", "sprite": "sp-anchoviella_juruasanga.png", "group": "other", "rarity": 1}, {"lat": 37.809, "lng": -35.734, "id": "163261", "name": "Lauderia mediterranea", "sprite": "sp-anchoviella_juruasanga.png", "group": "other", "rarity": 1}, {"lat": 39.9675, "lng": -34.6359, "id": "841746", "name": "Tripos pentagonus", "sprite": "sp-anchoviella_juruasanga.png", "group": "other", "rarity": 1}, {"lat": 37.0563, "lng": -35.3663, "id": "346037", "name": "Acartia (Acartiura) longiremis", "sprite": "sp-anchoviella_juruasanga.png", "group": "other", "rarity": 1}, {"lat": 36.65, "lng": -35.47, "id": "104669", "name": "Calocalanus pavo", "sprite": "sp-anchoviella_juruasanga.png", "group": "other", "rarity": 1}, {"lat": 37.6043, "lng": -37.6647, "id": "220914", "name": "Candacia simplex", "sprite": "sp-anchoviella_juruasanga.png", "group": "other", "rarity": 1}, {"lat": 37.9611, "lng": -35.1314, "id": "104640", "name": "Pleuromamma piseki", "sprite": "sp-anchoviella_juruasanga.png", "group": "other", "rarity": 1}, {"lat": 37.6387, "lng": -37.7898, "id": "137111", "name": "Tursiops truncatus", "sprite": "sp-bottlenose_dolphin.png", "group": "dolphin", "rarity": 1}, {"lat": 37.8773, "lng": -35.1657, "id": "10194", "name": "Actinopterygii", "sprite": "sp-anchoviella_juruasanga.png", "group": "other", "rarity": 1}, {"lat": 37.8998, "lng": -35.2224, "id": "1130", "name": "Decapoda", "sprite": "sp-american_lobster.png", "group": "crab_lobster", "rarity": 1}, {"lat": 38.5, "lng": -38.35, "id": "137156", "name": "Rissa tridactyla", "sprite": "sp-anchoviella_juruasanga.png", "group": "other", "rarity": 1}, {"lat": 39.38, "lng": -33.76, "id": "135172", "name": "Stephanocyathus (Odontocyathus) nobilis", "sprite": "sp-actiniidae.png", "group": "coral", "rarity": 1}, {"lat": 39.5998, "lng": -36.7, "id": "615435", "name": "Helicosphaera carteri", "sprite": "sp-anchoviella_juruasanga.png", "group": "other", "rarity": 1}, {"lat": 38.37, "lng": -38.2783, "id": "109566", "name": "Prorocentrum", "sprite": "sp-anchoviella_juruasanga.png", "group": "other", "rarity": 1}, {"lat": 40.55, "lng": -35.4, "id": "158959", "name": "Ghostly grenadier", "thumb": "tn_Colep_u0.gif", "sprite": "sp-anchoviella_juruasanga.png", "group": "other", "rarity": 1, "waterType": "Saltwater"}, {"lat": 37.0492, "lng": -34.4558, "id": "112200", "name": "Globorotalia", "sprite": "sp-anchoviella_juruasanga.png", "group": "other", "rarity": 1}, {"lat": 39.3333, "lng": -33.7833, "id": "103753", "name": "Situla lanosa", "sprite": "sp-anchoviella_juruasanga.png", "group": "other", "rarity": 1}, {"lat": 37.5033, "lng": -38.3367, "id": "104651", "name": "Calocalanus contractus", "sprite": "sp-anchoviella_juruasanga.png", "group": "other", "rarity": 1}, {"lat": 37.24, "lng": -33.8025, "id": "135351", "name": "Abyla", "sprite": "sp-anchoviella_juruasanga.png", "group": "other", "rarity": 1}, {"lat": 39.288, "lng": -34.655, "id": "104120", "name": "Euchirella", "sprite": "sp-anchoviella_juruasanga.png", "group": "other", "rarity": 1}, {"lat": 38.4183, "lng": -35.8317, "id": "125357", "name": "Radicipes gracilis", "sprite": "sp-actiniidae.png", "group": "coral", "rarity": 1}, {"lat": 38.45, "lng": -37.25, "id": "147429", "name": "Scolopacidae", "sprite": "sp-anchoviella_juruasanga.png", "group": "other", "rarity": 1}, {"lat": 37.8075, "lng": -35.6155, "id": "127240", "name": "Offshore rockfish", "thumb": "tn_Pokuh_f0.jpg", "sprite": "sp-parascorpaena_moultoni.png", "group": "scorpionfish", "rarity": 1, "waterType": "Saltwater"}, {"lat": 39.4003, "lng": -35.5649, "id": "148917", "name": "Coscinodiscus", "sprite": "sp-anchoviella_juruasanga.png", "group": "other", "rarity": 1}, {"lat": 39.9455, "lng": -37.8264, "id": "104161", "name": "Clausocalanus", "sprite": "sp-anchoviella_juruasanga.png", "group": "other", "rarity": 1}, {"lat": 37.9433, "lng": -35.0816, "id": "104183", "name": "Lucicutia", "sprite": "sp-anchoviella_juruasanga.png", "group": "other", "rarity": 1}, {"lat": 40.261, "lng": -35.4012, "id": "104468", "name": "Mesocalanus tenuicornis", "sprite": "sp-anchoviella_juruasanga.png", "group": "other", "rarity": 1}, {"lat": 37.1967, "lng": -34.9643, "id": "113440", "name": "Globigerinella siphonifera", "sprite": "sp-anchoviella_juruasanga.png", "group": "other", "rarity": 1}, {"lat": 37.7622, "lng": -35.226, "id": "346026", "name": "Acartia (Acartia) danae", "sprite": "sp-anchoviella_juruasanga.png", "group": "other", "rarity": 1}, {"lat": 37.0673, "lng": -34.5103, "id": "912960", "name": "Globigerinoides obliquus", "sprite": "sp-anchoviella_juruasanga.png", "group": "other", "rarity": 1}, {"lat": 37.1629, "lng": -34.8454, "id": "113460", "name": "Orbulina universa", "sprite": "sp-anchoviella_juruasanga.png", "group": "other", "rarity": 1}, {"lat": 37.77, "lng": -37.3435, "id": "907598", "name": "Bulimina jarvisi", "sprite": "sp-anchoviella_juruasanga.png", "group": "other", "rarity": 1}, {"lat": 40.43, "lng": -36.63, "id": "104878", "name": "Temora longicornis", "sprite": "sp-anchoviella_juruasanga.png", "group": "other", "rarity": 1}, {"lat": 37.8083, "lng": -35.29, "id": "140115", "name": "Histioteuthis meleagroteuthis", "sprite": "sp-giant_pacific_octopus.png", "group": "octopus_squid", "rarity": 1}, {"lat": 37.435, "lng": -38.54, "id": "103367", "name": "Oikopleura", "sprite": "sp-anchoviella_juruasanga.png", "group": "other", "rarity": 1}, {"lat": 39.417, "lng": -36.933, "id": "514112", "name": "Allosergestes pectinatus", "sprite": "sp-american_lobster.png", "group": "crab_lobster", "rarity": 1}, {"lat": 37.8517, "lng": -35.0023, "id": "841202", "name": "Tripos declinatus", "sprite": "sp-anchoviella_juruasanga.png", "group": "other", "rarity": 1}, {"lat": 36.65, "lng": -35.47, "id": "1461626", "name": "Clausocalanus arcuicornis arcuicornis", "sprite": "sp-anchoviella_juruasanga.png", "group": "other", "rarity": 1}, {"lat": 38.053, "lng": -35.0295, "id": "109550", "name": "Podolampas", "sprite": "sp-anchoviella_juruasanga.png", "group": "other", "rarity": 1}, {"lat": 37.483, "lng": -37.6, "id": "1056501", "name": "Gardinerosergia splendens", "sprite": "sp-american_lobster.png", "group": "crab_lobster", "rarity": 1}, {"lat": 39.3333, "lng": -33.7833, "id": "136064", "name": "Onchnesoma magnibathum", "sprite": "sp-anchoviella_juruasanga.png", "group": "other", "rarity": 1}, {"lat": 37.24, "lng": -33.8025, "id": "135406", "name": "Ceratocymba sagittata", "sprite": "sp-anchoviella_juruasanga.png", "group": "other", "rarity": 1}, {"lat": 39.417, "lng": -36.933, "id": "514136", "name": "Parasergestes armatus", "sprite": "sp-american_lobster.png", "group": "crab_lobster", "rarity": 1}, {"lat": 39.5635, "lng": -38.1859, "id": "137108", "name": "Stenella frontalis", "sprite": "sp-bottlenose_dolphin.png", "group": "dolphin", "rarity": 1}, {"lat": 36.65, "lng": -35.47, "id": "605965", "name": "Heliconoides inflatus", "sprite": "sp-cowrie_shell.png", "group": "sea_snail", "rarity": 1}, {"lat": 38.0505, "lng": -35.0472, "id": "163030", "name": "Phaeoceros", "sprite": "sp-anchoviella_juruasanga.png", "group": "other", "rarity": 1}, {"lat": 37.9737, "lng": -35.2712, "id": "104086", "name": "Euchaetidae", "sprite": "sp-anchoviella_juruasanga.png", "group": "other", "rarity": 1}, {"lat": 39.7853, "lng": -38.0509, "id": "883", "name": "Polychaeta", "sprite": "sp-anchoviella_juruasanga.png", "group": "other", "rarity": 1}, {"lat": 39.7676, "lng": -34.7204, "id": "220914", "name": "Candacia simplex", "sprite": "sp-anchoviella_juruasanga.png", "group": "other", "rarity": 1}, {"lat": 37.7897, "lng": -38.1023, "id": "104193", "name": "Calocalanus", "sprite": "sp-anchoviella_juruasanga.png", "group": "other", "rarity": 1}, {"lat": 37.1504, "lng": -35.0308, "id": "125828", "name": "Loweina", "sprite": "sp-anchoviella_juruasanga.png", "group": "other", "rarity": 1}, {"lat": 39.05, "lng": -38.55, "id": "2688", "name": "Cetacea", "sprite": "sp-anchoviella_juruasanga.png", "group": "other", "rarity": 1}, {"lat": 39.3657, "lng": -37.8244, "id": "104303", "name": "Euchirella rostrata", "sprite": "sp-anchoviella_juruasanga.png", "group": "other", "rarity": 1}, {"lat": 37.8402, "lng": -35.1909, "id": "837448", "name": "Tripos carriensis", "sprite": "sp-anchoviella_juruasanga.png", "group": "other", "rarity": 1}, {"lat": 37.0354, "lng": -37.7501, "id": "149168", "name": "Proboscia alata", "sprite": "sp-anchoviella_juruasanga.png", "group": "other", "rarity": 1}, {"lat": 39.267, "lng": -36.7, "id": "1026357", "name": "Dentigloborotalia anfracta", "sprite": "sp-anchoviella_juruasanga.png", "group": "other", "rarity": 1}, {"lat": 37.7936, "lng": -35.3035, "id": "232052", "name": "Larus michahellis", "sprite": "sp-anchoviella_juruasanga.png", "group": "other", "rarity": 1}, {"lat": 38.75, "lng": -38.466, "id": "105907", "name": "Portuguese dogfish", "thumb": "tn_Cecoe_f0.jpg", "sprite": "sp-great_white_shark.png", "group": "shark", "rarity": 1, "waterType": "Saltwater"}, {"lat": 39.9532, "lng": -36.2588, "id": "104496", "name": "Centropages hamatus", "sprite": "sp-anchoviella_juruasanga.png", "group": "other", "rarity": 1}, {"lat": 37.6667, "lng": -38.0, "id": "127304", "name": "Power's deep-water bristle-mouth fish", "thumb": "tn_Vipow_u0.gif", "sprite": "sp-anchoviella_juruasanga.png", "group": "other", "rarity": 1, "waterType": "Saltwater"}, {"lat": 39.725, "lng": -35.515, "id": "137697", "name": "Brachioteuthis", "sprite": "sp-giant_pacific_octopus.png", "group": "octopus_squid", "rarity": 1}, {"lat": 40.8333, "lng": -34.1833, "id": "126600", "name": "Electric lantern fish", "thumb": "tn_Elris_u3.jpg", "sprite": "sp-anchoviella_juruasanga.png", "group": "other", "rarity": 1, "waterType": "Saltwater"}, {"lat": 39.9617, "lng": -35.8467, "id": "139429", "name": "Teuthowenia megalops", "sprite": "sp-giant_pacific_octopus.png", "group": "octopus_squid", "rarity": 1}, {"lat": 38.0017, "lng": -37.9956, "id": "104543", "name": "Rhincalanus nasutus", "sprite": "sp-anchoviella_juruasanga.png", "group": "other", "rarity": 1}, {"lat": 37.8075, "lng": -35.6155, "id": "126831", "name": "Rudderfish", "thumb": "tn_Cenig_uc.jpg", "sprite": "sp-anchoviella_juruasanga.png", "group": "other", "rarity": 1, "waterType": "Saltwater"}, {"lat": 37.24, "lng": -33.8025, "id": "196593", "name": "Gilia reticulata", "sprite": "sp-anchoviella_juruasanga.png", "group": "other", "rarity": 1}, {"lat": 39.6233, "lng": -38.8017, "id": "11707", "name": "Cephalopoda", "sprite": "sp-giant_pacific_octopus.png", "group": "octopus_squid", "rarity": 1}, {"lat": 37.8383, "lng": -37.8533, "id": "104554", "name": "Euchaeta pubera", "sprite": "sp-anchoviella_juruasanga.png", "group": "other", "rarity": 1}, {"lat": 40.8333, "lng": -34.1833, "id": "126612", "name": "Jewel lanternfish", "thumb": "tn_Lacro_u0.jpg", "sprite": "sp-anchoviella_juruasanga.png", "group": "other", "rarity": 1, "waterType": "Saltwater"}, {"lat": 37.8508, "lng": -35.3791, "id": "370366", "name": "Chaetoceros (Hyalochaete)", "sprite": "sp-anchoviella_juruasanga.png", "group": "other", "rarity": 1}, {"lat": 40.1767, "lng": -34.65, "id": "14355", "name": "Stomatopoda", "sprite": "sp-american_lobster.png", "group": "crab_lobster", "rarity": 1}, {"lat": 37.3621, "lng": -37.8624, "id": "1100", "name": "Calanoida", "sprite": "sp-anchoviella_juruasanga.png", "group": "other", "rarity": 1}, {"lat": 39.7612, "lng": -36.3685, "id": "136998", "name": "Procellariidae", "sprite": "sp-anchoviella_juruasanga.png", "group": "other", "rarity": 1}, {"lat": 39.6447, "lng": -34.8331, "id": "149093", "name": "Thalassionema nitzschioides", "sprite": "sp-anchoviella_juruasanga.png", "group": "other", "rarity": 1}, {"lat": 37.1868, "lng": -34.9574, "id": "1308947", "name": "Neogloboquadrina atlantica", "sprite": "sp-anchoviella_juruasanga.png", "group": "other", "rarity": 1}, {"lat": 37.77, "lng": -37.3435, "id": "113091", "name": "Globocassidulina subglobosa", "sprite": "sp-anchoviella_juruasanga.png", "group": "other", "rarity": 1}, {"lat": 37.2013, "lng": -37.7074, "id": "163348", "name": "Rhizosolenia semispina", "sprite": "sp-anchoviella_juruasanga.png", "group": "other", "rarity": 1}, {"lat": 37.435, "lng": -38.54, "id": "1337", "name": "Hydrozoa", "sprite": "sp-anchoviella_juruasanga.png", "group": "other", "rarity": 1}, {"lat": 37.7512, "lng": -35.3857, "id": "104500", "name": "Centropages violaceus", "sprite": "sp-anchoviella_juruasanga.png", "group": "other", "rarity": 1}, {"lat": 40.2254, "lng": -34.5451, "id": "104275", "name": "Aetideus armatus", "sprite": "sp-anchoviella_juruasanga.png", "group": "other", "rarity": 1}, {"lat": 37.8075, "lng": -35.6155, "id": "151174", "name": "Atlantic chub mackerel", "thumb": "tn_Sccol_f0.jpg", "sprite": "sp-bluefin_tuna.png", "group": "tuna_mackerel", "rarity": 1, "waterType": "Brackish"}, {"lat": 37.3263, "lng": -35.4139, "id": "1026393", "name": "Globorotalia multicamerata", "sprite": "sp-anchoviella_juruasanga.png", "group": "other", "rarity": 1}, {"lat": 37.4145, "lng": -35.9675, "id": "127028", "name": "Bigeye tuna", "thumb": "tn_Thobe_u1.jpg", "sprite": "sp-bluefin_tuna.png", "group": "tuna_mackerel", "rarity": 1, "waterType": "Saltwater"}, {"lat": 37.928, "lng": -35.815, "id": "104476", "name": "Candacia curta", "sprite": "sp-anchoviella_juruasanga.png", "group": "other", "rarity": 1}, {"lat": 36.918, "lng": -38.923, "id": "1488083", "name": "Rhincalanus cornutus cornutus", "sprite": "sp-anchoviella_juruasanga.png", "group": "other", "rarity": 1}, {"lat": 39.6618, "lng": -38.6822, "id": "850801", "name": "Metridia lucens lucens", "sprite": "sp-anchoviella_juruasanga.png", "group": "other", "rarity": 1}, {"lat": 40.0601, "lng": -37.8574, "id": "104157", "name": "Candacia", "sprite": "sp-anchoviella_juruasanga.png", "group": "other", "rarity": 1}, {"lat": 38.4185, "lng": -34.7344, "id": "106269", "name": "Podon", "sprite": "sp-anchoviella_juruasanga.png", "group": "other", "rarity": 1}, {"lat": 37.77, "lng": -37.3435, "id": "1550422", "name": "Elongobula grata", "sprite": "sp-anchoviella_juruasanga.png", "group": "other", "rarity": 1}, {"lat": 40.0314, "lng": -37.8846, "id": "148912", "name": "Thalassiosira", "sprite": "sp-anchoviella_juruasanga.png", "group": "other", "rarity": 1}, {"lat": 39.2836, "lng": -36.7, "id": "113441", "name": "Globigerinoides conglobatus", "sprite": "sp-anchoviella_juruasanga.png", "group": "other", "rarity": 1}, {"lat": 37.7, "lng": -37.9522, "id": "149093", "name": "Thalassionema nitzschioides", "sprite": "sp-anchoviella_juruasanga.png", "group": "other", "rarity": 1}, {"lat": 38.467, "lng": -34.7, "id": "104472", "name": "Neocalanus robustior", "sprite": "sp-anchoviella_juruasanga.png", "group": "other", "rarity": 1}, {"lat": 37.61, "lng": -34.915, "id": "137111", "name": "Tursiops truncatus", "sprite": "sp-bottlenose_dolphin.png", "group": "dolphin", "rarity": 1}, {"lat": 37.6317, "lng": -37.927, "id": "346030", "name": "Acartia (Acartia) negligens", "sprite": "sp-anchoviella_juruasanga.png", "group": "other", "rarity": 1}, {"lat": 37.1222, "lng": -34.6759, "id": "1026243", "name": "Beella praedigitata", "sprite": "sp-anchoviella_juruasanga.png", "group": "other", "rarity": 1}, {"lat": 37.1436, "lng": -34.7707, "id": "735211", "name": "Neogloboquadrina acostaensis", "sprite": "sp-anchoviella_juruasanga.png", "group": "other", "rarity": 1}, {"lat": 39.0833, "lng": -33.8333, "id": "127543", "name": "Halocypris", "sprite": "sp-anchoviella_juruasanga.png", "group": "other", "rarity": 1}, {"lat": 39.4, "lng": -37.1, "id": "127328", "name": "Astronesthes niger", "thumb": "tn_Asnig_u1.gif", "sprite": "sp-anchoviella_juruasanga.png", "group": "other", "rarity": 1, "waterType": "Saltwater"}, {"lat": 40.597, "lng": -38.18, "id": "104120", "name": "Euchirella", "sprite": "sp-anchoviella_juruasanga.png", "group": "other", "rarity": 1}, {"lat": 37.24, "lng": -33.8025, "id": "135423", "name": "Eudoxoides mitra", "sprite": "sp-anchoviella_juruasanga.png", "group": "other", "rarity": 1}, {"lat": 37.2133, "lng": -35.025, "id": "125799", "name": "Himantolophus", "sprite": "sp-deep_sea_anglerfish.png", "group": "anglerfish", "rarity": 1}, {"lat": 37.77, "lng": -37.3435, "id": "113930", "name": "Eggerella bradyi", "sprite": "sp-anchoviella_juruasanga.png", "group": "other", "rarity": 1}, {"lat": 36.65, "lng": -35.47, "id": "237968", "name": "Pareucalanus attenuatus", "sprite": "sp-anchoviella_juruasanga.png", "group": "other", "rarity": 1}, {"lat": 37.8075, "lng": -35.6155, "id": "105883", "name": "Thornback ray", "thumb": "tn_Racla_u4.jpg", "sprite": "sp-himantura_australis.png", "group": "ray", "rarity": 1, "waterType": "Saltwater"}, {"lat": 39.4539, "lng": -34.8438, "id": "149150", "name": "Nitzschia longissima", "sprite": "sp-anchoviella_juruasanga.png", "group": "other", "rarity": 1}, {"lat": 37.3263, "lng": -36.4288, "id": "148794", "name": "Hydrobatidae", "sprite": "sp-anchoviella_juruasanga.png", "group": "other", "rarity": 1}, {"lat": 37.483, "lng": -37.6, "id": "342190", "name": "Heteroteuthis serventyi", "sprite": "sp-giant_pacific_octopus.png", "group": "octopus_squid", "rarity": 1}, {"lat": 37.852, "lng": -35.3146, "id": "128639", "name": "Urocorycaeus", "sprite": "sp-anchoviella_juruasanga.png", "group": "other", "rarity": 1}, {"lat": 37.9199, "lng": -35.3602, "id": "837221", "name": "Tripos falcatiformis", "sprite": "sp-anchoviella_juruasanga.png", "group": "other", "rarity": 1}, {"lat": 37.2148, "lng": -37.9628, "id": "149629", "name": "Rhizosolenia styliformis", "sprite": "sp-anchoviella_juruasanga.png", "group": "other", "rarity": 1}, {"lat": 37.9396, "lng": -35.2572, "id": "104466", "name": "Calanus helgolandicus", "sprite": "sp-anchoviella_juruasanga.png", "group": "other", "rarity": 1}, {"lat": 36.65, "lng": -35.47, "id": "104431", "name": "Haloptilus longicornis", "sprite": "sp-anchoviella_juruasanga.png", "group": "other", "rarity": 1}, {"lat": 40.007, "lng": -38.478, "id": "148955", "name": "Asterionella glacialis", "sprite": "sp-anchoviella_juruasanga.png", "group": "other", "rarity": 1}, {"lat": 38.0936, "lng": -34.7286, "id": "149118", "name": "Bacteriastrum", "sprite": "sp-anchoviella_juruasanga.png", "group": "other", "rarity": 1}, {"lat": 37.2535, "lng": -35.3536, "id": "137047", "name": "Sterna", "sprite": "sp-anchoviella_juruasanga.png", "group": "other", "rarity": 1}, {"lat": 37.58, "lng": -35.1525, "id": "138849", "name": "Japetella diaphana", "sprite": "sp-giant_pacific_octopus.png", "group": "octopus_squid", "rarity": 1}, {"lat": 39.29, "lng": -34.6485, "id": "104510", "name": "Ctenocalanus vanus", "sprite": "sp-anchoviella_juruasanga.png", "group": "other", "rarity": 1}, {"lat": 37.1206, "lng": -35.0339, "id": "127316", "name": "Constellationfish", "thumb": "tn_Vatri_u0.jpg", "sprite": "sp-anchoviella_juruasanga.png", "group": "other", "rarity": 1, "waterType": "Saltwater"}, {"lat": 37.6667, "lng": -38.0, "id": "126601", "name": "Cocco’s lanternfish", "thumb": "tn_Gococ_u0.jpg", "sprite": "sp-anchoviella_juruasanga.png", "group": "other", "rarity": 1, "waterType": "Saltwater"}]}