{"zoom": 6, "x": 25, "y": 45, "points": [{"lat": -59.0125, "lng": -34.1833, "id": "341479", "name": "Chaetoceros neglectus", "sprite": "sp-anchoviella_juruasanga.png", "group": "other", "rarity": 1}, {"lat": -59.2813, "lng": -37.6453, "id": "231404", "name": "Arctocephalus gazella", "sprite": "sp-elephant_seal.png", "group": "seal", "rarity": 1}, {"lat": -60.8333, "lng": -39.0833, "id": "206822", "name": "Macronectes", "sprite": "sp-anchoviella_juruasanga.png", "group": "other", "rarity": 1}, {"lat": -59.0417, "lng": -35.6522, "id": "417610", "name": "Paratrochammina challengeri", "sprite": "sp-anchoviella_juruasanga.png", "group": "other", "rarity": 1}, {"lat": -60.02, "lng": -36.02, "id": "103357", "name": "Appendicularia", "sprite": "sp-anchoviella_juruasanga.png", "group": "other", "rarity": 1}, {"lat": -59.2964, "lng": -36.8937, "id": "1100", "name": "Calanoida", "sprite": "sp-anchoviella_juruasanga.png", "group": "other", "rarity": 1}, {"lat": -59.485, "lng": -35.07, "id": "1410", "name": "Foraminifera", "sprite": "sp-anchoviella_juruasanga.png", "group": "other", "rarity": 1}, {"lat": -58.999, "lng": -35.8397, "id": "114003", "name": "Reophax fusiformis", "sprite": "sp-anchoviella_juruasanga.png", "group": "other", "rarity": 1}, {"lat": -58.84, "lng": -37.465, "id": "11676", "name": "Pisces", "sprite": "sp-anchoviella_juruasanga.png", "group": "other", "rarity": 1}, {"lat": -59.525, "lng": -37.7792, "id": "204680", "name": "Pachyptila", "sprite": "sp-anchoviella_juruasanga.png", "group": "other", "rarity": 1}, {"lat": -58.9713, "lng": -34.6625, "id": "129150", "name": "Vanadis", "sprite": "sp-anchoviella_juruasanga.png", "group": "other", "rarity": 1}, {"lat": -59.075, "lng": -36.892, "id": "125285", "name": "Anthomastus", "sprite": "sp-actiniidae.png", "group": "coral", "rarity": 1}, {"lat": -59.5, "lng": -39.0, "id": "341678", "name": "Cymatocylis drygalskii", "sprite": "sp-anchoviella_juruasanga.png", "group": "other", "rarity": 1}, {"lat": -59.0125, "lng": -34.1833, "id": "573621", "name": "Terebraria kerguelensis", "sprite": "sp-anchoviella_juruasanga.png", "group": "other", "rarity": 1}, {"lat": -59.0915, "lng": -36.7544, "id": "175039", "name": "Phascolion (Montuga) lutense", "sprite": "sp-anchoviella_juruasanga.png", "group": "other", "rarity": 1}, {"lat": -60.136, "lng": -34.9265, "id": "101528", "name": "Rhachotropis", "sprite": "sp-american_lobster.png", "group": "crab_lobster", "rarity": 1}, {"lat": -59.7031, "lng": -35.5022, "id": "2081", "name": "Chaetognatha", "sprite": "sp-anchoviella_juruasanga.png", "group": "other", "rarity": 1}, {"lat": -58.8375, "lng": -38.8833, "id": "183533", "name": "Tintinnidae", "sprite": "sp-anchoviella_juruasanga.png", "group": "other", "rarity": 1}, {"lat": -60.1411, "lng": -34.9201, "id": "125293", "name": "Acanthogorgia", "sprite": "sp-actiniidae.png", "group": "coral", "rarity": 1}, {"lat": -61.0042, "lng": -34.7375, "id": "325297", "name": "Galiteuthis glacialis", "sprite": "sp-giant_pacific_octopus.png", "group": "octopus_squid", "rarity": 1}, {"lat": -59.1625, "lng": -34.5082, "id": "212645", "name": "Halobaena caerulea", "sprite": "sp-anchoviella_juruasanga.png", "group": "other", "rarity": 1}, {"lat": -59.6239, "lng": -35.3728, "id": "1078", "name": "Ostracoda", "sprite": "sp-anchoviella_juruasanga.png", "group": "other", "rarity": 1}, {"lat": -59.9061, "lng": -36.639, "id": "138122", "name": "Limacina", "sprite": "sp-cowrie_shell.png", "group": "sea_snail", "rarity": 1}, {"lat": -59.7031, "lng": -35.5022, "id": "1371", "name": "Siphonophorae", "sprite": "sp-anchoviella_juruasanga.png", "group": "other", "rarity": 1}, {"lat": -60.133, "lng": -37.267, "id": "225754", "name": "Chionis albus", "sprite": "sp-anchoviella_juruasanga.png", "group": "other", "rarity": 1}, {"lat": -61.2021, "lng": -36.5077, "id": "342434", "name": "Calanoides acutus", "sprite": "sp-anchoviella_juruasanga.png", "group": "other", "rarity": 1}, {"lat": -60.1169, "lng": -34.8914, "id": "267370", "name": "Dasystenella", "sprite": "sp-actiniidae.png", "group": "coral", "rarity": 1}, {"lat": -58.999, "lng": -35.8397, "id": "114022", "name": "Subreophax aduncus", "sprite": "sp-anchoviella_juruasanga.png", "group": "other", "rarity": 1}, {"lat": -58.85, "lng": -36.9, "id": "844772", "name": "Amallocystis fagei", "sprite": "sp-anchoviella_juruasanga.png", "group": "other", "rarity": 1}, {"lat": -59.167, "lng": -37.142, "id": "104152", "name": "Calanus", "sprite": "sp-anchoviella_juruasanga.png", "group": "other", "rarity": 1}, {"lat": -59.0289, "lng": -35.7085, "id": "851633", "name": "Ammoglobigerina bellingshauseni", "sprite": "sp-anchoviella_juruasanga.png", "group": "other", "rarity": 1}, {"lat": -61.2021, "lng": -36.5077, "id": "104164", "name": "Microcalanus", "sprite": "sp-anchoviella_juruasanga.png", "group": "other", "rarity": 1}, {"lat": -59.9061, "lng": -36.639, "id": "342435", "name": "Calanus propinquus", "sprite": "sp-anchoviella_juruasanga.png", "group": "other", "rarity": 1}, {"lat": -59.358, "lng": -36.5, "id": "104191", "name": "Pleuromamma", "sprite": "sp-anchoviella_juruasanga.png", "group": "other", "rarity": 1}, {"lat": -60.33, "lng": -38.57, "id": "1128", "name": "Euphausiacea", "sprite": "sp-antarctic_krill.png", "group": "shrimp", "rarity": 1}, {"lat": -59.0409, "lng": -35.656, "id": "398901", "name": "Ammomarginulina ensis", "sprite": "sp-anchoviella_juruasanga.png", "group": "other", "rarity": 1}, {"lat": -59.0332, "lng": -35.6897, "id": "112394", "name": "Textularia", "sprite": "sp-anchoviella_juruasanga.png", "group": "other", "rarity": 1}, {"lat": -58.9713, "lng": -34.6625, "id": "104117", "name": "Chiridius", "sprite": "sp-anchoviella_juruasanga.png", "group": "other", "rarity": 1}, {"lat": -59.075, "lng": -36.892, "id": "1544107", "name": "Mopseidae", "sprite": "sp-actiniidae.png", "group": "coral", "rarity": 1}, {"lat": -60.8333, "lng": -34.739, "id": "11716", "name": "Teuthida", "sprite": "sp-giant_pacific_octopus.png", "group": "octopus_squid", "rarity": 1}, {"lat": -58.999, "lng": -35.8397, "id": "991800", "name": "Triloculina tricarinata", "sprite": "sp-anchoviella_juruasanga.png", "group": "other", "rarity": 1}, {"lat": -59.0438, "lng": -35.6428, "id": "113567", "name": "Melonis zaandami", "sprite": "sp-anchoviella_juruasanga.png", "group": "other", "rarity": 1}, {"lat": -60.7167, "lng": -38.4667, "id": "225772", "name": "Pagodroma nivea", "sprite": "sp-anchoviella_juruasanga.png", "group": "other", "rarity": 1}, {"lat": -59.0189, "lng": -35.7522, "id": "113112", "name": "Pullenia quinqueloba", "sprite": "sp-anchoviella_juruasanga.png", "group": "other", "rarity": 1}, {"lat": -59.0917, "lng": -36.4167, "id": "341480", "name": "Coscinodiscus bouvet", "sprite": "sp-anchoviella_juruasanga.png", "group": "other", "rarity": 1}, {"lat": -60.76, "lng": -38.4933, "id": "212640", "name": "Daption capense", "sprite": "sp-anchoviella_juruasanga.png", "group": "other", "rarity": 1}, {"lat": -58.9713, "lng": -34.6625, "id": "104229", "name": "Scolecithricella", "sprite": "sp-anchoviella_juruasanga.png", "group": "other", "rarity": 1}, {"lat": -61.2021, "lng": -36.5077, "id": "14260", "name": "Rotifera", "sprite": "sp-anchoviella_juruasanga.png", "group": "other", "rarity": 1}, {"lat": -59.1333, "lng": -36.95, "id": "155221", "name": "Austrolaenilla antarctica", "sprite": "sp-anchoviella_juruasanga.png", "group": "other", "rarity": 1}, {"lat": -58.85, "lng": -37.35, "id": "101800", "name": "Themisto", "sprite": "sp-american_lobster.png", "group": "crab_lobster", "rarity": 1}, {"lat": -59.133, "lng": -36.692, "id": "175027", "name": "Golfingia (Golfingia) margaritacea", "sprite": "sp-anchoviella_juruasanga.png", "group": "other", "rarity": 1}, {"lat": -59.358, "lng": -36.5, "id": "104137", "name": "Augaptilus", "sprite": "sp-anchoviella_juruasanga.png", "group": "other", "rarity": 1}, {"lat": -61.2021, "lng": -36.5077, "id": "110679", "name": "Thysanoessa", "sprite": "sp-antarctic_krill.png", "group": "shrimp", "rarity": 1}, {"lat": -58.9443, "lng": -37.1307, "id": "137233", "name": "Salpa", "sprite": "sp-anchoviella_juruasanga.png", "group": "other", "rarity": 1}, {"lat": -60.02, "lng": -36.02, "id": "22626", "name": "Thaliacea", "sprite": "sp-anchoviella_juruasanga.png", "group": "other", "rarity": 1}, {"lat": -58.999, "lng": -35.8397, "id": "112890", "name": "Cibicidoides wuellerstorfi", "sprite": "sp-anchoviella_juruasanga.png", "group": "other", "rarity": 1}, {"lat": -60.283, "lng": -36.308, "id": "132123", "name": "Bathydorus", "sprite": "sp-barrel_sponge.png", "group": "sponge", "rarity": 1}, {"lat": -59.0588, "lng": -35.5772, "id": "112042", "name": "Sigmoilina", "sprite": "sp-anchoviella_juruasanga.png", "group": "other", "rarity": 1}, {"lat": -60.0831, "lng": -35.4669, "id": "1337", "name": "Hydrozoa", "sprite": "sp-anchoviella_juruasanga.png", "group": "other", "rarity": 1}, {"lat": -59.133, "lng": -36.692, "id": "135653", "name": "Ratania", "sprite": "sp-anchoviella_juruasanga.png", "group": "other", "rarity": 1}, {"lat": -58.85, "lng": -37.35, "id": "104137", "name": "Augaptilus", "sprite": "sp-anchoviella_juruasanga.png", "group": "other", "rarity": 1}, {"lat": -61.45, "lng": -34.85, "id": "234749", "name": "Gymnoscopelus opisthopterus", "thumb": "tn_Gyopi_u0.jpg", "sprite": "sp-anchoviella_juruasanga.png", "group": "other", "rarity": 1, "waterType": "Saltwater"}, {"lat": -59.358, "lng": -36.5, "id": "254600", "name": "Aetideopsis minor", "sprite": "sp-anchoviella_juruasanga.png", "group": "other", "rarity": 1}, {"lat": -58.8375, "lng": -38.8833, "id": "341540", "name": "Thalassiothrix antarctica", "sprite": "sp-anchoviella_juruasanga.png", "group": "other", "rarity": 1}, {"lat": -60.0666, "lng": -35.9833, "id": "173198", "name": "Colossendeis megalonyx", "sprite": "sp-anchoviella_juruasanga.png", "group": "other", "rarity": 1}, {"lat": -59.0, "lng": -36.817, "id": "325301", "name": "Alluroteuthis", "sprite": "sp-giant_pacific_octopus.png", "group": "octopus_squid", "rarity": 1}, {"lat": -60.7, "lng": -34.935, "id": "1135", "name": "Amphipoda", "sprite": "sp-american_lobster.png", "group": "crab_lobster", "rarity": 1}, {"lat": -59.0374, "lng": -35.671, "id": "113827", "name": "Ammolagena clavata", "sprite": "sp-anchoviella_juruasanga.png", "group": "other", "rarity": 1}, {"lat": -59.5709, "lng": -37.7673, "id": "236217", "name": "Euphausia superba", "sprite": "sp-antarctic_krill.png", "group": "shrimp", "rarity": 1}, {"lat": -59.0588, "lng": -35.5772, "id": "113979", "name": "Hormosina globulifera", "sprite": "sp-anchoviella_juruasanga.png", "group": "other", "rarity": 1}, {"lat": -59.021, "lng": -35.6931, "id": "236218", "name": "Euphausia frigida", "sprite": "sp-antarctic_krill.png", "group": "shrimp", "rarity": 1}, {"lat": -60.55, "lng": -35.6167, "id": "123084", "name": "Ophiuroidea", "sprite": "sp-sea_cucumber.png", "group": "starfish", "rarity": 1}, {"lat": -58.999, "lng": -35.8397, "id": "114063", "name": "Miliammina arenacea", "sprite": "sp-anchoviella_juruasanga.png", "group": "other", "rarity": 1}, {"lat": -58.85, "lng": -37.35, "id": "104229", "name": "Scolecithricella", "sprite": "sp-anchoviella_juruasanga.png", "group": "other", "rarity": 1}, {"lat": -59.02, "lng": -34.0, "id": "397234", "name": "Portatrochammina antarctica subsp. antarctica", "sprite": "sp-anchoviella_juruasanga.png", "group": "other", "rarity": 1}, {"lat": -58.999, "lng": -35.8397, "id": "526554", "name": "Protoglobobulimina pupoides", "sprite": "sp-anchoviella_juruasanga.png", "group": "other", "rarity": 1}, {"lat": -61.575, "lng": -34.658, "id": "205", "name": "Nuculanidae", "sprite": "sp-blue_mussel.png", "group": "clam_mussel", "rarity": 1}, {"lat": -59.358, "lng": -36.5, "id": "104120", "name": "Euchirella", "sprite": "sp-anchoviella_juruasanga.png", "group": "other", "rarity": 1}, {"lat": -59.1331, "lng": -36.95, "id": "173303", "name": "Bradabyssa papillata", "sprite": "sp-anchoviella_juruasanga.png", "group": "other", "rarity": 1}, {"lat": -60.1, "lng": -36.025, "id": "1653867", "name": "Thymops nilenta", "sprite": "sp-american_lobster.png", "group": "crab_lobster", "rarity": 1}, {"lat": -60.8, "lng": -38.5792, "id": "137190", "name": "Oceanites oceanicus", "sprite": "sp-anchoviella_juruasanga.png", "group": "other", "rarity": 1}, {"lat": -59.95, "lng": -34.617, "id": "1544107", "name": "Mopseidae", "sprite": "sp-actiniidae.png", "group": "coral", "rarity": 1}, {"lat": -58.85, "lng": -37.35, "id": "345828", "name": "Lucicutia bradyana", "sprite": "sp-anchoviella_juruasanga.png", "group": "other", "rarity": 1}, {"lat": -60.6357, "lng": -36.9099, "id": "212583", "name": "Diomedea exulans", "sprite": "sp-anchoviella_juruasanga.png", "group": "other", "rarity": 1}, {"lat": -59.0289, "lng": -35.7085, "id": "113115", "name": "Pullenia subcarinata", "sprite": "sp-anchoviella_juruasanga.png", "group": "other", "rarity": 1}, {"lat": -59.4445, "lng": -34.4167, "id": "206822", "name": "Macronectes", "sprite": "sp-anchoviella_juruasanga.png", "group": "other", "rarity": 1}, {"lat": -61.575, "lng": -34.658, "id": "409514", "name": "Metafannyella lepidota", "sprite": "sp-actiniidae.png", "group": "coral", "rarity": 1}, {"lat": -59.809, "lng": -37.654, "id": "137165", "name": "Sterna paradisaea", "sprite": "sp-anchoviella_juruasanga.png", "group": "other", "rarity": 1}, {"lat": -60.02, "lng": -36.02, "id": "799", "name": "Nematoda", "sprite": "sp-anchoviella_juruasanga.png", "group": "other", "rarity": 1}, {"lat": -60.8223, "lng": -34.5443, "id": "101408", "name": "Stegocephalidae", "sprite": "sp-american_lobster.png", "group": "crab_lobster", "rarity": 1}, {"lat": -61.0917, "lng": -34.8, "id": "234655", "name": "Benthalbella elongata", "sprite": "sp-anchoviella_juruasanga.png", "group": "other", "rarity": 1, "waterType": "Saltwater"}, {"lat": -59.1765, "lng": -37.1373, "id": "883", "name": "Polychaeta", "sprite": "sp-anchoviella_juruasanga.png", "group": "other", "rarity": 1}, {"lat": -60.135, "lng": -34.95, "id": "226680", "name": "Antarctomysis maxima", "sprite": "sp-american_lobster.png", "group": "crab_lobster", "rarity": 1}, {"lat": -60.8223, "lng": -34.5443, "id": "1207", "name": "Gammaridea", "sprite": "sp-american_lobster.png", "group": "crab_lobster", "rarity": 1}, {"lat": -60.6957, "lng": -34.8261, "id": "212651", "name": "Procellaria aequinoctialis", "sprite": "sp-anchoviella_juruasanga.png", "group": "other", "rarity": 1}, {"lat": -59.104, "lng": -36.921, "id": "123897", "name": "Lonchotaster tartareus", "sprite": "sp-sea_cucumber.png", "group": "starfish", "rarity": 1}, {"lat": -58.9915, "lng": -37.021, "id": "101408", "name": "Stegocephalidae", "sprite": "sp-american_lobster.png", "group": "crab_lobster", "rarity": 1}, {"lat": -60.55, "lng": -37.0, "id": "132046", "name": "Polymastia", "sprite": "sp-barrel_sponge.png", "group": "sponge", "rarity": 1}, {"lat": -61.1, "lng": -34.4, "id": "212640", "name": "Daption capense", "sprite": "sp-anchoviella_juruasanga.png", "group": "other", "rarity": 1}, {"lat": -60.55, "lng": -35.6167, "id": "1133", "name": "Tanaidacea", "sprite": "sp-american_lobster.png", "group": "crab_lobster", "rarity": 1}, {"lat": -58.9, "lng": -37.225, "id": "101812", "name": "Vibilia", "sprite": "sp-american_lobster.png", "group": "crab_lobster", "rarity": 1}, {"lat": -60.0667, "lng": -35.9833, "id": "125471", "name": "Macrouridae", "sprite": "sp-anchoviella_juruasanga.png", "group": "other", "rarity": 1}, {"lat": -60.5085, "lng": -34.3915, "id": "101380", "name": "Eusiridae", "sprite": "sp-american_lobster.png", "group": "crab_lobster", "rarity": 1}, {"lat": -59.0588, "lng": -35.5772, "id": "112222", "name": "Marginulinopsis", "sprite": "sp-anchoviella_juruasanga.png", "group": "other", "rarity": 1}, {"lat": -60.33, "lng": -38.57, "id": "1135", "name": "Amphipoda", "sprite": "sp-american_lobster.png", "group": "crab_lobster", "rarity": 1}, {"lat": -60.8333, "lng": -39.0833, "id": "212696", "name": "Fregetta tropica", "sprite": "sp-anchoviella_juruasanga.png", "group": "other", "rarity": 1}, {"lat": -59.133, "lng": -36.692, "id": "254600", "name": "Aetideopsis minor", "sprite": "sp-anchoviella_juruasanga.png", "group": "other", "rarity": 1}, {"lat": -59.95, "lng": -34.683, "id": "131917", "name": "Echinostylinos", "sprite": "sp-barrel_sponge.png", "group": "sponge", "rarity": 1}, {"lat": -59.25, "lng": -38.5, "id": "341296", "name": "Cymatocylis", "sprite": "sp-anchoviella_juruasanga.png", "group": "other", "rarity": 1}, {"lat": -59.5513, "lng": -35.8016, "id": "137217", "name": "Salpidae", "sprite": "sp-anchoviella_juruasanga.png", "group": "other", "rarity": 1}, {"lat": -58.85, "lng": -37.35, "id": "850801", "name": "Metridia lucens lucens", "sprite": "sp-anchoviella_juruasanga.png", "group": "other", "rarity": 1}, {"lat": -59.133, "lng": -36.692, "id": "104201", "name": "Onchocalanus", "sprite": "sp-anchoviella_juruasanga.png", "group": "other", "rarity": 1}, {"lat": -59.133, "lng": -36.95, "id": "123515", "name": "Peniagone", "sprite": "sp-sea_cucumber.png", "group": "starfish", "rarity": 1}, {"lat": -58.85, "lng": -37.35, "id": "104236", "name": "Spinocalanus", "sprite": "sp-anchoviella_juruasanga.png", "group": "other", "rarity": 1}, {"lat": -60.55, "lng": -37.0, "id": "558", "name": "Porifera", "sprite": "sp-barrel_sponge.png", "group": "sponge", "rarity": 1}, {"lat": -59.7167, "lng": -34.5, "id": "136998", "name": "Procellariidae", "sprite": "sp-anchoviella_juruasanga.png", "group": "other", "rarity": 1}, {"lat": -59.5, "lng": -39.0, "id": "341662", "name": "Laackmanniella naviculaefera", "sprite": "sp-anchoviella_juruasanga.png", "group": "other", "rarity": 1}, {"lat": -59.778, "lng": -35.84, "id": "582421", "name": "Radiozoa", "sprite": "sp-anchoviella_juruasanga.png", "group": "other", "rarity": 1}, {"lat": -60.7067, "lng": -34.9333, "id": "13703", "name": "Thecosomata", "sprite": "sp-cowrie_shell.png", "group": "sea_snail", "rarity": 1}, {"lat": -59.0239, "lng": -35.7303, "id": "112441", "name": "Placopsilinella aurantiaca", "sprite": "sp-anchoviella_juruasanga.png", "group": "other", "rarity": 1}]}