{"zoom": 6, "x": 26, "y": 15, "points": [{"lat": 66.6867, "lng": -32.4333, "id": "134023", "name": "Geodia barretti", "sprite": "sp-barrel_sponge.png", "group": "sponge", "rarity": 1}, {"lat": 67.0, "lng": -29.0, "id": "127207", "name": "Ribbed sculpin", "thumb": "tn_Trpin_u2.jpg", "sprite": "sp-anchoviella_juruasanga.png", "group": "other", "rarity": 1, "waterType": "Saltwater"}, {"lat": 66.5167, "lng": -33.5833, "id": "153097", "name": "Gonatus fabricii", "sprite": "sp-giant_pacific_octopus.png", "group": "octopus_squid", "rarity": 1}, {"lat": 68.0721, "lng": -31.7147, "id": "134586", "name": "Colossendeis", "sprite": "sp-anchoviella_juruasanga.png", "group": "other", "rarity": 1}, {"lat": 68.0517, "lng": -31.7618, "id": "1361", "name": "Ceriantharia", "sprite": "sp-actiniidae.png", "group": "coral", "rarity": 1}, {"lat": 68.0572, "lng": -31.7311, "id": "164811", "name": "Demospongiae", "sprite": "sp-barrel_sponge.png", "group": "sponge", "rarity": 1}, {"lat": 68.315, "lng": -29.16, "id": "137165", "name": "Sterna paradisaea", "sprite": "sp-anchoviella_juruasanga.png", "group": "other", "rarity": 1}, {"lat": 68.0508, "lng": -31.7701, "id": "900", "name": "Terebellida", "sprite": "sp-anchoviella_juruasanga.png", "group": "other", "rarity": 1}, {"lat": 67.2322, "lng": -30.5239, "id": "134023", "name": "Geodia barretti", "sprite": "sp-barrel_sponge.png", "group": "sponge", "rarity": 1}, {"lat": 67.0, "lng": -31.0, "id": "168864", "name": "Forcepia (Forcepia) groenlandica", "sprite": "sp-barrel_sponge.png", "group": "sponge", "rarity": 1}, {"lat": 67.3, "lng": -32.33, "id": "137091", "name": "Balaenoptera physalus", "sprite": "sp-blue_whale.png", "group": "whale", "rarity": 1}, {"lat": 68.0505, "lng": -31.769, "id": "105760", "name": "Amblyraja", "sprite": "sp-himantura_australis.png", "group": "ray", "rarity": 1}, {"lat": 67.0, "lng": -29.0, "id": "151324", "name": "Golden redfish", "thumb": "tn_Semar_ub.jpg", "sprite": "sp-anchoviella_juruasanga.png", "group": "other", "rarity": 1, "waterType": "Saltwater"}, {"lat": 68.0559, "lng": -31.7547, "id": "125147", "name": "Ophioscolex glacialis", "sprite": "sp-sea_cucumber.png", "group": "starfish", "rarity": 1}, {"lat": 68.0719, "lng": -31.7055, "id": "124229", "name": "Poliometra prolixa", "sprite": "sp-sea_cucumber.png", "group": "starfish", "rarity": 1}, {"lat": 68.067, "lng": -31.7043, "id": "123320", "name": "Porania", "sprite": "sp-sea_cucumber.png", "group": "starfish", "rarity": 1}, {"lat": 67.3, "lng": -32.33, "id": "137092", "name": "Megaptera novaeangliae", "sprite": "sp-blue_whale.png", "group": "whale", "rarity": 1}, {"lat": 68.0511, "lng": -31.7717, "id": "123335", "name": "Pteraster", "sprite": "sp-sea_cucumber.png", "group": "starfish", "rarity": 1}, {"lat": 67.1851, "lng": -31.7891, "id": "137085", "name": "Ursus maritimus", "sprite": "sp-anchoviella_juruasanga.png", "group": "other", "rarity": 1}, {"lat": 66.63, "lng": -31.53, "id": "137101", "name": "Lagenorhynchus albirostris", "sprite": "sp-bottlenose_dolphin.png", "group": "dolphin", "rarity": 1}, {"lat": 68.0527, "lng": -31.7665, "id": "1023293", "name": "Chondrocladia (Chondrocladia) grandis", "sprite": "sp-barrel_sponge.png", "group": "sponge", "rarity": 1}, {"lat": 67.51, "lng": -31.37, "id": "100824", "name": "Cribrinopsis similis", "sprite": "sp-actiniidae.png", "group": "coral", "rarity": 1}, {"lat": 67.0383, "lng": -29.7872, "id": "191325", "name": "Geodia parva", "sprite": "sp-barrel_sponge.png", "group": "sponge", "rarity": 1}, {"lat": 67.87, "lng": -32.558, "id": "137165", "name": "Sterna paradisaea", "sprite": "sp-anchoviella_juruasanga.png", "group": "other", "rarity": 1}, {"lat": 66.83, "lng": -28.5, "id": "126436", "name": "Atlantic cod", "thumb": "tn_Gamor_u3.jpg", "sprite": "sp-arctogadus.png", "group": "cod", "rarity": 1, "waterType": "Brackish"}, {"lat": 66.5548, "lng": -28.2908, "id": "136980", "name": "Delphinidae", "sprite": "sp-bottlenose_dolphin.png", "group": "dolphin", "rarity": 1}, {"lat": 68.0514, "lng": -31.7721, "id": "1609360", "name": "Pennatuloidea", "sprite": "sp-actiniidae.png", "group": "coral", "rarity": 1}, {"lat": 68.0582, "lng": -31.7539, "id": "126104", "name": "Lycodes", "sprite": "sp-anchoviella_juruasanga.png", "group": "other", "rarity": 1}, {"lat": 68.0674, "lng": -31.7136, "id": "101", "name": "Gastropoda", "sprite": "sp-cowrie_shell.png", "group": "sea_snail", "rarity": 1}, {"lat": 68.0552, "lng": -31.7472, "id": "123080", "name": "Asteroidea", "sprite": "sp-sea_cucumber.png", "group": "starfish", "rarity": 1}, {"lat": 68.064, "lng": -31.7207, "id": "124978", "name": "Ophiacantha bidentata", "sprite": "sp-sea_cucumber.png", "group": "starfish", "rarity": 1}, {"lat": 67.2038, "lng": -30.0033, "id": "449128", "name": "Geodia hentscheli", "sprite": "sp-barrel_sponge.png", "group": "sponge", "rarity": 1}, {"lat": 67.2303, "lng": -30.4802, "id": "132005", "name": "Geodia", "sprite": "sp-barrel_sponge.png", "group": "sponge", "rarity": 1}, {"lat": 68.0743, "lng": -31.704, "id": "1839", "name": "Ascidiacea", "sprite": "sp-anchoviella_juruasanga.png", "group": "other", "rarity": 1}, {"lat": 68.0711, "lng": -31.708, "id": "123260", "name": "Luidia", "sprite": "sp-sea_cucumber.png", "group": "starfish", "rarity": 1}, {"lat": 66.58, "lng": -28.88, "id": "137091", "name": "Balaenoptera physalus", "sprite": "sp-blue_whale.png", "group": "whale", "rarity": 1}, {"lat": 67.1204, "lng": -29.95, "id": "134033", "name": "Geodia macandrewii", "sprite": "sp-barrel_sponge.png", "group": "sponge", "rarity": 1}, {"lat": 66.9667, "lng": -29.9333, "id": "140596", "name": "Bathypolypus arcticus", "sprite": "sp-giant_pacific_octopus.png", "group": "octopus_squid", "rarity": 1}, {"lat": 66.517, "lng": -33.117, "id": "348896", "name": "Aphotopontius mammillatus", "sprite": "sp-anchoviella_juruasanga.png", "group": "other", "rarity": 1}, {"lat": 66.9667, "lng": -29.9333, "id": "157011", "name": "Bathypolypus bairdii", "sprite": "sp-giant_pacific_octopus.png", "group": "octopus_squid", "rarity": 1}, {"lat": 68.0685, "lng": -31.7105, "id": "1341", "name": "Octocorallia", "sprite": "sp-actiniidae.png", "group": "coral", "rarity": 1}, {"lat": 68.0585, "lng": -31.7348, "id": "134240", "name": "Stylocordyla borealis", "sprite": "sp-barrel_sponge.png", "group": "sponge", "rarity": 1}, {"lat": 68.0724, "lng": -31.7125, "id": "124135", "name": "Hymenaster pellucidus", "sprite": "sp-sea_cucumber.png", "group": "starfish", "rarity": 1}, {"lat": 68.41, "lng": -32.41, "id": "100933", "name": "Allantactis parasitica", "sprite": "sp-actiniidae.png", "group": "coral", "rarity": 1}, {"lat": 66.83, "lng": -32.62, "id": "137087", "name": "Balaenoptera acutorostrata", "sprite": "sp-blue_whale.png", "group": "whale", "rarity": 1}, {"lat": 66.666, "lng": -33.5, "id": "136976", "name": "Phocidae", "sprite": "sp-elephant_seal.png", "group": "seal", "rarity": 1}, {"lat": 67.6422, "lng": -31.917, "id": "137085", "name": "Ursus maritimus", "sprite": "sp-anchoviella_juruasanga.png", "group": "other", "rarity": 1}, {"lat": 66.8623, "lng": -28.2191, "id": "137087", "name": "Balaenoptera acutorostrata", "sprite": "sp-blue_whale.png", "group": "whale", "rarity": 1}, {"lat": 68.0707, "lng": -31.7078, "id": "125109", "name": "Ophiactis abyssicola", "sprite": "sp-sea_cucumber.png", "group": "starfish", "rarity": 1}, {"lat": 68.0841, "lng": -31.7061, "id": "138477", "name": "Sepia", "sprite": "sp-giant_pacific_octopus.png", "group": "octopus_squid", "rarity": 1}, {"lat": 68.0578, "lng": -31.7475, "id": "883", "name": "Polychaeta", "sprite": "sp-anchoviella_juruasanga.png", "group": "other", "rarity": 1}, {"lat": 68.0575, "lng": -31.7419, "id": "901", "name": "Sabellida", "sprite": "sp-anchoviella_juruasanga.png", "group": "other", "rarity": 1}, {"lat": 66.8833, "lng": -30.1833, "id": "254643", "name": "Geodia phlegraei", "sprite": "sp-barrel_sponge.png", "group": "sponge", "rarity": 1}, {"lat": 66.9133, "lng": -31.985, "id": "137165", "name": "Sterna paradisaea", "sprite": "sp-anchoviella_juruasanga.png", "group": "other", "rarity": 1}, {"lat": 67.2429, "lng": -30.1857, "id": "137165", "name": "Sterna paradisaea", "sprite": "sp-anchoviella_juruasanga.png", "group": "other", "rarity": 1}, {"lat": 68.0666, "lng": -31.7097, "id": "127217", "name": "Atlantic spiny lumpsucker", "thumb": "tn_Euspi_u1.jpg", "sprite": "sp-anchoviella_juruasanga.png", "group": "other", "rarity": 1, "waterType": "Saltwater"}, {"lat": 66.517, "lng": -33.117, "id": "135735", "name": "Scottomyzon gibberum", "sprite": "sp-anchoviella_juruasanga.png", "group": "other", "rarity": 1}, {"lat": 68.0676, "lng": -31.7043, "id": "107649", "name": "Pandalus borealis", "sprite": "sp-american_lobster.png", "group": "crab_lobster", "rarity": 1}, {"lat": 68.0659, "lng": -31.7205, "id": "123586", "name": "Gorgonocephalus", "sprite": "sp-sea_cucumber.png", "group": "starfish", "rarity": 1}, {"lat": 66.8675, "lng": -30.7194, "id": "137085", "name": "Ursus maritimus", "sprite": "sp-anchoviella_juruasanga.png", "group": "other", "rarity": 1}, {"lat": 67.0222, "lng": -29.5611, "id": "153097", "name": "Gonatus fabricii", "sprite": "sp-giant_pacific_octopus.png", "group": "octopus_squid", "rarity": 1}, {"lat": 66.9667, "lng": -29.475, "id": "156383", "name": "Rossia moelleri", "sprite": "sp-giant_pacific_octopus.png", "group": "octopus_squid", "rarity": 1}, {"lat": 66.57, "lng": -28.99, "id": "100954", "name": "Hormathia nodosa", "sprite": "sp-actiniidae.png", "group": "coral", "rarity": 1}, {"lat": 67.0, "lng": -29.0, "id": "127199", "name": "Twohorn sculpin", "thumb": "tn_Icbic_u1.jpg", "sprite": "sp-anchoviella_juruasanga.png", "group": "other", "rarity": 1, "waterType": "Saltwater"}, {"lat": 68.0505, "lng": -31.7691, "id": "124934", "name": "Ophiura sarsii", "sprite": "sp-sea_cucumber.png", "group": "starfish", "rarity": 1}, {"lat": 66.88, "lng": -29.47, "id": "137101", "name": "Lagenorhynchus albirostris", "sprite": "sp-bottlenose_dolphin.png", "group": "dolphin", "rarity": 1}, {"lat": 68.41, "lng": -32.41, "id": "100954", "name": "Hormathia nodosa", "sprite": "sp-actiniidae.png", "group": "coral", "rarity": 1}, {"lat": 68.0659, "lng": -31.7191, "id": "1360", "name": "Actiniaria", "sprite": "sp-actiniidae.png", "group": "coral", "rarity": 1}, {"lat": 67.51, "lng": -31.37, "id": "100923", "name": "Haliactis arctica", "sprite": "sp-actiniidae.png", "group": "coral", "rarity": 1}]}