{"zoom": 6, "x": 26, "y": 39, "points": [{"lat": -38.1188, "lng": -29.9854, "id": "131556", "name": "Tomopteris krampi", "sprite": "sp-anchoviella_juruasanga.png", "group": "other", "rarity": 1}, {"lat": -38.46, "lng": -29.375, "id": "342218", "name": "Architeuthis dux", "sprite": "sp-giant_pacific_octopus.png", "group": "octopus_squid", "rarity": 1}, {"lat": -37.467, "lng": -29.987, "id": "127782", "name": "Discoconchoecia elegans", "sprite": "sp-anchoviella_juruasanga.png", "group": "other", "rarity": 1}, {"lat": -36.8333, "lng": -32.0067, "id": "113461", "name": "Turborotalita humilis", "sprite": "sp-anchoviella_juruasanga.png", "group": "other", "rarity": 1}, {"lat": -39.917, "lng": -29.883, "id": "176588", "name": "Pseudoconchoecia serrulata", "sprite": "sp-anchoviella_juruasanga.png", "group": "other", "rarity": 1}, {"lat": -39.9876, "lng": -29.7359, "id": "212583", "name": "Diomedea exulans", "sprite": "sp-anchoviella_juruasanga.png", "group": "other", "rarity": 1}, {"lat": -37.87, "lng": -28.87, "id": "113434", "name": "Globigerina bulloides", "sprite": "sp-anchoviella_juruasanga.png", "group": "other", "rarity": 1}, {"lat": -38.02, "lng": -30.37, "id": "137165", "name": "Sterna paradisaea", "sprite": "sp-anchoviella_juruasanga.png", "group": "other", "rarity": 1}, {"lat": -40.0, "lng": -30.6, "id": "272694", "name": "California headlightfish", "thumb": "tn_Dithe_u0.jpg", "sprite": "sp-anchoviella_juruasanga.png", "group": "other", "rarity": 1, "waterType": "Saltwater"}, {"lat": -38.1188, "lng": -29.9854, "id": "579764", "name": "Pelagothrix", "sprite": "sp-anchoviella_juruasanga.png", "group": "other", "rarity": 1}, {"lat": -40.0, "lng": -30.5, "id": "1524555", "name": "Lagiacrusichthys macropinna", "thumb": "tn_Bemac_u0.jpg", "sprite": "sp-anchoviella_juruasanga.png", "group": "other", "rarity": 1, "waterType": "Saltwater"}, {"lat": -36.8333, "lng": -30.6467, "id": "221331", "name": "Pulleniatina obliquiloculata", "sprite": "sp-anchoviella_juruasanga.png", "group": "other", "rarity": 1}, {"lat": -37.467, "lng": -29.987, "id": "127854", "name": "Porroecia porrecta", "sprite": "sp-anchoviella_juruasanga.png", "group": "other", "rarity": 1}, {"lat": -38.1188, "lng": -29.9854, "id": "120012", "name": "Euchaetomera typica", "sprite": "sp-american_lobster.png", "group": "crab_lobster", "rarity": 1}, {"lat": -39.917, "lng": -29.883, "id": "127788", "name": "Gaussicia edentata", "sprite": "sp-anchoviella_juruasanga.png", "group": "other", "rarity": 1}, {"lat": -39.917, "lng": -29.883, "id": "172467", "name": "Boroecia antipoda", "sprite": "sp-anchoviella_juruasanga.png", "group": "other", "rarity": 1}, {"lat": -37.87, "lng": -28.87, "id": "113464", "name": "Globigerinita glutinata", "sprite": "sp-anchoviella_juruasanga.png", "group": "other", "rarity": 1}, {"lat": -37.467, "lng": -29.987, "id": "1314235", "name": "Hyalocoecia hyalophyllum", "sprite": "sp-anchoviella_juruasanga.png", "group": "other", "rarity": 1}, {"lat": -37.467, "lng": -29.987, "id": "127814", "name": "Metaconchoecia skogsbergi", "sprite": "sp-anchoviella_juruasanga.png", "group": "other", "rarity": 1}, {"lat": -36.8333, "lng": -33.015, "id": "113454", "name": "Globoturborotalita rubescens", "sprite": "sp-anchoviella_juruasanga.png", "group": "other", "rarity": 1}, {"lat": -37.467, "lng": -29.987, "id": "172482", "name": "Conchoecilla chuni", "sprite": "sp-anchoviella_juruasanga.png", "group": "other", "rarity": 1}, {"lat": -37.467, "lng": -29.987, "id": "127830", "name": "Orthoconchoecia bispinosa", "sprite": "sp-anchoviella_juruasanga.png", "group": "other", "rarity": 1}, {"lat": -36.8333, "lng": -33.015, "id": "221331", "name": "Pulleniatina obliquiloculata", "sprite": "sp-anchoviella_juruasanga.png", "group": "other", "rarity": 1}, {"lat": -39.917, "lng": -29.883, "id": "176603", "name": "Fellia dispar", "sprite": "sp-anchoviella_juruasanga.png", "group": "other", "rarity": 1}, {"lat": -40.0, "lng": -30.5415, "id": "141446", "name": "Heteroteuthis dispar", "sprite": "sp-giant_pacific_octopus.png", "group": "octopus_squid", "rarity": 1}, {"lat": -37.62, "lng": -31.11, "id": "137165", "name": "Sterna paradisaea", "sprite": "sp-anchoviella_juruasanga.png", "group": "other", "rarity": 1}, {"lat": -40.0, "lng": -30.0, "id": "127306", "name": "Lovely hatchetfish", "thumb": "tn_Aracu_u4.jpg", "sprite": "sp-anchoviella_juruasanga.png", "group": "other", "rarity": 1, "waterType": "Saltwater"}, {"lat": -37.821, "lng": -30.0789, "id": "127780", "name": "Conchoecissa symmetrica", "sprite": "sp-anchoviella_juruasanga.png", "group": "other", "rarity": 1}, {"lat": -40.0, "lng": -30.6, "id": "126203", "name": "Bathophilus", "sprite": "sp-anchoviella_juruasanga.png", "group": "other", "rarity": 1}, {"lat": -37.467, "lng": -29.987, "id": "127846", "name": "Paraconchoecia spinifera", "sprite": "sp-anchoviella_juruasanga.png", "group": "other", "rarity": 1}, {"lat": -36.8333, "lng": -29.9042, "id": "418107", "name": "Globigerinoides tenellus", "sprite": "sp-anchoviella_juruasanga.png", "group": "other", "rarity": 1}, {"lat": -36.98, "lng": -32.2, "id": "615435", "name": "Helicosphaera carteri", "sprite": "sp-anchoviella_juruasanga.png", "group": "other", "rarity": 1}, {"lat": -40.0, "lng": -30.5, "id": "317539", "name": "Bright lanternfish", "thumb": "tn_Myphe_u2.gif", "sprite": "sp-anchoviella_juruasanga.png", "group": "other", "rarity": 1, "waterType": "Saltwater"}, {"lat": -40.0, "lng": -30.0, "id": "234767", "name": "Tenison’s lanternfish", "thumb": "tn_Prten_u0.jpg", "sprite": "sp-anchoviella_juruasanga.png", "group": "other", "rarity": 1, "waterType": "Saltwater"}, {"lat": -39.917, "lng": -29.883, "id": "127773", "name": "Conchoecia magna", "sprite": "sp-anchoviella_juruasanga.png", "group": "other", "rarity": 1}, {"lat": -39.917, "lng": -29.883, "id": "1314233", "name": "Lophuroecia lophura", "sprite": "sp-anchoviella_juruasanga.png", "group": "other", "rarity": 1}, {"lat": -37.87, "lng": -28.87, "id": "113462", "name": "Turborotalita quinqueloba", "sprite": "sp-anchoviella_juruasanga.png", "group": "other", "rarity": 1}, {"lat": -40.0, "lng": -30.5, "id": "157031", "name": "Pyroteuthis margaritifera", "sprite": "sp-giant_pacific_octopus.png", "group": "octopus_squid", "rarity": 1}, {"lat": -40.0, "lng": -30.0, "id": "126191", "name": "Ichthyococcus", "sprite": "sp-anchoviella_juruasanga.png", "group": "other", "rarity": 1}, {"lat": -40.0, "lng": -30.0, "id": "125822", "name": "Gonichthys", "sprite": "sp-anchoviella_juruasanga.png", "group": "other", "rarity": 1}, {"lat": -37.5432, "lng": -30.771, "id": "220222", "name": "Eubalaena australis", "sprite": "sp-blue_whale.png", "group": "whale", "rarity": 1}, {"lat": -38.1188, "lng": -29.9854, "id": "117860", "name": "Pantachogon haeckeli", "sprite": "sp-anchoviella_juruasanga.png", "group": "other", "rarity": 1}, {"lat": -40.0, "lng": -30.5, "id": "127377", "name": "Threelight dragonfish", "thumb": "tn_Trmir_u0.gif", "sprite": "sp-anchoviella_juruasanga.png", "group": "other", "rarity": 1, "waterType": "Saltwater"}, {"lat": -36.8333, "lng": -33.015, "id": "418107", "name": "Globigerinoides tenellus", "sprite": "sp-anchoviella_juruasanga.png", "group": "other", "rarity": 1}, {"lat": -36.8333, "lng": -29.9042, "id": "418106", "name": "Globigerinella calida", "sprite": "sp-anchoviella_juruasanga.png", "group": "other", "rarity": 1}, {"lat": -37.0406, "lng": -29.6974, "id": "113453", "name": "Globorotalia truncatulinoides", "sprite": "sp-anchoviella_juruasanga.png", "group": "other", "rarity": 1}, {"lat": -39.917, "lng": -29.883, "id": "127834", "name": "Paraconchoecia allotherium", "sprite": "sp-anchoviella_juruasanga.png", "group": "other", "rarity": 1}, {"lat": -39.917, "lng": -29.883, "id": "127831", "name": "Orthoconchoecia haddoni", "sprite": "sp-anchoviella_juruasanga.png", "group": "other", "rarity": 1}, {"lat": -37.9782, "lng": -29.9345, "id": "212583", "name": "Diomedea exulans", "sprite": "sp-anchoviella_juruasanga.png", "group": "other", "rarity": 1}, {"lat": -39.7371, "lng": -29.9071, "id": "137165", "name": "Sterna paradisaea", "sprite": "sp-anchoviella_juruasanga.png", "group": "other", "rarity": 1}, {"lat": -40.0, "lng": -30.0, "id": "127309", "name": "Half-naked hatchetfish", "thumb": "tn_Arhem_u6.jpg", "sprite": "sp-anchoviella_juruasanga.png", "group": "other", "rarity": 1, "waterType": "Saltwater"}, {"lat": -39.4333, "lng": -29.9983, "id": "212651", "name": "Procellaria aequinoctialis", "sprite": "sp-anchoviella_juruasanga.png", "group": "other", "rarity": 1}, {"lat": -37.75, "lng": -33.0, "id": "127794", "name": "Halocypris inflata", "sprite": "sp-anchoviella_juruasanga.png", "group": "other", "rarity": 1}, {"lat": -36.8333, "lng": -30.6467, "id": "113473", "name": "Neogloboquadrina dutertrei", "sprite": "sp-anchoviella_juruasanga.png", "group": "other", "rarity": 1}, {"lat": -38.1188, "lng": -29.9854, "id": "109696", "name": "Ornithocercus steinii", "sprite": "sp-anchoviella_juruasanga.png", "group": "other", "rarity": 1}, {"lat": -38.175, "lng": -30.1708, "id": "176551", "name": "Mollicia amblypostha", "sprite": "sp-anchoviella_juruasanga.png", "group": "other", "rarity": 1}, {"lat": -40.0, "lng": -30.5833, "id": "342361", "name": "Lycoteuthis lorigera", "sprite": "sp-giant_pacific_octopus.png", "group": "octopus_squid", "rarity": 1}, {"lat": -37.467, "lng": -29.987, "id": "127773", "name": "Conchoecia magna", "sprite": "sp-anchoviella_juruasanga.png", "group": "other", "rarity": 1}, {"lat": -37.467, "lng": -29.987, "id": "1314233", "name": "Lophuroecia lophura", "sprite": "sp-anchoviella_juruasanga.png", "group": "other", "rarity": 1}, {"lat": -36.8333, "lng": -32.5108, "id": "113440", "name": "Globigerinella siphonifera", "sprite": "sp-anchoviella_juruasanga.png", "group": "other", "rarity": 1}, {"lat": -37.467, "lng": -29.987, "id": "127834", "name": "Paraconchoecia allotherium", "sprite": "sp-anchoviella_juruasanga.png", "group": "other", "rarity": 1}, {"lat": -36.8333, "lng": -30.4487, "id": "113454", "name": "Globoturborotalita rubescens", "sprite": "sp-anchoviella_juruasanga.png", "group": "other", "rarity": 1}, {"lat": -37.821, "lng": -30.0789, "id": "127831", "name": "Orthoconchoecia haddoni", "sprite": "sp-anchoviella_juruasanga.png", "group": "other", "rarity": 1}, {"lat": -37.87, "lng": -28.87, "id": "906779", "name": "Globorotalia inflata", "sprite": "sp-anchoviella_juruasanga.png", "group": "other", "rarity": 1}, {"lat": -38.1188, "lng": -29.9854, "id": "109549", "name": "Peridinium", "sprite": "sp-anchoviella_juruasanga.png", "group": "other", "rarity": 1}, {"lat": -39.917, "lng": -29.883, "id": "127716", "name": "Macrocypridina castanea", "sprite": "sp-anchoviella_juruasanga.png", "group": "other", "rarity": 1}, {"lat": -37.467, "lng": -29.987, "id": "127775", "name": "Conchoecia subarcuata", "sprite": "sp-anchoviella_juruasanga.png", "group": "other", "rarity": 1}, {"lat": -36.8333, "lng": -32.6117, "id": "113453", "name": "Globorotalia truncatulinoides", "sprite": "sp-anchoviella_juruasanga.png", "group": "other", "rarity": 1}, {"lat": -39.917, "lng": -29.883, "id": "127782", "name": "Discoconchoecia elegans", "sprite": "sp-anchoviella_juruasanga.png", "group": "other", "rarity": 1}, {"lat": -36.8333, "lng": -29.9042, "id": "113474", "name": "Neogloboquadrina incompta", "sprite": "sp-anchoviella_juruasanga.png", "group": "other", "rarity": 1}, {"lat": -40.0, "lng": -30.5, "id": "126600", "name": "Electric lantern fish", "thumb": "tn_Elris_u3.jpg", "sprite": "sp-anchoviella_juruasanga.png", "group": "other", "rarity": 1, "waterType": "Saltwater"}, {"lat": -36.8333, "lng": -30.6467, "id": "1455327", "name": "Globorotalia (Truncorotalia) crassaformis", "sprite": "sp-anchoviella_juruasanga.png", "group": "other", "rarity": 1}, {"lat": -39.917, "lng": -29.883, "id": "172482", "name": "Conchoecilla chuni", "sprite": "sp-anchoviella_juruasanga.png", "group": "other", "rarity": 1}, {"lat": -36.8333, "lng": -32.5108, "id": "113474", "name": "Neogloboquadrina incompta", "sprite": "sp-anchoviella_juruasanga.png", "group": "other", "rarity": 1}, {"lat": -39.917, "lng": -29.883, "id": "127830", "name": "Orthoconchoecia bispinosa", "sprite": "sp-anchoviella_juruasanga.png", "group": "other", "rarity": 1}, {"lat": -37.467, "lng": -29.987, "id": "176603", "name": "Fellia dispar", "sprite": "sp-anchoviella_juruasanga.png", "group": "other", "rarity": 1}, {"lat": -40.0, "lng": -30.7, "id": "127303", "name": "Oceanic lightfish", "thumb": "tn_Vinim_u1.gif", "sprite": "sp-anchoviella_juruasanga.png", "group": "other", "rarity": 1, "waterType": "Saltwater"}, {"lat": -39.917, "lng": -29.883, "id": "536003", "name": "Kyrtoecia kyrtophora", "sprite": "sp-anchoviella_juruasanga.png", "group": "other", "rarity": 1}, {"lat": -37.467, "lng": -29.987, "id": "1314237", "name": "Parvidentoecia parvidentata", "sprite": "sp-anchoviella_juruasanga.png", "group": "other", "rarity": 1}, {"lat": -36.8333, "lng": -29.6567, "id": "991763", "name": "Globigerinoides elongatus", "sprite": "sp-anchoviella_juruasanga.png", "group": "other", "rarity": 1}, {"lat": -40.1147, "lng": -30.0026, "id": "212652", "name": "Procellaria cinerea", "sprite": "sp-anchoviella_juruasanga.png", "group": "other", "rarity": 1}, {"lat": -39.5333, "lng": -30.0733, "id": "158900", "name": "Dofleini's lantern fish", "thumb": "tn_Lodof_u1.jpg", "sprite": "sp-anchoviella_juruasanga.png", "group": "other", "rarity": 1, "waterType": "Saltwater"}, {"lat": -38.1188, "lng": -29.9854, "id": "149266", "name": "Coscinodiscus curvatulus", "sprite": "sp-anchoviella_juruasanga.png", "group": "other", "rarity": 1}, {"lat": -36.9485, "lng": -29.7893, "id": "113444", "name": "Globigerinoides ruber", "sprite": "sp-anchoviella_juruasanga.png", "group": "other", "rarity": 1}, {"lat": -38.1188, "lng": -29.9854, "id": "227091", "name": "Euchaetomera zurstrasseni", "sprite": "sp-american_lobster.png", "group": "crab_lobster", "rarity": 1}, {"lat": -40.0, "lng": -30.583, "id": "341850", "name": "Abraliopsis gilchristi", "sprite": "sp-giant_pacific_octopus.png", "group": "octopus_squid", "rarity": 1}, {"lat": -37.75, "lng": -33.0, "id": "127543", "name": "Halocypris", "sprite": "sp-anchoviella_juruasanga.png", "group": "other", "rarity": 1}, {"lat": -39.917, "lng": -29.883, "id": "127734", "name": "Alacia valdiviae", "sprite": "sp-anchoviella_juruasanga.png", "group": "other", "rarity": 1}, {"lat": -36.8333, "lng": -32.3428, "id": "418106", "name": "Globigerinella calida", "sprite": "sp-anchoviella_juruasanga.png", "group": "other", "rarity": 1}, {"lat": -38.1188, "lng": -29.9854, "id": "119047", "name": "Idotea metallica", "sprite": "sp-american_lobster.png", "group": "crab_lobster", "rarity": 1}, {"lat": -39.917, "lng": -29.883, "id": "1314235", "name": "Hyalocoecia hyalophyllum", "sprite": "sp-anchoviella_juruasanga.png", "group": "other", "rarity": 1}, {"lat": -39.917, "lng": -29.883, "id": "127814", "name": "Metaconchoecia skogsbergi", "sprite": "sp-anchoviella_juruasanga.png", "group": "other", "rarity": 1}, {"lat": -39.917, "lng": -29.883, "id": "175693", "name": "Archiconchoecissa cucullata", "sprite": "sp-anchoviella_juruasanga.png", "group": "other", "rarity": 1}, {"lat": -38.8333, "lng": -29.9111, "id": "126610", "name": "Winged lanternfish", "thumb": "tn_Laala_u0.gif", "sprite": "sp-anchoviella_juruasanga.png", "group": "other", "rarity": 1, "waterType": "Saltwater"}, {"lat": -38.8333, "lng": -29.9111, "id": "126619", "name": "Pygmy lanternfish", "thumb": "tn_Lapus_u0.jpg", "sprite": "sp-anchoviella_juruasanga.png", "group": "other", "rarity": 1, "waterType": "Saltwater"}, {"lat": -39.917, "lng": -29.883, "id": "536010", "name": "Rotundoecia teretivalvata", "sprite": "sp-anchoviella_juruasanga.png", "group": "other", "rarity": 1}, {"lat": -40.0, "lng": -30.6, "id": "158842", "name": "Aristostomias polydactylus", "thumb": "tn_Arpol_u3.gif", "sprite": "sp-anchoviella_juruasanga.png", "group": "other", "rarity": 1, "waterType": "Saltwater"}, {"lat": -38.1188, "lng": -29.9854, "id": "119978", "name": "Caesaromysis hispida", "sprite": "sp-american_lobster.png", "group": "crab_lobster", "rarity": 1}, {"lat": -38.1188, "lng": -29.9854, "id": "226891", "name": "Boreomysis rostrata", "sprite": "sp-american_lobster.png", "group": "crab_lobster", "rarity": 1}, {"lat": -40.0, "lng": -30.0, "id": "234727", "name": "Norman's lanterrnfish", "thumb": "tn_Prnor_u1.gif", "sprite": "sp-anchoviella_juruasanga.png", "group": "other", "rarity": 1, "waterType": "Saltwater"}, {"lat": -37.87, "lng": -28.87, "id": "113460", "name": "Orbulina universa", "sprite": "sp-anchoviella_juruasanga.png", "group": "other", "rarity": 1}, {"lat": -36.8333, "lng": -32.0067, "id": "1567942", "name": "Globorotalia eastropacia", "sprite": "sp-anchoviella_juruasanga.png", "group": "other", "rarity": 1}, {"lat": -38.1188, "lng": -29.9854, "id": "120008", "name": "Euchaetomera intermedia", "sprite": "sp-american_lobster.png", "group": "crab_lobster", "rarity": 1}, {"lat": -38.1188, "lng": -29.9854, "id": "131562", "name": "Tomopteris nisseni", "sprite": "sp-anchoviella_juruasanga.png", "group": "other", "rarity": 1}, {"lat": -38.8333, "lng": -29.8333, "id": "217719", "name": "Bogue lanternfish", "thumb": "tn_Syboo_u1.gif", "sprite": "sp-anchoviella_juruasanga.png", "group": "other", "rarity": 1, "waterType": "Saltwater"}, {"lat": -40.0511, "lng": -32.1967, "id": "137165", "name": "Sterna paradisaea", "sprite": "sp-anchoviella_juruasanga.png", "group": "other", "rarity": 1}, {"lat": -39.917, "lng": -29.883, "id": "127780", "name": "Conchoecissa symmetrica", "sprite": "sp-anchoviella_juruasanga.png", "group": "other", "rarity": 1}, {"lat": -36.8333, "lng": -32.6789, "id": "113441", "name": "Globigerinoides conglobatus", "sprite": "sp-anchoviella_juruasanga.png", "group": "other", "rarity": 1}, {"lat": -39.917, "lng": -29.883, "id": "127846", "name": "Paraconchoecia spinifera", "sprite": "sp-anchoviella_juruasanga.png", "group": "other", "rarity": 1}, {"lat": -39.917, "lng": -29.883, "id": "1314237", "name": "Parvidentoecia parvidentata", "sprite": "sp-anchoviella_juruasanga.png", "group": "other", "rarity": 1}, {"lat": -36.8333, "lng": -32.5108, "id": "1455327", "name": "Globorotalia (Truncorotalia) crassaformis", "sprite": "sp-anchoviella_juruasanga.png", "group": "other", "rarity": 1}, {"lat": -39.917, "lng": -29.883, "id": "536006", "name": "Nasoecia nasotuberculata", "sprite": "sp-anchoviella_juruasanga.png", "group": "other", "rarity": 1}, {"lat": -39.917, "lng": -29.883, "id": "127776", "name": "Conchoecilla daphnoides", "sprite": "sp-anchoviella_juruasanga.png", "group": "other", "rarity": 1}, {"lat": -37.467, "lng": -29.987, "id": "127715", "name": "Gigantocypris muelleri", "sprite": "sp-anchoviella_juruasanga.png", "group": "other", "rarity": 1}, {"lat": -36.8333, "lng": -32.0067, "id": "113450", "name": "Globorotalia menardii", "sprite": "sp-anchoviella_juruasanga.png", "group": "other", "rarity": 1}, {"lat": -40.0, "lng": -30.5, "id": "126291", "name": "Narrownecked oceanic eel", "thumb": "tn_Deser_u1.gif", "sprite": "sp-electric_eel.png", "group": "eel", "rarity": 1, "waterType": "Saltwater"}, {"lat": -38.8333, "lng": -29.8333, "id": "272656", "name": "Dogtooth lampfish", "sprite": "sp-anchoviella_juruasanga.png", "group": "other", "rarity": 1, "waterType": "Saltwater"}, {"lat": -40.0, "lng": -30.5, "id": "341864", "name": "Histioteuthis atlantica", "sprite": "sp-giant_pacific_octopus.png", "group": "octopus_squid", "rarity": 1}, {"lat": -40.0, "lng": -30.5415, "id": "140649", "name": "Onychoteuthis banksii", "sprite": "sp-giant_pacific_octopus.png", "group": "octopus_squid", "rarity": 1}, {"lat": -39.4167, "lng": -29.9167, "id": "217709", "name": "Blackhead lanternfish", "thumb": "tn_Lapro_u0.gif", "sprite": "sp-anchoviella_juruasanga.png", "group": "other", "rarity": 1, "waterType": "Saltwater"}]}