{"zoom": 6, "x": 27, "y": 38, "points": [{"lat": -33.5036, "lng": -23.9177, "id": "845955", "name": "Pyxidinopsis reticulata", "sprite": "sp-anchoviella_juruasanga.png", "group": "other", "rarity": 1}, {"lat": -32.9085, "lng": -26.683, "id": "107602", "name": "Oplophorus spinosus", "sprite": "sp-american_lobster.png", "group": "crab_lobster", "rarity": 1}, {"lat": -34.017, "lng": -22.75, "id": "1056519", "name": "Robustosergia regalis", "sprite": "sp-american_lobster.png", "group": "crab_lobster", "rarity": 1}, {"lat": -33.5036, "lng": -23.9176, "id": "838885", "sprite": "sp-anchoviella_juruasanga.png", "group": "other", "rarity": 1}, {"lat": -33.825, "lng": -23.5877, "id": "603684", "name": "Brigantedinium", "sprite": "sp-anchoviella_juruasanga.png", "group": "other", "rarity": 1}, {"lat": -33.4992, "lng": -24.024, "id": "235985", "name": "Umbilicosphaera sibogae", "sprite": "sp-anchoviella_juruasanga.png", "group": "other", "rarity": 1}, {"lat": -34.0335, "lng": -22.775, "id": "514112", "name": "Allosergestes pectinatus", "sprite": "sp-american_lobster.png", "group": "crab_lobster", "rarity": 1}, {"lat": -35.3558, "lng": -23.7805, "id": "137119", "name": "Physeter macrocephalus", "sprite": "sp-blue_whale.png", "group": "whale", "rarity": 1}, {"lat": -35.7073, "lng": -22.7333, "id": "838775", "name": "Selenopemphix nephroides", "sprite": "sp-anchoviella_juruasanga.png", "group": "other", "rarity": 1}, {"lat": -35.7225, "lng": -26.6725, "id": "137165", "name": "Sterna paradisaea", "sprite": "sp-anchoviella_juruasanga.png", "group": "other", "rarity": 1}, {"lat": -34.98, "lng": -27.12, "id": "615435", "name": "Helicosphaera carteri", "sprite": "sp-anchoviella_juruasanga.png", "group": "other", "rarity": 1}, {"lat": -33.4991, "lng": -24.024, "id": "235954", "name": "Gephyrocapsa ericsonii", "sprite": "sp-anchoviella_juruasanga.png", "group": "other", "rarity": 1}, {"lat": -33.0, "lng": -26.933, "id": "240814", "name": "Oplophorus novaezeelandiae", "sprite": "sp-american_lobster.png", "group": "crab_lobster", "rarity": 1}, {"lat": -35.7073, "lng": -22.7333, "id": "603344", "name": "Rhabdolithes", "sprite": "sp-anchoviella_juruasanga.png", "group": "other", "rarity": 1}, {"lat": -32.4934, "lng": -27.24, "id": "113474", "name": "Neogloboquadrina incompta", "sprite": "sp-anchoviella_juruasanga.png", "group": "other", "rarity": 1}, {"lat": -35.7667, "lng": -22.6, "id": "127117", "name": "Lycodes terraenovae", "thumb": "tn_Lyter_u2.gif", "sprite": "sp-anchoviella_juruasanga.png", "group": "other", "rarity": 1, "waterType": "Saltwater"}, {"lat": -34.0756, "lng": -25.7167, "id": "213049", "name": "Actinoptilum molle", "sprite": "sp-actiniidae.png", "group": "coral", "rarity": 1}, {"lat": -33.182, "lng": -24.248, "id": "110277", "name": "Thoracosphaera heimii", "sprite": "sp-anchoviella_juruasanga.png", "group": "other", "rarity": 1}, {"lat": -35.5556, "lng": -22.8197, "id": "623772", "name": "Impagidinium patulum", "sprite": "sp-anchoviella_juruasanga.png", "group": "other", "rarity": 1}, {"lat": -33.4991, "lng": -24.024, "id": "341588", "name": "Gephyrocapsa muellerae", "sprite": "sp-anchoviella_juruasanga.png", "group": "other", "rarity": 1}, {"lat": -35.252, "lng": -22.992, "id": "233837", "name": "Calciodinellum levantinum", "sprite": "sp-anchoviella_juruasanga.png", "group": "other", "rarity": 1}, {"lat": -35.7073, "lng": -22.7333, "id": "657391", "name": "Impagidinium pallidum", "sprite": "sp-anchoviella_juruasanga.png", "group": "other", "rarity": 1}, {"lat": -35.7073, "lng": -22.7333, "id": "235923", "name": "Calcidiscus leptoporus", "sprite": "sp-anchoviella_juruasanga.png", "group": "other", "rarity": 1}, {"lat": -33.85, "lng": -25.6333, "id": "218563", "name": "Smallspotted grunter", "thumb": "tn_Pocom_u0.jpg", "sprite": "sp-anchoviella_juruasanga.png", "group": "other", "rarity": 1, "waterType": "Brackish"}, {"lat": -35.7073, "lng": -22.7333, "id": "235954", "name": "Gephyrocapsa ericsonii", "sprite": "sp-anchoviella_juruasanga.png", "group": "other", "rarity": 1}, {"lat": -33.4992, "lng": -24.024, "id": "603344", "name": "Rhabdolithes", "sprite": "sp-anchoviella_juruasanga.png", "group": "other", "rarity": 1}, {"lat": -34.24, "lng": -28.0, "id": "137165", "name": "Sterna paradisaea", "sprite": "sp-anchoviella_juruasanga.png", "group": "other", "rarity": 1}, {"lat": -35.5252, "lng": -22.8368, "id": "845955", "name": "Pyxidinopsis reticulata", "sprite": "sp-anchoviella_juruasanga.png", "group": "other", "rarity": 1}, {"lat": -32.817, "lng": -26.433, "id": "377611", "name": "Sergia laminata", "sprite": "sp-american_lobster.png", "group": "crab_lobster", "rarity": 1}, {"lat": -32.8438, "lng": -27.4738, "id": "113460", "name": "Orbulina universa", "sprite": "sp-anchoviella_juruasanga.png", "group": "other", "rarity": 1}, {"lat": -32.8438, "lng": -27.4738, "id": "113473", "name": "Neogloboquadrina dutertrei", "sprite": "sp-anchoviella_juruasanga.png", "group": "other", "rarity": 1}, {"lat": -34.2667, "lng": -23.0833, "id": "1441254", "name": "Africofusus ocelliferus", "sprite": "sp-cowrie_shell.png", "group": "sea_snail", "rarity": 1}, {"lat": -33.4992, "lng": -24.024, "id": "555948", "name": "Gladiolithus flabellatus", "sprite": "sp-anchoviella_juruasanga.png", "group": "other", "rarity": 1}, {"lat": -32.727, "lng": -27.3963, "id": "113444", "name": "Globigerinoides ruber", "sprite": "sp-anchoviella_juruasanga.png", "group": "other", "rarity": 1}, {"lat": -32.7722, "lng": -27.3918, "id": "113453", "name": "Globorotalia truncatulinoides", "sprite": "sp-anchoviella_juruasanga.png", "group": "other", "rarity": 1}, {"lat": -34.0167, "lng": -22.9333, "id": "126032", "name": "Mugil", "sprite": "sp-anchoviella_juruasanga.png", "group": "other", "rarity": 1}, {"lat": -34.017, "lng": -22.75, "id": "240814", "name": "Oplophorus novaezeelandiae", "sprite": "sp-american_lobster.png", "group": "crab_lobster", "rarity": 1}, {"lat": -33.5036, "lng": -23.9176, "id": "623770", "name": "Impagidinium aculeatum", "sprite": "sp-anchoviella_juruasanga.png", "group": "other", "rarity": 1}, {"lat": -35.7073, "lng": -22.7333, "id": "235955", "name": "Gephyrocapsa oceanica", "sprite": "sp-anchoviella_juruasanga.png", "group": "other", "rarity": 1}, {"lat": -33.182, "lng": -24.248, "id": "233837", "name": "Calciodinellum levantinum", "sprite": "sp-anchoviella_juruasanga.png", "group": "other", "rarity": 1}, {"lat": -35.252, "lng": -22.992, "id": "233786", "name": "Scrippsiella regalis", "sprite": "sp-anchoviella_juruasanga.png", "group": "other", "rarity": 1}, {"lat": -35.7073, "lng": -22.7333, "id": "341588", "name": "Gephyrocapsa muellerae", "sprite": "sp-anchoviella_juruasanga.png", "group": "other", "rarity": 1}, {"lat": -33.0, "lng": -26.933, "id": "107100", "name": "Funchalia villosa", "sprite": "sp-american_lobster.png", "group": "crab_lobster", "rarity": 1}, {"lat": -33.4992, "lng": -24.024, "id": "235863", "name": "Helicosphaera", "sprite": "sp-anchoviella_juruasanga.png", "group": "other", "rarity": 1}, {"lat": -35.2067, "lng": -26.765, "id": "580633", "name": "Globorotalia crassaformis subsp. imbricata", "sprite": "sp-anchoviella_juruasanga.png", "group": "other", "rarity": 1}, {"lat": -35.5556, "lng": -22.8197, "id": "623770", "name": "Impagidinium aculeatum", "sprite": "sp-anchoviella_juruasanga.png", "group": "other", "rarity": 1}, {"lat": -35.5556, "lng": -22.8197, "id": "838885", "sprite": "sp-anchoviella_juruasanga.png", "group": "other", "rarity": 1}, {"lat": -35.7073, "lng": -22.7333, "id": "235985", "name": "Umbilicosphaera sibogae", "sprite": "sp-anchoviella_juruasanga.png", "group": "other", "rarity": 1}, {"lat": -32.817, "lng": -26.433, "id": "514136", "name": "Parasergestes armatus", "sprite": "sp-american_lobster.png", "group": "crab_lobster", "rarity": 1}, {"lat": -35.5252, "lng": -22.8368, "id": "603684", "name": "Brigantedinium", "sprite": "sp-anchoviella_juruasanga.png", "group": "other", "rarity": 1}, {"lat": -33.6753, "lng": -24.1745, "id": "137119", "name": "Physeter macrocephalus", "sprite": "sp-blue_whale.png", "group": "whale", "rarity": 1}, {"lat": -35.2067, "lng": -26.765, "id": "113453", "name": "Globorotalia truncatulinoides", "sprite": "sp-anchoviella_juruasanga.png", "group": "other", "rarity": 1}, {"lat": -35.2067, "lng": -26.765, "id": "113444", "name": "Globigerinoides ruber", "sprite": "sp-anchoviella_juruasanga.png", "group": "other", "rarity": 1}, {"lat": -35.252, "lng": -22.992, "id": "110277", "name": "Thoracosphaera heimii", "sprite": "sp-anchoviella_juruasanga.png", "group": "other", "rarity": 1}, {"lat": -33.5036, "lng": -23.9176, "id": "623772", "name": "Impagidinium patulum", "sprite": "sp-anchoviella_juruasanga.png", "group": "other", "rarity": 1}, {"lat": -35.0333, "lng": -24.95, "id": "126862", "name": "Snake mackerel", "thumb": "tn_Geser_u1.jpg", "sprite": "sp-anchoviella_juruasanga.png", "group": "other", "rarity": 1, "waterType": "Saltwater"}, {"lat": -33.4991, "lng": -24.024, "id": "235923", "name": "Calcidiscus leptoporus", "sprite": "sp-anchoviella_juruasanga.png", "group": "other", "rarity": 1}, {"lat": -32.817, "lng": -26.433, "id": "1056519", "name": "Robustosergia regalis", "sprite": "sp-american_lobster.png", "group": "crab_lobster", "rarity": 1}, {"lat": -35.5156, "lng": -24.0263, "id": "220222", "name": "Eubalaena australis", "sprite": "sp-blue_whale.png", "group": "whale", "rarity": 1}, {"lat": -32.817, "lng": -26.433, "id": "210438", "name": "Acanthephyra quadrispinosa", "sprite": "sp-american_lobster.png", "group": "crab_lobster", "rarity": 1}, {"lat": -35.5556, "lng": -22.8197, "id": "623771", "name": "Impagidinium sphaericum", "sprite": "sp-anchoviella_juruasanga.png", "group": "other", "rarity": 1}, {"lat": -33.1822, "lng": -24.2477, "id": "703858", "name": "Bitectatodinium tepikiense", "sprite": "sp-anchoviella_juruasanga.png", "group": "other", "rarity": 1}, {"lat": -33.2131, "lng": -23.9874, "id": "220222", "name": "Eubalaena australis", "sprite": "sp-blue_whale.png", "group": "whale", "rarity": 1}, {"lat": -32.7867, "lng": -27.75, "id": "113454", "name": "Globoturborotalita rubescens", "sprite": "sp-anchoviella_juruasanga.png", "group": "other", "rarity": 1}, {"lat": -33.5036, "lng": -23.9176, "id": "623771", "name": "Impagidinium sphaericum", "sprite": "sp-anchoviella_juruasanga.png", "group": "other", "rarity": 1}, {"lat": -34.0335, "lng": -22.775, "id": "183350", "name": "Plesionika richardi", "sprite": "sp-american_lobster.png", "group": "crab_lobster", "rarity": 1}, {"lat": -36.5, "lng": -28.0, "id": "592907", "name": "Actinecta ultramarina", "sprite": "sp-actiniidae.png", "group": "coral", "rarity": 1}, {"lat": -35.2067, "lng": -26.765, "id": "113473", "name": "Neogloboquadrina dutertrei", "sprite": "sp-anchoviella_juruasanga.png", "group": "other", "rarity": 1}, {"lat": -35.7073, "lng": -22.7333, "id": "555948", "name": "Gladiolithus flabellatus", "sprite": "sp-anchoviella_juruasanga.png", "group": "other", "rarity": 1}, {"lat": -32.0, "lng": -26.0, "id": "284559", "name": "Solmissus faberi", "sprite": "sp-anchoviella_juruasanga.png", "group": "other", "rarity": 1}, {"lat": -32.715, "lng": -27.3256, "id": "113464", "name": "Globigerinita glutinata", "sprite": "sp-anchoviella_juruasanga.png", "group": "other", "rarity": 1}, {"lat": -32.8438, "lng": -27.4745, "id": "113441", "name": "Globigerinoides conglobatus", "sprite": "sp-anchoviella_juruasanga.png", "group": "other", "rarity": 1}, {"lat": -33.1822, "lng": -24.2477, "id": "670195", "name": "Spiniferites mirabilis", "sprite": "sp-anchoviella_juruasanga.png", "group": "other", "rarity": 1}, {"lat": -35.2067, "lng": -26.765, "id": "906779", "name": "Globorotalia inflata", "sprite": "sp-anchoviella_juruasanga.png", "group": "other", "rarity": 1}, {"lat": -33.1942, "lng": -27.7075, "id": "580633", "name": "Globorotalia crassaformis subsp. imbricata", "sprite": "sp-anchoviella_juruasanga.png", "group": "other", "rarity": 1}, {"lat": -35.7073, "lng": -22.7333, "id": "235863", "name": "Helicosphaera", "sprite": "sp-anchoviella_juruasanga.png", "group": "other", "rarity": 1}, {"lat": -32.8628, "lng": -27.3827, "id": "906779", "name": "Globorotalia inflata", "sprite": "sp-anchoviella_juruasanga.png", "group": "other", "rarity": 1}, {"lat": -35.2067, "lng": -26.765, "id": "113441", "name": "Globigerinoides conglobatus", "sprite": "sp-anchoviella_juruasanga.png", "group": "other", "rarity": 1}, {"lat": -35.7073, "lng": -22.7333, "id": "178600", "name": "Coccolithus pelagicus", "sprite": "sp-anchoviella_juruasanga.png", "group": "other", "rarity": 1}, {"lat": -35.2067, "lng": -26.765, "id": "113464", "name": "Globigerinita glutinata", "sprite": "sp-anchoviella_juruasanga.png", "group": "other", "rarity": 1}, {"lat": -35.7073, "lng": -22.7333, "id": "670195", "name": "Spiniferites mirabilis", "sprite": "sp-anchoviella_juruasanga.png", "group": "other", "rarity": 1}, {"lat": -35.5556, "lng": -22.8197, "id": "838887", "sprite": "sp-anchoviella_juruasanga.png", "group": "other", "rarity": 1}, {"lat": -32.715, "lng": -27.3256, "id": "113440", "name": "Globigerinella siphonifera", "sprite": "sp-anchoviella_juruasanga.png", "group": "other", "rarity": 1}, {"lat": -35.7073, "lng": -22.7333, "id": "235952", "name": "Florisphaera profunda", "sprite": "sp-anchoviella_juruasanga.png", "group": "other", "rarity": 1}, {"lat": -34.017, "lng": -22.75, "id": "107605", "name": "Systellaspis debilis", "sprite": "sp-american_lobster.png", "group": "crab_lobster", "rarity": 1}, {"lat": -35.5146, "lng": -26.5494, "id": "220222", "name": "Eubalaena australis", "sprite": "sp-blue_whale.png", "group": "whale", "rarity": 1}, {"lat": -33.5036, "lng": -23.9176, "id": "623769", "name": "Operculodinium israelianum", "sprite": "sp-anchoviella_juruasanga.png", "group": "other", "rarity": 1}, {"lat": -34.0335, "lng": -22.775, "id": "514141", "name": "Parasergestes vigilax", "sprite": "sp-american_lobster.png", "group": "crab_lobster", "rarity": 1}, {"lat": -32.939, "lng": -26.7997, "id": "514112", "name": "Allosergestes pectinatus", "sprite": "sp-american_lobster.png", "group": "crab_lobster", "rarity": 1}, {"lat": -35.7073, "lng": -22.7333, "id": "115104", "name": "Emiliania huxleyi", "sprite": "sp-anchoviella_juruasanga.png", "group": "other", "rarity": 1}, {"lat": -35.5381, "lng": -27.1136, "id": "212583", "name": "Diomedea exulans", "sprite": "sp-anchoviella_juruasanga.png", "group": "other", "rarity": 1}, {"lat": -35.4798, "lng": -22.8629, "id": "835694", "name": "Operculodinium centrocarpum", "sprite": "sp-anchoviella_juruasanga.png", "group": "other", "rarity": 1}, {"lat": -32.7867, "lng": -27.75, "id": "418108", "name": "Sphaeroidinella dehiscens", "sprite": "sp-anchoviella_juruasanga.png", "group": "other", "rarity": 1}, {"lat": -32.7704, "lng": -27.347, "id": "113458", "name": "Neogloboquadrina pachyderma", "sprite": "sp-anchoviella_juruasanga.png", "group": "other", "rarity": 1}, {"lat": -34.0335, "lng": -22.775, "id": "107602", "name": "Oplophorus spinosus", "sprite": "sp-american_lobster.png", "group": "crab_lobster", "rarity": 1}, {"lat": -35.5554, "lng": -22.8194, "id": "620590", "name": "Coccopterum labyrinthus", "sprite": "sp-anchoviella_juruasanga.png", "group": "other", "rarity": 1}, {"lat": -33.5036, "lng": -23.9177, "id": "601728", "name": "Impagidinium", "sprite": "sp-anchoviella_juruasanga.png", "group": "other", "rarity": 1}, {"lat": -34.5667, "lng": -23.0667, "id": "220957", "name": "Neptuneopsis gilchristi", "sprite": "sp-cowrie_shell.png", "group": "sea_snail", "rarity": 1}, {"lat": -34.0335, "lng": -22.775, "id": "107127", "name": "Sergestes atlanticus", "sprite": "sp-american_lobster.png", "group": "crab_lobster", "rarity": 1}, {"lat": -35.5252, "lng": -22.8368, "id": "601728", "name": "Impagidinium", "sprite": "sp-anchoviella_juruasanga.png", "group": "other", "rarity": 1}, {"lat": -33.5036, "lng": -23.9178, "id": "620590", "name": "Coccopterum labyrinthus", "sprite": "sp-anchoviella_juruasanga.png", "group": "other", "rarity": 1}, {"lat": -32.727, "lng": -27.3963, "id": "1026286", "name": "Trilobatus sacculifer", "sprite": "sp-anchoviella_juruasanga.png", "group": "other", "rarity": 1}, {"lat": -32.715, "lng": -27.3256, "id": "221249", "name": "Globigerina falconensis", "sprite": "sp-anchoviella_juruasanga.png", "group": "other", "rarity": 1}, {"lat": -33.7057, "lng": -26.9031, "id": "137119", "name": "Physeter macrocephalus", "sprite": "sp-blue_whale.png", "group": "whale", "rarity": 1}, {"lat": -32.6971, "lng": -27.2195, "id": "113452", "name": "Globorotalia scitula", "sprite": "sp-anchoviella_juruasanga.png", "group": "other", "rarity": 1}, {"lat": -35.252, "lng": -22.992, "id": "622622", "name": "Pernambugia tuberosa", "sprite": "sp-anchoviella_juruasanga.png", "group": "other", "rarity": 1}, {"lat": -32.8438, "lng": -27.4738, "id": "418107", "name": "Globigerinoides tenellus", "sprite": "sp-anchoviella_juruasanga.png", "group": "other", "rarity": 1}, {"lat": -33.6643, "lng": -23.7527, "id": "602101", "name": "Spiniferites", "sprite": "sp-anchoviella_juruasanga.png", "group": "other", "rarity": 1}, {"lat": -32.817, "lng": -26.433, "id": "107581", "name": "Acanthephyra pelagica", "sprite": "sp-american_lobster.png", "group": "crab_lobster", "rarity": 1}, {"lat": -33.4393, "lng": -23.9838, "id": "110321", "name": "Protoceratium reticulatum", "sprite": "sp-anchoviella_juruasanga.png", "group": "other", "rarity": 1}, {"lat": -35.2523, "lng": -22.9925, "id": "109925", "name": "Pentapharsodinium dalei", "sprite": "sp-anchoviella_juruasanga.png", "group": "other", "rarity": 1}, {"lat": -33.4991, "lng": -24.024, "id": "115104", "name": "Emiliania huxleyi", "sprite": "sp-anchoviella_juruasanga.png", "group": "other", "rarity": 1}, {"lat": -33.9548, "lng": -26.7071, "id": "212583", "name": "Diomedea exulans", "sprite": "sp-anchoviella_juruasanga.png", "group": "other", "rarity": 1}, {"lat": -35.252, "lng": -22.992, "id": "233839", "name": "Calciodinellum albatrosianum", "sprite": "sp-anchoviella_juruasanga.png", "group": "other", "rarity": 1}, {"lat": -32.8438, "lng": -27.4745, "id": "113433", "name": "Beella digitata", "sprite": "sp-anchoviella_juruasanga.png", "group": "other", "rarity": 1}, {"lat": -35.2067, "lng": -26.765, "id": "113460", "name": "Orbulina universa", "sprite": "sp-anchoviella_juruasanga.png", "group": "other", "rarity": 1}, {"lat": -32.817, "lng": -26.433, "id": "107098", "name": "Gennadas valens", "sprite": "sp-american_lobster.png", "group": "crab_lobster", "rarity": 1}, {"lat": -35.4795, "lng": -22.8625, "id": "109435", "name": "Protoperidiniaceae", "sprite": "sp-anchoviella_juruasanga.png", "group": "other", "rarity": 1}, {"lat": -35.5413, "lng": -24.0734, "id": "212583", "name": "Diomedea exulans", "sprite": "sp-anchoviella_juruasanga.png", "group": "other", "rarity": 1}, {"lat": -33.0, "lng": -26.983, "id": "1056478", "name": "Cornutosergestes cornutus", "sprite": "sp-american_lobster.png", "group": "crab_lobster", "rarity": 1}]}