{"zoom": 6, "x": 28, "y": 25, "points": [{"lat": 35.7561, "lng": -22.1754, "id": "127026", "name": "Albacore", "thumb": "tn_Thala_u4.jpg", "sprite": "sp-bluefin_tuna.png", "group": "tuna_mackerel", "rarity": 1, "waterType": "Saltwater"}, {"lat": 35.0312, "lng": -21.2418, "id": "107100", "name": "Funchalia villosa", "sprite": "sp-american_lobster.png", "group": "crab_lobster", "rarity": 1}, {"lat": 34.4067, "lng": -17.2767, "id": "125946", "name": "Trachurus", "sprite": "sp-anchoviella_juruasanga.png", "group": "other", "rarity": 1}, {"lat": 32.6667, "lng": -21.3333, "id": "183205", "name": "Hymenopenaeus laevis", "sprite": "sp-american_lobster.png", "group": "crab_lobster", "rarity": 1}, {"lat": 36.0, "lng": -18.0, "id": "273823", "name": "Pacific bluefin tuna", "thumb": "tn_Thori_u1.gif", "sprite": "sp-bluefin_tuna.png", "group": "tuna_mackerel", "rarity": 1, "waterType": "Brackish"}, {"lat": 36.25, "lng": -18.3608, "id": "127846", "name": "Paraconchoecia spinifera", "sprite": "sp-anchoviella_juruasanga.png", "group": "other", "rarity": 1}, {"lat": 32.639, "lng": -16.896, "id": "342295", "name": "Enoploteuthis anapsis", "sprite": "sp-giant_pacific_octopus.png", "group": "octopus_squid", "rarity": 1}, {"lat": 32.7129, "lng": -17.0055, "id": "127047", "name": "Bogue", "thumb": "tn_Boboo_u3.jpg", "sprite": "sp-anchoviella_juruasanga.png", "group": "other", "rarity": 1, "waterType": "Saltwater"}, {"lat": 34.9, "lng": -21.45, "id": "103911", "name": "Polycarpa pseudoalbatrossi", "sprite": "sp-anchoviella_juruasanga.png", "group": "other", "rarity": 1}, {"lat": 32.4608, "lng": -22.0183, "id": "127795", "name": "Halocypris pelagica", "sprite": "sp-anchoviella_juruasanga.png", "group": "other", "rarity": 1}, {"lat": 33.03, "lng": -21.98, "id": "423170", "name": "Augeneria albidentata", "sprite": "sp-anchoviella_juruasanga.png", "group": "other", "rarity": 1}, {"lat": 33.0167, "lng": -17.7333, "id": "137098", "name": "Grampus griseus", "sprite": "sp-bottlenose_dolphin.png", "group": "dolphin", "rarity": 1}, {"lat": 35.4941, "lng": -17.7588, "id": "137119", "name": "Physeter macrocephalus", "sprite": "sp-blue_whale.png", "group": "whale", "rarity": 1}, {"lat": 34.0, "lng": -17.0, "id": "183127", "name": "Dicarpa simplex", "sprite": "sp-anchoviella_juruasanga.png", "group": "other", "rarity": 1}, {"lat": 35.6556, "lng": -19.3056, "id": "125620", "name": "Anguilla", "sprite": "sp-electric_eel.png", "group": "eel", "rarity": 1}, {"lat": 32.7033, "lng": -16.9533, "id": "126518", "name": "Shore clingfish", "thumb": "tn_Lelep_u8.jpg", "sprite": "sp-anchoviella_juruasanga.png", "group": "other", "rarity": 1, "waterType": "Saltwater"}, {"lat": 34.8667, "lng": -21.4056, "id": "103876", "name": "Cnemidocarpa platybranchia", "sprite": "sp-anchoviella_juruasanga.png", "group": "other", "rarity": 1}, {"lat": 34.0, "lng": -17.0, "id": "124171", "name": "Bathycrinus gracilis", "sprite": "sp-sea_cucumber.png", "group": "starfish", "rarity": 1}, {"lat": 32.5083, "lng": -17.0, "id": "182956", "name": "Altiverruca quadrangularis", "sprite": "sp-anchoviella_juruasanga.png", "group": "other", "rarity": 1}, {"lat": 33.7266, "lng": -21.454, "id": "148794", "name": "Hydrobatidae", "sprite": "sp-anchoviella_juruasanga.png", "group": "other", "rarity": 1}, {"lat": 32.1466, "lng": -20.4525, "id": "127832", "name": "Orthoconchoecia secernenda", "sprite": "sp-anchoviella_juruasanga.png", "group": "other", "rarity": 1}, {"lat": 33.0333, "lng": -21.9833, "id": "103644", "name": "Aplidium enigmaticum", "sprite": "sp-anchoviella_juruasanga.png", "group": "other", "rarity": 1}, {"lat": 32.64, "lng": -16.9, "id": "131330", "name": "Opisthodonta morena", "sprite": "sp-anchoviella_juruasanga.png", "group": "other", "rarity": 1}, {"lat": 36.2829, "lng": -19.2558, "id": "135471", "name": "Rosacea plicata", "sprite": "sp-anchoviella_juruasanga.png", "group": "other", "rarity": 1}, {"lat": 32.6169, "lng": -17.0306, "id": "445503", "name": "Puffinus mauretanicus", "sprite": "sp-anchoviella_juruasanga.png", "group": "other", "rarity": 1}, {"lat": 33.7781, "lng": -21.3843, "id": "136998", "name": "Procellariidae", "sprite": "sp-anchoviella_juruasanga.png", "group": "other", "rarity": 1}, {"lat": 35.2, "lng": -21.4915, "id": "514121", "name": "Deosergestes henseni", "sprite": "sp-american_lobster.png", "group": "crab_lobster", "rarity": 1}, {"lat": 36.0, "lng": -19.0, "id": "103699", "name": "Proagnesia depressa", "sprite": "sp-anchoviella_juruasanga.png", "group": "other", "rarity": 1}, {"lat": 33.03, "lng": -21.98, "id": "731427", "name": "Melinnopsis abyssalis", "sprite": "sp-anchoviella_juruasanga.png", "group": "other", "rarity": 1}, {"lat": 34.9, "lng": -21.435, "id": "1314233", "name": "Lophuroecia lophura", "sprite": "sp-anchoviella_juruasanga.png", "group": "other", "rarity": 1}, {"lat": 32.6344, "lng": -17.0449, "id": "137193", "name": "Bulweria bulwerii", "sprite": "sp-anchoviella_juruasanga.png", "group": "other", "rarity": 1}, {"lat": 34.0254, "lng": -19.9648, "id": "1567956", "name": "Tenuitellita iota", "sprite": "sp-anchoviella_juruasanga.png", "group": "other", "rarity": 1}, {"lat": 32.685, "lng": -16.95, "id": "100809", "name": "Anthopleura ballii", "sprite": "sp-actiniidae.png", "group": "coral", "rarity": 1}, {"lat": 32.1466, "lng": -20.4525, "id": "135465", "name": "Nectopyramis thetis", "sprite": "sp-anchoviella_juruasanga.png", "group": "other", "rarity": 1}, {"lat": 32.7027, "lng": -16.9677, "id": "126963", "name": "Mediterranean rainbow wrasse", "thumb": "tn_Cojul_m1.jpg", "sprite": "sp-cleaner_wrasse.png", "group": "wrasse", "rarity": 1, "waterType": "Saltwater"}, {"lat": 32.483, "lng": -20.15, "id": "361583", "name": "Scolecitrichopsis difficilis", "sprite": "sp-anchoviella_juruasanga.png", "group": "other", "rarity": 1}, {"lat": 35.8305, "lng": -20.494, "id": "1026410", "name": "Globoconella inflata", "sprite": "sp-anchoviella_juruasanga.png", "group": "other", "rarity": 1}, {"lat": 32.75, "lng": -17.0, "id": "159500", "name": "Pygmy filefish", "thumb": "tn_Moset_u0.jpg", "sprite": "sp-anchoviella_juruasanga.png", "group": "other", "rarity": 1, "waterType": "Saltwater"}, {"lat": 32.5417, "lng": -17.0333, "id": "134389", "name": "Farrea foliascens", "sprite": "sp-barrel_sponge.png", "group": "sponge", "rarity": 1}, {"lat": 33.0003, "lng": -21.9962, "id": "221331", "name": "Pulleniatina obliquiloculata", "sprite": "sp-anchoviella_juruasanga.png", "group": "other", "rarity": 1}, {"lat": 35.992, "lng": -21.792, "id": "163248", "name": "Hemiaulus", "sprite": "sp-anchoviella_juruasanga.png", "group": "other", "rarity": 1}, {"lat": 32.483, "lng": -20.15, "id": "104842", "name": "Mimocalanus ovalis", "sprite": "sp-anchoviella_juruasanga.png", "group": "other", "rarity": 1}, {"lat": 35.3624, "lng": -21.7421, "id": "154721", "name": "Grey triggerfish", "thumb": "tn_Bacar_u4.jpg", "sprite": "sp-balistidae.png", "group": "triggerfish", "rarity": 1, "waterType": "Saltwater"}, {"lat": 35.2824, "lng": -21.3924, "id": "137205", "name": "Caretta caretta", "sprite": "sp-green_sea_turtle.png", "group": "sea_turtle", "rarity": 1}, {"lat": 33.5466, "lng": -18.2368, "id": "1056501", "name": "Gardinerosergia splendens", "sprite": "sp-american_lobster.png", "group": "crab_lobster", "rarity": 1}, {"lat": 33.5984, "lng": -20.878, "id": "2081", "name": "Chaetognatha", "sprite": "sp-anchoviella_juruasanga.png", "group": "other", "rarity": 1}, {"lat": 33.5971, "lng": -20.8778, "id": "235923", "name": "Calcidiscus leptoporus", "sprite": "sp-anchoviella_juruasanga.png", "group": "other", "rarity": 1}, {"lat": 33.7333, "lng": -18.5816, "id": "514141", "name": "Parasergestes vigilax", "sprite": "sp-american_lobster.png", "group": "crab_lobster", "rarity": 1}, {"lat": 33.5971, "lng": -20.8778, "id": "232625", "name": "Podolampas palmipes", "sprite": "sp-anchoviella_juruasanga.png", "group": "other", "rarity": 1}, {"lat": 36.2983, "lng": -19.2733, "id": "135416", "name": "Heteropyramis maculata", "sprite": "sp-anchoviella_juruasanga.png", "group": "other", "rarity": 1}, {"lat": 36.2675, "lng": -19.2383, "id": "135335", "name": "Physonectae", "sprite": "sp-anchoviella_juruasanga.png", "group": "other", "rarity": 1}, {"lat": 32.64, "lng": -16.9, "id": "131276", "name": "Autolytus syllisetosus", "sprite": "sp-anchoviella_juruasanga.png", "group": "other", "rarity": 1}, {"lat": 33.425, "lng": -18.2583, "id": "157031", "name": "Pyroteuthis margaritifera", "sprite": "sp-giant_pacific_octopus.png", "group": "octopus_squid", "rarity": 1}, {"lat": 32.6847, "lng": -17.1148, "id": "2688", "name": "Cetacea", "sprite": "sp-anchoviella_juruasanga.png", "group": "other", "rarity": 1}, {"lat": 32.1466, "lng": -20.4525, "id": "125498", "name": "Myctophidae", "sprite": "sp-anchoviella_juruasanga.png", "group": "other", "rarity": 1}, {"lat": 33.85, "lng": -18.922, "id": "139422", "name": "Bathothauma lyromma", "sprite": "sp-giant_pacific_octopus.png", "group": "octopus_squid", "rarity": 1}, {"lat": 36.0, "lng": -19.0, "id": "103847", "name": "Minipera papillosa", "sprite": "sp-anchoviella_juruasanga.png", "group": "other", "rarity": 1}, {"lat": 32.45, "lng": -22.07, "id": "120216", "name": "Siriella thompsonii", "sprite": "sp-american_lobster.png", "group": "crab_lobster", "rarity": 1}, {"lat": 33.3249, "lng": -21.9443, "id": "113454", "name": "Globoturborotalita rubescens", "sprite": "sp-anchoviella_juruasanga.png", "group": "other", "rarity": 1}, {"lat": 35.8271, "lng": -20.484, "id": "113434", "name": "Globigerina bulloides", "sprite": "sp-anchoviella_juruasanga.png", "group": "other", "rarity": 1}, {"lat": 36.2983, "lng": -19.2733, "id": "135466", "name": "Praya dubia", "sprite": "sp-anchoviella_juruasanga.png", "group": "other", "rarity": 1}, {"lat": 36.2675, "lng": -19.2383, "id": "135393", "name": "Apolemia", "sprite": "sp-anchoviella_juruasanga.png", "group": "other", "rarity": 1}, {"lat": 33.2833, "lng": -18.0557, "id": "138517", "name": "Spirula", "sprite": "sp-giant_pacific_octopus.png", "group": "octopus_squid", "rarity": 1}, {"lat": 36.25, "lng": -18.3609, "id": "127793", "name": "Halocypria globosa", "sprite": "sp-anchoviella_juruasanga.png", "group": "other", "rarity": 1}, {"lat": 32.1466, "lng": -20.4525, "id": "110686", "name": "Euphausia hemigibba", "sprite": "sp-antarctic_krill.png", "group": "shrimp", "rarity": 1}, {"lat": 33.0737, "lng": -22.0509, "id": "137168", "name": "Phalaropus fulicarius", "sprite": "sp-anchoviella_juruasanga.png", "group": "other", "rarity": 1}, {"lat": 32.6435, "lng": -16.9086, "id": "104616", "name": "Mecynocera clausi", "sprite": "sp-anchoviella_juruasanga.png", "group": "other", "rarity": 1}, {"lat": 32.1466, "lng": -20.4525, "id": "127833", "name": "Paraconchoecia aequiseta", "sprite": "sp-anchoviella_juruasanga.png", "group": "other", "rarity": 1}, {"lat": 34.095, "lng": -17.11, "id": "130467", "name": "Nothria conchylega", "sprite": "sp-anchoviella_juruasanga.png", "group": "other", "rarity": 1}, {"lat": 35.142, "lng": -21.2, "id": "140610", "name": "Ocythoe tuberculata", "sprite": "sp-giant_pacific_octopus.png", "group": "octopus_squid", "rarity": 1}, {"lat": 33.5971, "lng": -20.8778, "id": "149318", "name": "Nitzschia delicatissima", "sprite": "sp-anchoviella_juruasanga.png", "group": "other", "rarity": 1}, {"lat": 34.0, "lng": -17.0, "id": "103939", "name": "Styela similis", "sprite": "sp-anchoviella_juruasanga.png", "group": "other", "rarity": 1}, {"lat": 32.75, "lng": -17.33, "id": "135216", "name": "Peponocyathus folliculus", "sprite": "sp-actiniidae.png", "group": "coral", "rarity": 1}, {"lat": 32.5083, "lng": -17.0, "id": "106175", "name": "Smilium acutum", "sprite": "sp-anchoviella_juruasanga.png", "group": "other", "rarity": 1}, {"lat": 36.3191, "lng": -19.2912, "id": "135340", "name": "Prayidae", "sprite": "sp-anchoviella_juruasanga.png", "group": "other", "rarity": 1}, {"lat": 32.8195, "lng": -17.2634, "id": "137108", "name": "Stenella frontalis", "sprite": "sp-bottlenose_dolphin.png", "group": "dolphin", "rarity": 1}, {"lat": 33.9422, "lng": -21.8385, "id": "113433", "name": "Beella digitata", "sprite": "sp-anchoviella_juruasanga.png", "group": "other", "rarity": 1}, {"lat": 32.7333, "lng": -17.0, "id": "480454", "name": "Cylindrostoma pleiocelis", "sprite": "sp-anchoviella_juruasanga.png", "group": "other", "rarity": 1}, {"lat": 32.75, "lng": -17.0, "id": "126375", "name": "Garfish", "thumb": "tn_Bebel_u3.jpg", "sprite": "sp-anchoviella_juruasanga.png", "group": "other", "rarity": 1, "waterType": "Brackish"}, {"lat": 32.1466, "lng": -20.4525, "id": "1649781", "name": "Hansarsia", "sprite": "sp-antarctic_krill.png", "group": "shrimp", "rarity": 1}, {"lat": 34.0, "lng": -17.0, "id": "103869", "name": "Cnemidocarpa digonas", "sprite": "sp-anchoviella_juruasanga.png", "group": "other", "rarity": 1}, {"lat": 34.0, "lng": -17.0, "id": "123932", "name": "Hyphalaster inermis", "sprite": "sp-sea_cucumber.png", "group": "starfish", "rarity": 1}, {"lat": 32.54, "lng": -17.03, "id": "135112", "name": "Enallopsammia", "sprite": "sp-actiniidae.png", "group": "coral", "rarity": 1}, {"lat": 36.2558, "lng": -20.385, "id": "104161", "name": "Clausocalanus", "sprite": "sp-anchoviella_juruasanga.png", "group": "other", "rarity": 1}, {"lat": 32.8689, "lng": -17.1708, "id": "138451", "name": "Onoba", "sprite": "sp-cowrie_shell.png", "group": "sea_snail", "rarity": 1}, {"lat": 36.068, "lng": -21.39, "id": "840627", "name": "Tripos furca", "sprite": "sp-anchoviella_juruasanga.png", "group": "other", "rarity": 1}, {"lat": 33.5971, "lng": -20.8778, "id": "101195", "name": "Strombidium", "sprite": "sp-anchoviella_juruasanga.png", "group": "other", "rarity": 1}, {"lat": 32.1, "lng": -18.2, "id": "127716", "name": "Macrocypridina castanea", "sprite": "sp-anchoviella_juruasanga.png", "group": "other", "rarity": 1}, {"lat": 32.75, "lng": -17.0, "id": "125691", "name": "Cheilopogon", "sprite": "sp-flying_fish.png", "group": "flying_fish", "rarity": 1}, {"lat": 32.7985, "lng": -17.1156, "id": "137064", "name": "Pterodroma", "sprite": "sp-anchoviella_juruasanga.png", "group": "other", "rarity": 1}, {"lat": 32.1466, "lng": -20.4525, "id": "125672", "name": "Scopelosaurus", "sprite": "sp-anchoviella_juruasanga.png", "group": "other", "rarity": 1}, {"lat": 34.1, "lng": -17.0667, "id": "123080", "name": "Asteroidea", "sprite": "sp-sea_cucumber.png", "group": "starfish", "rarity": 1}, {"lat": 34.0458, "lng": -17.0458, "id": "136054", "name": "Nephasoma (Nephasoma) constricticervix", "sprite": "sp-anchoviella_juruasanga.png", "group": "other", "rarity": 1}, {"lat": 36.0, "lng": -18.5, "id": "103876", "name": "Cnemidocarpa platybranchia", "sprite": "sp-anchoviella_juruasanga.png", "group": "other", "rarity": 1}, {"lat": 34.2625, "lng": -19.0936, "id": "817972", "name": "Parthenina jeanpaulkrepsi", "sprite": "sp-cowrie_shell.png", "group": "sea_snail", "rarity": 1}, {"lat": 34.4067, "lng": -17.2767, "id": "125471", "name": "Macrouridae", "sprite": "sp-anchoviella_juruasanga.png", "group": "other", "rarity": 1}, {"lat": 35.2516, "lng": -18.7448, "id": "1348497", "name": "Calonectris borealis", "sprite": "sp-anchoviella_juruasanga.png", "group": "other", "rarity": 1}, {"lat": 32.7245, "lng": -16.9903, "id": "851906", "name": "Patella ordinaria", "sprite": "sp-cowrie_shell.png", "group": "sea_snail", "rarity": 1}, {"lat": 36.0, "lng": -19.0, "id": "107582", "name": "Acanthephyra purpurea", "sprite": "sp-american_lobster.png", "group": "crab_lobster", "rarity": 1}, {"lat": 32.1223, "lng": -20.4437, "id": "176635", "name": "Archiconchoecetta ventricosa", "sprite": "sp-anchoviella_juruasanga.png", "group": "other", "rarity": 1}, {"lat": 32.7195, "lng": -16.9815, "id": "126422", "name": "Round sardinella", "thumb": "tn_Saaur_u4.jpg", "sprite": "sp-anchoviella_juruasanga.png", "group": "other", "rarity": 1, "waterType": "Brackish"}, {"lat": 34.1167, "lng": -17.1167, "id": "103811", "name": "Protomolgula bythia", "sprite": "sp-anchoviella_juruasanga.png", "group": "other", "rarity": 1}, {"lat": 32.75, "lng": -17.0, "id": "126382", "name": "Mediterranean flyingfish", "thumb": "tn_Chhet_u1.jpg", "sprite": "sp-flying_fish.png", "group": "flying_fish", "rarity": 1, "waterType": "Saltwater"}, {"lat": 32.1466, "lng": -20.4525, "id": "127860", "name": "Proceroecia microprocera", "sprite": "sp-anchoviella_juruasanga.png", "group": "other", "rarity": 1}, {"lat": 33.3886, "lng": -17.9761, "id": "127347", "name": "Eustomias obscurus", "thumb": "tn_Euobs_u0.gif", "sprite": "sp-anchoviella_juruasanga.png", "group": "other", "rarity": 1, "waterType": "Saltwater"}, {"lat": 32.1466, "lng": -20.4525, "id": "135457", "name": "Desmophyes annectens", "sprite": "sp-anchoviella_juruasanga.png", "group": "other", "rarity": 1}, {"lat": 36.0, "lng": -19.0, "id": "117684", "name": "Cryptolarella abyssicola", "sprite": "sp-anchoviella_juruasanga.png", "group": "other", "rarity": 1}, {"lat": 32.8789, "lng": -16.9359, "id": "137051", "name": "Stercorarius", "sprite": "sp-anchoviella_juruasanga.png", "group": "other", "rarity": 1}, {"lat": 32.74, "lng": -17.0, "id": "135211", "name": "Madracis asperula", "sprite": "sp-actiniidae.png", "group": "coral", "rarity": 1}, {"lat": 36.3037, "lng": -19.2737, "id": "135420", "name": "Diphyes dispar", "sprite": "sp-anchoviella_juruasanga.png", "group": "other", "rarity": 1}, {"lat": 36.3019, "lng": -19.2736, "id": "135454", "name": "Amphicaryon acaule", "sprite": "sp-anchoviella_juruasanga.png", "group": "other", "rarity": 1}, {"lat": 32.0644, "lng": -21.4875, "id": "1314230", "name": "Macrochoecilla macrocheira", "sprite": "sp-anchoviella_juruasanga.png", "group": "other", "rarity": 1}, {"lat": 32.628, "lng": -16.9261, "id": "126404", "name": "Mediterranean slimehead", "thumb": "tn_Homed_u2.jpg", "sprite": "sp-anchoviella_juruasanga.png", "group": "other", "rarity": 1, "waterType": "Saltwater"}, {"lat": 32.1466, "lng": -20.4525, "id": "1", "name": "Biota", "sprite": "sp-anchoviella_juruasanga.png", "group": "other", "rarity": 1}, {"lat": 32.3833, "lng": -17.0833, "id": "116115", "name": "Microsetella norvegica", "sprite": "sp-anchoviella_juruasanga.png", "group": "other", "rarity": 1}, {"lat": 32.7326, "lng": -16.9894, "id": "126866", "name": "Roudi escolar", "thumb": "tn_Prpro_f0.jpg", "sprite": "sp-anchoviella_juruasanga.png", "group": "other", "rarity": 1, "waterType": "Saltwater"}, {"lat": 34.11, "lng": -17.11, "id": "131520", "name": "Pista mirabilis", "sprite": "sp-anchoviella_juruasanga.png", "group": "other", "rarity": 1}, {"lat": 32.1466, "lng": -20.4525, "id": "110704", "name": "Stylocheiron maximum", "sprite": "sp-antarctic_krill.png", "group": "shrimp", "rarity": 1}, {"lat": 34.975, "lng": -21.0807, "id": "514141", "name": "Parasergestes vigilax", "sprite": "sp-american_lobster.png", "group": "crab_lobster", "rarity": 1}, {"lat": 36.0683, "lng": -21.3907, "id": "149153", "name": "Pseudo-nitzschia delicatissima", "sprite": "sp-anchoviella_juruasanga.png", "group": "other", "rarity": 1}]}