{"zoom": 6, "x": 28, "y": 27, "points": [{"lat": 26.668, "lng": -19.0767, "id": "221331", "name": "Pulleniatina obliquiloculata", "sprite": "sp-anchoviella_juruasanga.png", "group": "other", "rarity": 1}, {"lat": 25.0, "lng": -17.0, "id": "126394", "name": "Alfonsino", "thumb": "tn_Bedec_f0.jpg", "sprite": "sp-anchoviella_juruasanga.png", "group": "other", "rarity": 1, "waterType": "Saltwater"}, {"lat": 23.9989, "lng": -20.0008, "id": "418108", "name": "Sphaeroidinella dehiscens", "sprite": "sp-anchoviella_juruasanga.png", "group": "other", "rarity": 1}, {"lat": 22.909, "lng": -17.2963, "id": "126473", "name": "Common Atlantic grenadier", "thumb": "tn_Neaeq_u0.jpg", "sprite": "sp-anchoviella_juruasanga.png", "group": "other", "rarity": 1, "waterType": "Saltwater"}, {"lat": 22.9508, "lng": -17.6788, "id": "126721", "name": "Bigscale deepsea smelt", "thumb": "tn_Meber_u1.jpg", "sprite": "sp-anchoviella_juruasanga.png", "group": "other", "rarity": 1, "waterType": "Saltwater"}, {"lat": 23.8, "lng": -21.0, "id": "127333", "name": "Bathophilus vaillanti", "sprite": "sp-anchoviella_juruasanga.png", "group": "other", "rarity": 1, "waterType": "Saltwater"}, {"lat": 23.4673, "lng": -17.6267, "id": "136980", "name": "Delphinidae", "sprite": "sp-bottlenose_dolphin.png", "group": "dolphin", "rarity": 1}, {"lat": 24.0, "lng": -17.5, "id": "126384", "name": "Oceanic two-wing flyingfish", "thumb": "tn_Exobt_u0.gif", "sprite": "sp-flying_fish.png", "group": "flying_fish", "rarity": 1, "waterType": "Saltwater"}, {"lat": 26.7, "lng": -21.2, "id": "181378", "name": "Lampadioteuthis megaleia", "sprite": "sp-giant_pacific_octopus.png", "group": "octopus_squid", "rarity": 1}, {"lat": 25.595, "lng": -19.2167, "id": "125625", "name": "Gnathophis", "sprite": "sp-electric_eel.png", "group": "eel", "rarity": 1}, {"lat": 23.0058, "lng": -17.6233, "id": "126626", "name": "Pearly lanternfish", "thumb": "tn_Mynit_u0.jpg", "sprite": "sp-anchoviella_juruasanga.png", "group": "other", "rarity": 1, "waterType": "Saltwater"}, {"lat": 22.5083, "lng": -16.8967, "id": "139265", "name": "Mangelia attenuata", "sprite": "sp-cowrie_shell.png", "group": "sea_snail", "rarity": 1}, {"lat": 22.7192, "lng": -17.1485, "id": "113756", "name": "Trifarina angulosa", "sprite": "sp-anchoviella_juruasanga.png", "group": "other", "rarity": 1}, {"lat": 25.0, "lng": -17.0, "id": "127393", "name": "Broadnosed pipefish", "thumb": "tn_Sytyp_u6.jpg", "sprite": "sp-cosmocampus_coccineus.png", "group": "seahorse", "rarity": 1, "waterType": "Brackish"}, {"lat": 22.5233, "lng": -16.9089, "id": "570684", "name": "Nassarius semistriatus", "sprite": "sp-cowrie_shell.png", "group": "sea_snail", "rarity": 1}, {"lat": 25.615, "lng": -19.2333, "id": "126194", "name": "Vinciguerria", "sprite": "sp-anchoviella_juruasanga.png", "group": "other", "rarity": 1}, {"lat": 25.0, "lng": -17.0, "id": "403345", "name": "Portuguese sole", "thumb": "tn_Dalus_u0.jpg", "sprite": "sp-atlantic_halibut.png", "group": "flatfish", "rarity": 1, "waterType": "Brackish"}, {"lat": 22.8059, "lng": -17.4858, "id": "154229", "name": "Melanostomiinae", "sprite": "sp-anchoviella_juruasanga.png", "group": "other", "rarity": 1}, {"lat": 24.1818, "lng": -17.1737, "id": "107362", "name": "Stenorhynchus lanceolatus", "sprite": "sp-american_lobster.png", "group": "crab_lobster", "rarity": 1}, {"lat": 22.5083, "lng": -16.8967, "id": "876821", "name": "Tritia reticulata", "sprite": "sp-cowrie_shell.png", "group": "sea_snail", "rarity": 1}, {"lat": 23.2833, "lng": -21.1623, "id": "137214", "name": "Salpida", "sprite": "sp-anchoviella_juruasanga.png", "group": "other", "rarity": 1}, {"lat": 22.5052, "lng": -20.5025, "id": "571429", "name": "Roseospirillum", "sprite": "sp-anchoviella_juruasanga.png", "group": "other", "rarity": 1}, {"lat": 23.2217, "lng": -17.9539, "id": "112704", "name": "Sigmoilopsis schlumbergeri", "sprite": "sp-anchoviella_juruasanga.png", "group": "other", "rarity": 1}, {"lat": 22.5052, "lng": -20.5025, "id": "563947", "name": "Polaribacter", "sprite": "sp-anchoviella_juruasanga.png", "group": "other", "rarity": 1}, {"lat": 25.0, "lng": -17.0, "id": "126281", "name": "European eel", "thumb": "tn_Anang_u6.jpg", "sprite": "sp-electric_eel.png", "group": "eel", "rarity": 1, "waterType": "Brackish"}, {"lat": 23.89, "lng": -20.68, "id": "408130", "name": "Rhinoclama semistrigosa", "sprite": "sp-blue_mussel.png", "group": "clam_mussel", "rarity": 1}, {"lat": 22.6925, "lng": -17.1471, "id": "113118", "name": "Lobatula lobatula", "sprite": "sp-anchoviella_juruasanga.png", "group": "other", "rarity": 1}, {"lat": 23.005, "lng": -17.3555, "id": "113030", "name": "Bulimina aculeata", "sprite": "sp-anchoviella_juruasanga.png", "group": "other", "rarity": 1}, {"lat": 22.5052, "lng": -20.5025, "id": "392754", "name": "Deltaproteobacteria", "sprite": "sp-anchoviella_juruasanga.png", "group": "other", "rarity": 1}, {"lat": 25.0, "lng": -17.0, "id": "105839", "name": "Shortfin mako", "thumb": "tn_Isoxy_u0.jpg", "sprite": "sp-great_white_shark.png", "group": "shark", "rarity": 1, "waterType": "Saltwater"}, {"lat": 22.7301, "lng": -17.3063, "id": "135457", "name": "Desmophyes annectens", "sprite": "sp-anchoviella_juruasanga.png", "group": "other", "rarity": 1}, {"lat": 25.85, "lng": -21.483, "id": "127830", "name": "Orthoconchoecia bispinosa", "sprite": "sp-anchoviella_juruasanga.png", "group": "other", "rarity": 1}, {"lat": 23.8, "lng": -21.0, "id": "127372", "name": "Photostomias guernei", "thumb": "tn_Phgue_u0.jpg", "sprite": "sp-anchoviella_juruasanga.png", "group": "other", "rarity": 1, "waterType": "Saltwater"}, {"lat": 25.0, "lng": -17.0, "id": "219964", "name": "Spotfin burrfish", "thumb": "tn_Chatr_u3.jpg", "sprite": "sp-fahaka_pufferfish.png", "group": "pufferfish", "rarity": 1, "waterType": "Saltwater"}, {"lat": 22.5479, "lng": -16.9154, "id": "224812", "name": "Aporrhais senegalensis", "sprite": "sp-cowrie_shell.png", "group": "sea_snail", "rarity": 1}, {"lat": 25.0339, "lng": -16.9839, "id": "126684", "name": "Risso's smooth-head", "thumb": "tn_Alros_u0.jpg", "sprite": "sp-anchoviella_juruasanga.png", "group": "other", "rarity": 1, "waterType": "Saltwater"}, {"lat": 22.6217, "lng": -20.0467, "id": "127825", "name": "Mollicia kampta", "sprite": "sp-anchoviella_juruasanga.png", "group": "other", "rarity": 1}, {"lat": 22.5592, "lng": -16.9192, "id": "138675", "name": "Acanthochitona crinita", "sprite": "sp-anchoviella_juruasanga.png", "group": "other", "rarity": 1}, {"lat": 22.83, "lng": -17.7709, "id": "126594", "name": "Spothead lantern fish", "thumb": "tn_Dimet_u0.jpg", "sprite": "sp-anchoviella_juruasanga.png", "group": "other", "rarity": 1, "waterType": "Saltwater"}, {"lat": 24.9525, "lng": -16.9292, "id": "126697", "name": "Murray's smooth-head", "sprite": "sp-anchoviella_juruasanga.png", "group": "other", "rarity": 1, "waterType": "Saltwater"}, {"lat": 26.9278, "lng": -19.0065, "id": "1026410", "name": "Globoconella inflata", "sprite": "sp-anchoviella_juruasanga.png", "group": "other", "rarity": 1}, {"lat": 23.5048, "lng": -18.7044, "id": "221249", "name": "Globigerina falconensis", "sprite": "sp-anchoviella_juruasanga.png", "group": "other", "rarity": 1}, {"lat": 26.35, "lng": -21.711, "id": "1056501", "name": "Gardinerosergia splendens", "sprite": "sp-american_lobster.png", "group": "crab_lobster", "rarity": 1}, {"lat": 22.417, "lng": -19.0, "id": "107605", "name": "Systellaspis debilis", "sprite": "sp-american_lobster.png", "group": "crab_lobster", "rarity": 1}, {"lat": 25.3, "lng": -21.5333, "id": "104472", "name": "Neocalanus robustior", "sprite": "sp-anchoviella_juruasanga.png", "group": "other", "rarity": 1}, {"lat": 22.5052, "lng": -20.5025, "id": "393034", "name": "Marinobacter", "sprite": "sp-anchoviella_juruasanga.png", "group": "other", "rarity": 1}, {"lat": 25.0, "lng": -17.0, "id": "273960", "name": "Canary dentex", "thumb": "tn_Decan_u0.gif", "sprite": "sp-anchoviella_juruasanga.png", "group": "other", "rarity": 1, "waterType": "Saltwater"}, {"lat": 24.608, "lng": -17.45, "id": "127734", "name": "Alacia valdiviae", "sprite": "sp-anchoviella_juruasanga.png", "group": "other", "rarity": 1}, {"lat": 22.5422, "lng": -16.9117, "id": "224384", "name": "Clavatula bimarginata", "sprite": "sp-cowrie_shell.png", "group": "sea_snail", "rarity": 1}, {"lat": 25.1833, "lng": -20.95, "id": "410340", "name": "Bolitaena pygmaea", "sprite": "sp-giant_pacific_octopus.png", "group": "octopus_squid", "rarity": 1}, {"lat": 23.005, "lng": -17.3555, "id": "113554", "name": "Chilostomella ovoidea", "sprite": "sp-anchoviella_juruasanga.png", "group": "other", "rarity": 1}, {"lat": 25.8498, "lng": -19.1749, "id": "345553", "name": "Umbilicosphaera foliosa", "sprite": "sp-anchoviella_juruasanga.png", "group": "other", "rarity": 1}, {"lat": 27.0, "lng": -19.0, "id": "127376", "name": "Longbarb scaly dragonfish", "thumb": "tn_Stlon_u0.jpg", "sprite": "sp-anchoviella_juruasanga.png", "group": "other", "rarity": 1, "waterType": "Saltwater"}, {"lat": 22.5479, "lng": -16.9154, "id": "138889", "name": "Chauvetia recondita", "sprite": "sp-cowrie_shell.png", "group": "sea_snail", "rarity": 1}, {"lat": 24.9943, "lng": -17.695, "id": "137205", "name": "Caretta caretta", "sprite": "sp-green_sea_turtle.png", "group": "sea_turtle", "rarity": 1}, {"lat": 25.0, "lng": -17.0, "id": "126484", "name": "European hake", "thumb": "tn_Memer_u5.jpg", "sprite": "sp-anchoviella_juruasanga.png", "group": "other", "rarity": 1, "waterType": "Saltwater"}, {"lat": 27.0, "lng": -17.0, "id": "126292", "name": "Duckbill oceanic eel", "thumb": "tn_Neing_u1.jpg", "sprite": "sp-electric_eel.png", "group": "eel", "rarity": 1, "waterType": "Saltwater"}, {"lat": 27.0, "lng": -19.0, "id": "127324", "name": "Astronesthes leucopogon", "sprite": "sp-anchoviella_juruasanga.png", "group": "other", "rarity": 1, "waterType": "Saltwater"}, {"lat": 22.5533, "lng": -16.9333, "id": "140552", "name": "Sinum bifasciatum", "sprite": "sp-cowrie_shell.png", "group": "sea_snail", "rarity": 1}, {"lat": 22.5052, "lng": -20.5025, "id": "571203", "name": "Methylocella", "sprite": "sp-anchoviella_juruasanga.png", "group": "other", "rarity": 1}, {"lat": 22.8927, "lng": -17.6233, "id": "126585", "name": "Madeira lantern fish", "thumb": "tn_Cemad_u0.jpg", "sprite": "sp-anchoviella_juruasanga.png", "group": "other", "rarity": 1, "waterType": "Saltwater"}, {"lat": 22.5458, "lng": -16.9317, "id": "140322", "name": "Marginella glabella", "sprite": "sp-cowrie_shell.png", "group": "sea_snail", "rarity": 1}, {"lat": 22.1833, "lng": -22.0167, "id": "127778", "name": "Conchoecissa imbricata", "sprite": "sp-anchoviella_juruasanga.png", "group": "other", "rarity": 1}, {"lat": 24.717, "lng": -17.017, "id": "127807", "name": "Metaconchoecia inflata", "sprite": "sp-anchoviella_juruasanga.png", "group": "other", "rarity": 1}, {"lat": 23.5247, "lng": -18.491, "id": "1026286", "name": "Trilobatus sacculifer", "sprite": "sp-anchoviella_juruasanga.png", "group": "other", "rarity": 1}, {"lat": 22.5052, "lng": -20.5025, "id": "565463", "name": "Planctomycetaceae", "sprite": "sp-anchoviella_juruasanga.png", "group": "other", "rarity": 1}, {"lat": 25.0, "lng": -17.0, "id": "281260", "name": "Hairy blenny", "thumb": "tn_Lanuc_u0.jpg", "sprite": "sp-helcogramma_ascensionis.png", "group": "blenny", "rarity": 1, "waterType": "Saltwater"}, {"lat": 22.5052, "lng": -20.5025, "id": "570324", "name": "Algicola", "sprite": "sp-anchoviella_juruasanga.png", "group": "other", "rarity": 1}, {"lat": 25.0542, "lng": -17.9584, "id": "269783", "name": "Malacosarcus", "sprite": "sp-anchoviella_juruasanga.png", "group": "other", "rarity": 1}, {"lat": 22.94, "lng": -17.66, "id": "126581", "name": "Smallfin lanternfish", "thumb": "tn_Besub_u1.gif", "sprite": "sp-anchoviella_juruasanga.png", "group": "other", "rarity": 1, "waterType": "Saltwater"}, {"lat": 23.607, "lng": -21.1223, "id": "107602", "name": "Oplophorus spinosus", "sprite": "sp-american_lobster.png", "group": "crab_lobster", "rarity": 1}, {"lat": 25.8498, "lng": -19.1749, "id": "115104", "name": "Emiliania huxleyi", "sprite": "sp-anchoviella_juruasanga.png", "group": "other", "rarity": 1}, {"lat": 26.5003, "lng": -18.0, "id": "126556", "name": "Humpback anglerfish", "thumb": "tn_Mejoh_u2.gif", "sprite": "sp-deep_sea_anglerfish.png", "group": "anglerfish", "rarity": 1, "waterType": "Saltwater"}, {"lat": 25.615, "lng": -19.2333, "id": "126339", "name": "Indian sabretooth", "thumb": "tn_Evind_u0.gif", "sprite": "sp-anchoviella_juruasanga.png", "group": "other", "rarity": 1, "waterType": "Saltwater"}, {"lat": 22.8531, "lng": -17.3066, "id": "397221", "name": "Globocassidulina crassa", "sprite": "sp-anchoviella_juruasanga.png", "group": "other", "rarity": 1}, {"lat": 22.225, "lng": -17.425, "id": "127027", "name": "Yellowfin tuna", "thumb": "tn_Thalb_u0.jpg", "sprite": "sp-bluefin_tuna.png", "group": "tuna_mackerel", "rarity": 1, "waterType": "Brackish"}, {"lat": 23.8858, "lng": -17.2585, "id": "126467", "name": "Globehead grenadier", "thumb": "tn_Ceglo_u0.jpg", "sprite": "sp-anchoviella_juruasanga.png", "group": "other", "rarity": 1, "waterType": "Saltwater"}, {"lat": 22.5525, "lng": -16.9308, "id": "224735", "name": "Persicula cingulata", "sprite": "sp-cowrie_shell.png", "group": "sea_snail", "rarity": 1}, {"lat": 24.608, "lng": -17.45, "id": "127797", "name": "Loricoecia ctenophora", "sprite": "sp-anchoviella_juruasanga.png", "group": "other", "rarity": 1}, {"lat": 22.549, "lng": -16.919, "id": "215164", "name": "Turritella torulosa", "sprite": "sp-cowrie_shell.png", "group": "sea_snail", "rarity": 1}, {"lat": 25.8498, "lng": -19.1749, "id": "235979", "name": "Syracosphaera pulchra", "sprite": "sp-anchoviella_juruasanga.png", "group": "other", "rarity": 1}, {"lat": 23.519, "lng": -18.7043, "id": "1047807", "name": "Fohsella robusta", "sprite": "sp-anchoviella_juruasanga.png", "group": "other", "rarity": 1}, {"lat": 22.9667, "lng": -17.0, "id": "271684", "name": "Marbled electric ray", "thumb": "tn_Tomar_u1.jpg", "sprite": "sp-himantura_australis.png", "group": "ray", "rarity": 1, "waterType": "Brackish"}, {"lat": 23.783, "lng": -20.983, "id": "342104", "name": "Pterygioteuthis gemmata", "sprite": "sp-giant_pacific_octopus.png", "group": "octopus_squid", "rarity": 1}, {"lat": 22.565, "lng": -16.905, "id": "138456", "name": "Rissoa", "sprite": "sp-cowrie_shell.png", "group": "sea_snail", "rarity": 1}, {"lat": 25.1833, "lng": -20.95, "id": "127165", "name": "Pelican eel", "thumb": "tn_Eupel_u4.jpg", "sprite": "sp-anchoviella_juruasanga.png", "group": "other", "rarity": 1, "waterType": "Saltwater"}, {"lat": 25.2661, "lng": -18.6278, "id": "127374", "name": "Boa dragonfish", "thumb": "tn_Stboa_u1.jpg", "sprite": "sp-anchoviella_juruasanga.png", "group": "other", "rarity": 1, "waterType": "Saltwater"}, {"lat": 25.0, "lng": -17.0, "id": "105883", "name": "Thornback ray", "thumb": "tn_Racla_u4.jpg", "sprite": "sp-himantura_australis.png", "group": "ray", "rarity": 1, "waterType": "Saltwater"}, {"lat": 23.1083, "lng": -17.7, "id": "105907", "name": "Portuguese dogfish", "thumb": "tn_Cecoe_f0.jpg", "sprite": "sp-great_white_shark.png", "group": "shark", "rarity": 1, "waterType": "Saltwater"}, {"lat": 23.8, "lng": -21.0, "id": "127279", "name": "Ragged bigscale", "thumb": "tn_Scmiz_u1.jpg", "sprite": "sp-anchoviella_juruasanga.png", "group": "other", "rarity": 1, "waterType": "Saltwater"}, {"lat": 23.519, "lng": -18.7043, "id": "735166", "name": "Globoquadrina dehiscens", "sprite": "sp-anchoviella_juruasanga.png", "group": "other", "rarity": 1}, {"lat": 23.6917, "lng": -17.075, "id": "105918", "name": "Knifetooth dogfish", "thumb": "tn_Scrin_u0.jpg", "sprite": "sp-great_white_shark.png", "group": "shark", "rarity": 1, "waterType": "Saltwater"}, {"lat": 25.595, "lng": -19.2167, "id": "158900", "name": "Dofleini's lantern fish", "thumb": "tn_Lodof_u1.jpg", "sprite": "sp-anchoviella_juruasanga.png", "group": "other", "rarity": 1, "waterType": "Saltwater"}, {"lat": 23.9653, "lng": -19.5431, "id": "118819", "name": "Aegiochus gracilipes", "sprite": "sp-american_lobster.png", "group": "crab_lobster", "rarity": 1}, {"lat": 25.65, "lng": -18.3, "id": "107169", "name": "Munidopsis acutispina", "sprite": "sp-american_lobster.png", "group": "crab_lobster", "rarity": 1}, {"lat": 25.0, "lng": -17.0, "id": "1525993", "name": "Giant sea catfish", "thumb": "tn_Argig_u9.jpg", "sprite": "sp-blue_catfish.png", "group": "catfish", "rarity": 1, "waterType": "Brackish"}, {"lat": 22.5308, "lng": -16.915, "id": "141753", "name": "Calliostoma granulatum", "sprite": "sp-cowrie_shell.png", "group": "sea_snail", "rarity": 1}, {"lat": 22.15, "lng": -17.6167, "id": "105831", "name": "Frilled shark", "thumb": "tn_Chang_m0.jpg", "sprite": "sp-great_white_shark.png", "group": "shark", "rarity": 1, "waterType": "Saltwater"}, {"lat": 25.595, "lng": -19.2167, "id": "281518", "name": "Manducus maderensis", "thumb": "tn_Dimad_u0.jpg", "sprite": "sp-anchoviella_juruasanga.png", "group": "other", "rarity": 1, "waterType": "Saltwater"}, {"lat": 22.5052, "lng": -20.5025, "id": "393948", "name": "Comamonadaceae", "sprite": "sp-anchoviella_juruasanga.png", "group": "other", "rarity": 1}, {"lat": 26.7, "lng": -21.033, "id": "137853", "name": "Taonius", "sprite": "sp-giant_pacific_octopus.png", "group": "octopus_squid", "rarity": 1}, {"lat": 22.6109, "lng": -20.0625, "id": "125447", "name": "Paralepididae", "sprite": "sp-anchoviella_juruasanga.png", "group": "other", "rarity": 1}, {"lat": 22.5083, "lng": -16.8967, "id": "140489", "name": "Demoulia obtusata", "sprite": "sp-cowrie_shell.png", "group": "sea_snail", "rarity": 1}, {"lat": 24.8001, "lng": -18.1151, "id": "137091", "name": "Balaenoptera physalus", "sprite": "sp-blue_whale.png", "group": "whale", "rarity": 1}, {"lat": 22.7547, "lng": -17.1617, "id": "112189", "name": "Gyroidinoides", "sprite": "sp-anchoviella_juruasanga.png", "group": "other", "rarity": 1}, {"lat": 22.5052, "lng": -20.5025, "id": "393043", "name": "Halomonadaceae", "sprite": "sp-anchoviella_juruasanga.png", "group": "other", "rarity": 1}, {"lat": 22.7508, "lng": -17.2491, "id": "135435", "name": "Lensia meteori", "sprite": "sp-anchoviella_juruasanga.png", "group": "other", "rarity": 1}, {"lat": 25.575, "lng": -19.2, "id": "125624", "name": "Conger", "sprite": "sp-electric_eel.png", "group": "eel", "rarity": 1}, {"lat": 26.7404, "lng": -19.0574, "id": "418114", "name": "Globorotalia tumida", "sprite": "sp-anchoviella_juruasanga.png", "group": "other", "rarity": 1}, {"lat": 25.4369, "lng": -20.8926, "id": "138849", "name": "Japetella diaphana", "sprite": "sp-giant_pacific_octopus.png", "group": "octopus_squid", "rarity": 1}, {"lat": 22.99, "lng": -17.3283, "id": "113933", "name": "Eggerelloides advena", "sprite": "sp-anchoviella_juruasanga.png", "group": "other", "rarity": 1}, {"lat": 25.575, "lng": -19.2, "id": "126202", "name": "Astronesthes", "sprite": "sp-anchoviella_juruasanga.png", "group": "other", "rarity": 1}, {"lat": 22.5083, "lng": -16.8967, "id": "553029", "name": "Dorsanum miran", "sprite": "sp-cowrie_shell.png", "group": "sea_snail", "rarity": 1}, {"lat": 23.9368, "lng": -18.072, "id": "105710", "name": "Myliobatidae", "sprite": "sp-himantura_australis.png", "group": "ray", "rarity": 1}, {"lat": 25.0, "lng": -17.0, "id": "126421", "name": "European pilchard", "thumb": "tn_Sapil_u6.jpg", "sprite": "sp-anchoviella_juruasanga.png", "group": "other", "rarity": 1, "waterType": "Brackish"}, {"lat": 22.5052, "lng": -20.5025, "id": "394204", "name": "Maricaulis", "sprite": "sp-anchoviella_juruasanga.png", "group": "other", "rarity": 1}, {"lat": 22.6109, "lng": -20.0625, "id": "240810", "name": "Acanthephyra kingsleyi", "sprite": "sp-american_lobster.png", "group": "crab_lobster", "rarity": 1}, {"lat": 24.3383, "lng": -17.07, "id": "603684", "name": "Brigantedinium", "sprite": "sp-anchoviella_juruasanga.png", "group": "other", "rarity": 1}, {"lat": 22.595, "lng": -17.625, "id": "126326", "name": "Muddy arrowtooth eel", "thumb": "tn_Ilbru_u0.gif", "sprite": "sp-electric_eel.png", "group": "eel", "rarity": 1, "waterType": "Saltwater"}, {"lat": 25.0, "lng": -17.0, "id": "274297", "name": "Bathysolea polli", "sprite": "sp-atlantic_halibut.png", "group": "flatfish", "rarity": 1, "waterType": "Saltwater"}]}