{"zoom": 6, "x": 2, "y": 27, "points": [{"lat": 23.8574, "lng": -165.796, "id": "128495", "name": "Pennatula", "sprite": "sp-actiniidae.png", "group": "coral", "rarity": 1}, {"lat": 23.7696, "lng": -166.2063, "id": "1601", "name": "Hydractiniidae", "sprite": "sp-anchoviella_juruasanga.png", "group": "other", "rarity": 1}, {"lat": 24.9736, "lng": -167.9378, "id": "376054", "name": "Microdictyon setchellianum", "sprite": "sp-anchoviella_juruasanga.png", "group": "other", "rarity": 1}, {"lat": 24.6972, "lng": -166.8607, "id": "212040", "name": "Large-spotted snake moray", "thumb": "tn_Urpol_u0.jpg", "sprite": "sp-anarchias.png", "group": "moray", "rarity": 1, "waterType": "Saltwater"}, {"lat": 23.7835, "lng": -166.2075, "id": "125557", "name": "Scaridae", "sprite": "sp-scaridae.png", "group": "parrotfish", "rarity": 1}, {"lat": 23.5517, "lng": -164.5611, "id": "276567", "name": "Longtailed slopefish", "thumb": "tn_Symau_u1.jpg", "sprite": "sp-anchoviella_juruasanga.png", "group": "other", "rarity": 1, "waterType": "Saltwater"}, {"lat": 23.5752, "lng": -164.6984, "id": "212859", "name": "Johnston Island damsel", "thumb": "tn_Pljoh_u5.jpg", "sprite": "sp-chrysiptera_caesifrons.png", "group": "clownfish", "rarity": 1, "waterType": "Saltwater"}, {"lat": 24.8667, "lng": -168.0667, "id": "219708", "name": "Kawakawa", "thumb": "tn_Euaff_u3.jpg", "sprite": "sp-bluefin_tuna.png", "group": "tuna_mackerel", "rarity": 1, "waterType": "Saltwater"}, {"lat": 23.5798, "lng": -164.702, "id": "260575", "name": "Hawaianira peleae", "sprite": "sp-american_lobster.png", "group": "crab_lobster", "rarity": 1}, {"lat": 23.8705, "lng": -166.2843, "id": "395005", "name": "Nesochthamalus intertextus", "sprite": "sp-anchoviella_juruasanga.png", "group": "other", "rarity": 1}, {"lat": 24.9995, "lng": -167.9975, "id": "130510", "name": "Polyophthalmus pictus", "sprite": "sp-anchoviella_juruasanga.png", "group": "other", "rarity": 1}, {"lat": 23.5701, "lng": -164.7062, "id": "287714", "name": "Montipora incrassata", "sprite": "sp-actiniidae.png", "group": "coral", "rarity": 1}, {"lat": 23.5746, "lng": -164.7054, "id": "218708", "name": "Blue sea chub", "thumb": "tn_Kycin_u7.jpg", "sprite": "sp-anchoviella_juruasanga.png", "group": "other", "rarity": 1, "waterType": "Saltwater"}, {"lat": 22.1136, "lng": -167.1401, "id": "125296", "name": "Metallogorgia", "sprite": "sp-actiniidae.png", "group": "coral", "rarity": 1}, {"lat": 24.3321, "lng": -166.0811, "id": "286307", "name": "Acanella weberi", "sprite": "sp-actiniidae.png", "group": "coral", "rarity": 1}, {"lat": 23.866, "lng": -166.2579, "id": "1130", "name": "Decapoda", "sprite": "sp-american_lobster.png", "group": "crab_lobster", "rarity": 1}, {"lat": 23.6786, "lng": -166.1464, "id": "144021", "name": "Neogoniolithon", "sprite": "sp-anchoviella_juruasanga.png", "group": "other", "rarity": 1}, {"lat": 23.7683, "lng": -166.2602, "id": "140388", "name": "Aspella anceps", "sprite": "sp-cowrie_shell.png", "group": "sea_snail", "rarity": 1}, {"lat": 23.7836, "lng": -166.1891, "id": "931", "name": "Phyllodocidae", "sprite": "sp-anchoviella_juruasanga.png", "group": "other", "rarity": 1}, {"lat": 23.7843, "lng": -166.2068, "id": "130067", "name": "Eunice vittata", "sprite": "sp-anchoviella_juruasanga.png", "group": "other", "rarity": 1}, {"lat": 23.7727, "lng": -166.2163, "id": "1307752", "name": "Ophiomastix macroplaca", "sprite": "sp-sea_cucumber.png", "group": "starfish", "rarity": 1}, {"lat": 23.7962, "lng": -166.3544, "id": "138363", "name": "Pleurobranchaea", "sprite": "sp-cowrie_shell.png", "group": "sea_snail", "rarity": 1}, {"lat": 23.9644, "lng": -166.6981, "id": "286786", "name": "Coenosmilia inordinata", "sprite": "sp-actiniidae.png", "group": "coral", "rarity": 1}, {"lat": 23.5313, "lng": -164.6787, "id": "275485", "name": "Magnificent snake eel", "thumb": "tn_Mymag_u1.jpg", "sprite": "sp-electric_eel.png", "group": "eel", "rarity": 1, "waterType": "Saltwater"}, {"lat": 23.7623, "lng": -166.2647, "id": "210232", "name": "Pseudosquilla ciliata", "sprite": "sp-american_lobster.png", "group": "crab_lobster", "rarity": 1}, {"lat": 24.7584, "lng": -167.575, "id": "218482", "name": "Common bluestripe snapper", "thumb": "tn_Lukas_u9.jpg", "sprite": "sp-mutton_snapper.png", "group": "snapper", "rarity": 1, "waterType": "Saltwater"}, {"lat": 24.8667, "lng": -168.0667, "id": "218730", "name": "Threadfin butterflyfish", "thumb": "tn_Chaur_uv.jpg", "sprite": "sp-chaetodon.png", "group": "butterflyfish", "rarity": 1, "waterType": "Saltwater"}, {"lat": 23.5742, "lng": -164.7486, "id": "137111", "name": "Tursiops truncatus", "sprite": "sp-bottlenose_dolphin.png", "group": "dolphin", "rarity": 1}, {"lat": 23.6333, "lng": -166.1582, "id": "123395", "name": "Diadema", "sprite": "sp-sea_cucumber.png", "group": "starfish", "rarity": 1}, {"lat": 23.8585, "lng": -166.206, "id": "145635", "name": "Hypnea spinella", "sprite": "sp-anchoviella_juruasanga.png", "group": "other", "rarity": 1}, {"lat": 25.8317, "lng": -168.7133, "id": "107462", "name": "Planes minutus", "sprite": "sp-american_lobster.png", "group": "crab_lobster", "rarity": 1}, {"lat": 23.4167, "lng": -165.3, "id": "126385", "name": "Tropical two-wing flyingfish", "thumb": "tn_Exvol_u2.gif", "sprite": "sp-flying_fish.png", "group": "flying_fish", "rarity": 1, "waterType": "Saltwater"}, {"lat": 24.415, "lng": -166.0908, "id": "171623", "name": "Tretopleura", "sprite": "sp-barrel_sponge.png", "group": "sponge", "rarity": 1}, {"lat": 25.6765, "lng": -165.0894, "id": "171623", "name": "Tretopleura", "sprite": "sp-barrel_sponge.png", "group": "sponge", "rarity": 1}, {"lat": 26.205, "lng": -167.465, "id": "1128", "name": "Euphausiacea", "sprite": "sp-antarctic_krill.png", "group": "shrimp", "rarity": 1}, {"lat": 23.1932, "lng": -163.4573, "id": "286148", "name": "Chrysogorgia stellata", "sprite": "sp-actiniidae.png", "group": "coral", "rarity": 1}, {"lat": 23.5777, "lng": -164.7007, "id": "217530", "name": "Tiger reef-eel", "thumb": "tn_Sctig_u2.jpg", "sprite": "sp-anarchias.png", "group": "moray", "rarity": 1, "waterType": "Saltwater"}, {"lat": 24.7584, "lng": -167.575, "id": "217937", "name": "Shy soldier", "thumb": "tn_Pllim_u6.jpg", "sprite": "sp-anchoviella_juruasanga.png", "group": "other", "rarity": 1, "waterType": "Saltwater"}, {"lat": 23.6868, "lng": -166.2485, "id": "765580", "name": "Pyrgocythara mighelsi", "sprite": "sp-cowrie_shell.png", "group": "sea_snail", "rarity": 1}, {"lat": 23.8733, "lng": -166.2347, "id": "211010", "name": "Chiridota rigida", "sprite": "sp-sea_cucumber.png", "group": "starfish", "rarity": 1}, {"lat": 23.7616, "lng": -166.2023, "id": "441008", "name": "Beuroisia major", "sprite": "sp-american_lobster.png", "group": "crab_lobster", "rarity": 1}, {"lat": 23.8295, "lng": -166.1845, "id": "216954", "name": "Rissoina ambigua", "sprite": "sp-cowrie_shell.png", "group": "sea_snail", "rarity": 1}, {"lat": 24.2728, "lng": -166.0355, "id": "468895", "name": "Hydractinia gorgonoides", "sprite": "sp-anchoviella_juruasanga.png", "group": "other", "rarity": 1}, {"lat": 23.7017, "lng": -166.1745, "id": "208760", "name": "Carupa tenuipes", "sprite": "sp-american_lobster.png", "group": "crab_lobster", "rarity": 1}, {"lat": 23.7, "lng": -164.6, "id": "368076", "name": "Sympagurus dofleini", "sprite": "sp-american_lobster.png", "group": "crab_lobster", "rarity": 1}, {"lat": 23.7988, "lng": -166.2121, "id": "902", "name": "Orbiniidae", "sprite": "sp-anchoviella_juruasanga.png", "group": "other", "rarity": 1}, {"lat": 23.5751, "lng": -164.7049, "id": "118287", "name": "Amakusanthura", "sprite": "sp-american_lobster.png", "group": "crab_lobster", "rarity": 1}, {"lat": 23.8271, "lng": -166.1887, "id": "1379631", "name": "Ptilella inflata", "sprite": "sp-actiniidae.png", "group": "coral", "rarity": 1}, {"lat": 24.9982, "lng": -168.0, "id": "145881", "name": "Valonia aegagropila", "sprite": "sp-anchoviella_juruasanga.png", "group": "other", "rarity": 1}, {"lat": 24.3443, "lng": -166.028, "id": "1311247", "name": "Hemicorallium ducale", "sprite": "sp-actiniidae.png", "group": "coral", "rarity": 1}, {"lat": 24.8333, "lng": -167.6667, "id": "212041", "name": "Many-toothed snake moray", "thumb": "tn_Ursup_u0.jpg", "sprite": "sp-anarchias.png", "group": "moray", "rarity": 1, "waterType": "Saltwater"}, {"lat": 24.7584, "lng": -167.575, "id": "217797", "name": "Goatsbeard brotula", "thumb": "tn_Brmul_u6.jpg", "sprite": "sp-anchoviella_juruasanga.png", "group": "other", "rarity": 1, "waterType": "Saltwater"}, {"lat": 23.5667, "lng": -164.6833, "id": "143869", "name": "Wrangelia", "sprite": "sp-anchoviella_juruasanga.png", "group": "other", "rarity": 1}, {"lat": 23.8705, "lng": -166.2843, "id": "150467", "name": "Araneae", "sprite": "sp-anchoviella_juruasanga.png", "group": "other", "rarity": 1}, {"lat": 23.5681, "lng": -164.6825, "id": "210358", "name": "Panulirus penicillatus", "sprite": "sp-american_lobster.png", "group": "crab_lobster", "rarity": 1}, {"lat": 26.6121, "lng": -167.3473, "id": "128499", "name": "Umbellula", "sprite": "sp-actiniidae.png", "group": "coral", "rarity": 1}, {"lat": 23.8723, "lng": -166.2513, "id": "209078", "name": "Lophozozymus dodone", "sprite": "sp-american_lobster.png", "group": "crab_lobster", "rarity": 1}, {"lat": 23.7894, "lng": -166.1974, "id": "248421", "name": "Angeliera", "sprite": "sp-american_lobster.png", "group": "crab_lobster", "rarity": 1}, {"lat": 23.7443, "lng": -166.186, "id": "393107", "name": "Laevichlamys cuneata", "sprite": "sp-blue_mussel.png", "group": "clam_mussel", "rarity": 1}, {"lat": 24.0092, "lng": -166.7109, "id": "287443", "name": "Gardineria hawaiiensis", "sprite": "sp-actiniidae.png", "group": "coral", "rarity": 1}, {"lat": 23.4883, "lng": -164.5891, "id": "144088", "name": "Padina", "sprite": "sp-anchoviella_juruasanga.png", "group": "other", "rarity": 1}, {"lat": 23.8169, "lng": -166.2414, "id": "208914", "name": "Eight-lined wrasse", "thumb": "tn_Psoct_u4.jpg", "sprite": "sp-cleaner_wrasse.png", "group": "wrasse", "rarity": 1, "waterType": "Saltwater"}, {"lat": 23.7669, "lng": -166.2508, "id": "366922", "name": "Pylopaguropsis keijii", "sprite": "sp-american_lobster.png", "group": "crab_lobster", "rarity": 1}, {"lat": 23.8433, "lng": -166.3252, "id": "205978", "name": "Cypraea", "sprite": "sp-cowrie_shell.png", "group": "sea_snail", "rarity": 1}, {"lat": 23.8445, "lng": -166.3348, "id": "555482", "name": "Purpurcapsula bayeri", "sprite": "sp-cowrie_shell.png", "group": "sea_snail", "rarity": 1}, {"lat": 23.7187, "lng": -166.2186, "id": "215258", "name": "Acar plicata", "sprite": "sp-blue_mussel.png", "group": "clam_mussel", "rarity": 1}, {"lat": 23.7505, "lng": -166.1631, "id": "213378", "name": "Echinothrix diadema", "sprite": "sp-sea_cucumber.png", "group": "starfish", "rarity": 1}, {"lat": 23.7667, "lng": -166.267, "id": "101770", "name": "Stenothoe", "sprite": "sp-american_lobster.png", "group": "crab_lobster", "rarity": 1}, {"lat": 24.9984, "lng": -167.9994, "id": "213527", "name": "Pteraeolidia ianthina", "sprite": "sp-cowrie_shell.png", "group": "sea_snail", "rarity": 1}, {"lat": 23.9822, "lng": -166.6721, "id": "291841", "name": "Corallium tortuosum", "sprite": "sp-actiniidae.png", "group": "coral", "rarity": 1}, {"lat": 23.5572, "lng": -164.705, "id": "1592293", "name": "Pycnochromis agilis", "sprite": "sp-chrysiptera_caesifrons.png", "group": "clownfish", "rarity": 1}, {"lat": 23.3983, "lng": -164.2817, "id": "282722", "name": "Scolecenchelys puhioilo", "sprite": "sp-electric_eel.png", "group": "eel", "rarity": 1, "waterType": "Saltwater"}, {"lat": 23.5667, "lng": -164.6833, "id": "699648", "name": "Feldmannia mitchelliae", "sprite": "sp-anchoviella_juruasanga.png", "group": "other", "rarity": 1}, {"lat": 23.2576, "lng": -163.628, "id": "558", "name": "Porifera", "sprite": "sp-barrel_sponge.png", "group": "sponge", "rarity": 1}, {"lat": 24.998, "lng": -167.9741, "id": "219642", "name": "Bluelined surgeonfish", "thumb": "tn_Acnig_uk.jpg", "sprite": "sp-acanthurus_albimento.png", "group": "surgeonfish", "rarity": 1, "waterType": "Saltwater"}, {"lat": 23.6828, "lng": -166.149, "id": "131981", "name": "Plakina", "sprite": "sp-barrel_sponge.png", "group": "sponge", "rarity": 1}, {"lat": 23.7639, "lng": -166.3375, "id": "212321", "name": "Ophiopeza spinosa", "sprite": "sp-sea_cucumber.png", "group": "starfish", "rarity": 1}, {"lat": 23.7823, "lng": -166.2327, "id": "147431", "name": "Arenaria interpres", "sprite": "sp-anchoviella_juruasanga.png", "group": "other", "rarity": 1}, {"lat": 23.8365, "lng": -166.2668, "id": "103456", "name": "Didemnum", "sprite": "sp-anchoviella_juruasanga.png", "group": "other", "rarity": 1}, {"lat": 23.7369, "lng": -166.1843, "id": "210901", "name": "Holothuria (Stauropora) pervicax", "sprite": "sp-sea_cucumber.png", "group": "starfish", "rarity": 1}, {"lat": 23.8197, "lng": -166.3295, "id": "206364", "name": "Turridrupa", "sprite": "sp-cowrie_shell.png", "group": "sea_snail", "rarity": 1}, {"lat": 23.5667, "lng": -164.6833, "id": "144472", "name": "Caulerpa racemosa", "sprite": "sp-anchoviella_juruasanga.png", "group": "other", "rarity": 1}, {"lat": 25.0006, "lng": -168.0011, "id": "144086", "name": "Dictyota", "sprite": "sp-anchoviella_juruasanga.png", "group": "other", "rarity": 1}, {"lat": 24.8331, "lng": -167.881, "id": "267805", "name": "Rhizosmilia", "sprite": "sp-actiniidae.png", "group": "coral", "rarity": 1}, {"lat": 23.5262, "lng": -164.9295, "id": "137110", "name": "Steno bredanensis", "sprite": "sp-bottlenose_dolphin.png", "group": "dolphin", "rarity": 1}, {"lat": 23.8242, "lng": -166.1907, "id": "367592", "name": "Dardanus sanguinocarpus", "sprite": "sp-american_lobster.png", "group": "crab_lobster", "rarity": 1}, {"lat": 23.7906, "lng": -166.232, "id": "374656", "name": "Dasya kristeniae", "sprite": "sp-anchoviella_juruasanga.png", "group": "other", "rarity": 1}, {"lat": 23.7517, "lng": -166.1471, "id": "494502", "name": "Thuridilla neona", "sprite": "sp-cowrie_shell.png", "group": "sea_snail", "rarity": 1}, {"lat": 24.999, "lng": -167.667, "id": "143914", "name": "Laurencia", "sprite": "sp-anchoviella_juruasanga.png", "group": "other", "rarity": 1}, {"lat": 25.0005, "lng": -168.001, "id": "214426", "name": "Bornetella sphaerica", "sprite": "sp-anchoviella_juruasanga.png", "group": "other", "rarity": 1}, {"lat": 23.65, "lng": -166.167, "id": "548600", "name": "Latigammaropsis afra", "sprite": "sp-american_lobster.png", "group": "crab_lobster", "rarity": 1}, {"lat": 23.7545, "lng": -166.3051, "id": "208421", "name": "Pyramidella dolabrata", "sprite": "sp-cowrie_shell.png", "group": "sea_snail", "rarity": 1}, {"lat": 23.5667, "lng": -164.6833, "id": "143917", "name": "Lophosiphonia", "sprite": "sp-anchoviella_juruasanga.png", "group": "other", "rarity": 1}, {"lat": 23.7697, "lng": -166.1569, "id": "599473", "name": "Pleurobranchus albiguttatus", "sprite": "sp-cowrie_shell.png", "group": "sea_snail", "rarity": 1}, {"lat": 23.317, "lng": -166.9, "id": "104473", "name": "Undinula vulgaris", "sprite": "sp-anchoviella_juruasanga.png", "group": "other", "rarity": 1}, {"lat": 24.1986, "lng": -166.0467, "id": "22612", "name": "Hexactinellida", "sprite": "sp-barrel_sponge.png", "group": "sponge", "rarity": 1}, {"lat": 23.8671, "lng": -166.2879, "id": "129677", "name": "Sphaerosyllis", "sprite": "sp-anchoviella_juruasanga.png", "group": "other", "rarity": 1}, {"lat": 24.7584, "lng": -167.575, "id": "105793", "name": "Blacktip shark", "thumb": "tn_Calim_f0.jpg", "sprite": "sp-great_white_shark.png", "group": "shark", "rarity": 1, "waterType": "Brackish"}, {"lat": 23.6577, "lng": -166.0738, "id": "490878", "name": "Caducifer decapitatus", "sprite": "sp-cowrie_shell.png", "group": "sea_snail", "rarity": 1}, {"lat": 23.8665, "lng": -166.239, "id": "476529", "name": "Monoplex nicobaricus", "sprite": "sp-cowrie_shell.png", "group": "sea_snail", "rarity": 1}, {"lat": 25.971, "lng": -164.7481, "id": "171733", "name": "Aspidoscopulia", "sprite": "sp-barrel_sponge.png", "group": "sponge", "rarity": 1}, {"lat": 23.4, "lng": -164.4, "id": "220806", "name": "Hypnea charoides", "sprite": "sp-anchoviella_juruasanga.png", "group": "other", "rarity": 1}, {"lat": 23.791, "lng": -166.213, "id": "125540", "name": "Kyphosidae", "sprite": "sp-anchoviella_juruasanga.png", "group": "other", "rarity": 1}, {"lat": 23.7677, "lng": -166.1831, "id": "215479", "name": "Conus miles", "sprite": "sp-cowrie_shell.png", "group": "sea_snail", "rarity": 1}, {"lat": 24.9935, "lng": -167.916, "id": "218511", "name": "Crimson jobfish", "thumb": "tn_Prfil_u4.jpg", "sprite": "sp-mutton_snapper.png", "group": "snapper", "rarity": 1, "waterType": "Saltwater"}, {"lat": 23.7796, "lng": -166.1923, "id": "219625", "name": "Orangespot surgeonfish", "thumb": "tn_Acoli_u0.jpg", "sprite": "sp-acanthurus_albimento.png", "group": "surgeonfish", "rarity": 1, "waterType": "Saltwater"}, {"lat": 23.5752, "lng": -164.6484, "id": "144203", "name": "Galaxaura", "sprite": "sp-anchoviella_juruasanga.png", "group": "other", "rarity": 1}, {"lat": 23.7881, "lng": -166.1766, "id": "274759", "name": "Humpback nohu", "thumb": "tn_Secon_u7.jpg", "sprite": "sp-parascorpaena_moultoni.png", "group": "scorpionfish", "rarity": 1, "waterType": "Saltwater"}, {"lat": 24.9907, "lng": -168.0048, "id": "277509", "name": "Spectacled parrotfish", "thumb": "tn_Chper_f1.jpg", "sprite": "sp-rainbow_parrotfish.png", "group": "parrotfish", "rarity": 1, "waterType": "Saltwater"}, {"lat": 23.8044, "lng": -166.2217, "id": "219630", "name": "Convict surgeonfish", "thumb": "tn_Actri_u9.jpg", "sprite": "sp-acanthurus_albimento.png", "group": "surgeonfish", "rarity": 1, "waterType": "Saltwater"}, {"lat": 23.1808, "lng": -163.4317, "id": "125355", "name": "Metallogorgia melanotrichos", "sprite": "sp-actiniidae.png", "group": "coral", "rarity": 1}, {"lat": 23.7695, "lng": -166.2005, "id": "144481", "name": "Halimeda discoidea", "sprite": "sp-anchoviella_juruasanga.png", "group": "other", "rarity": 1}, {"lat": 23.3, "lng": -164.4, "id": "1027781", "name": "Vertebrata foetidissima", "sprite": "sp-anchoviella_juruasanga.png", "group": "other", "rarity": 1}, {"lat": 23.8438, "lng": -166.2372, "id": "106738", "name": "Paguridae", "sprite": "sp-american_lobster.png", "group": "crab_lobster", "rarity": 1}, {"lat": 24.9819, "lng": -167.9688, "id": "219671", "name": "Spotted unicornfish", "thumb": "tn_Nabre_u4.jpg", "sprite": "sp-acanthurus_albimento.png", "group": "surgeonfish", "rarity": 1, "waterType": "Saltwater"}, {"lat": 24.9982, "lng": -167.9999, "id": "208945", "name": "Actinopyga obesa", "sprite": "sp-sea_cucumber.png", "group": "starfish", "rarity": 1}, {"lat": 23.7403, "lng": -166.3047, "id": "367257", "name": "Pillucina hawaiiensis", "sprite": "sp-blue_mussel.png", "group": "clam_mussel", "rarity": 1}, {"lat": 23.7101, "lng": -166.0951, "id": "591573", "name": "Euthymella bilix", "sprite": "sp-cowrie_shell.png", "group": "sea_snail", "rarity": 1}, {"lat": 24.4316, "lng": -166.0935, "id": "131590", "name": "Hexasterophora", "sprite": "sp-barrel_sponge.png", "group": "sponge", "rarity": 1}, {"lat": 23.7455, "lng": -166.1644, "id": "212371", "name": "Ophiocoma erinaceus", "sprite": "sp-sea_cucumber.png", "group": "starfish", "rarity": 1}]}