{"zoom": 6, "x": 30, "y": 29, "points": [{"lat": 12.4783, "lng": -10.5514, "id": "558", "name": "Porifera", "sprite": "sp-barrel_sponge.png", "group": "sponge", "rarity": 1}, {"lat": 12.4783, "lng": -10.5514, "id": "1137", "name": "Cumacea", "sprite": "sp-american_lobster.png", "group": "crab_lobster", "rarity": 1}, {"lat": 12.2667, "lng": -7.1333, "id": "274718", "name": "Smooth-cheek scorpionfish", "thumb": "tn_Scist_u2.jpg", "sprite": "sp-parascorpaena_moultoni.png", "group": "scorpionfish", "rarity": 1, "waterType": "Saltwater"}, {"lat": 15.3167, "lng": -8.4333, "id": "276359", "name": "Castin leatherjacket", "thumb": "tn_Olsal_u1.jpg", "sprite": "sp-anchoviella_juruasanga.png", "group": "other", "rarity": 1, "waterType": "Brackish"}, {"lat": 16.2583, "lng": -9.925, "id": "282455", "name": "Plain worm eel", "thumb": "tn_Psmic_u0.jpg", "sprite": "sp-electric_eel.png", "group": "eel", "rarity": 1, "waterType": "Saltwater"}, {"lat": 12.4783, "lng": -10.5514, "id": "1078", "name": "Ostracoda", "sprite": "sp-anchoviella_juruasanga.png", "group": "other", "rarity": 1}, {"lat": 13.0, "lng": -10.6417, "id": "126384", "name": "Oceanic two-wing flyingfish", "thumb": "tn_Exobt_u0.gif", "sprite": "sp-flying_fish.png", "group": "flying_fish", "rarity": 1, "waterType": "Saltwater"}, {"lat": 12.6669, "lng": -7.9831, "id": "317356", "name": "Redbelly tilapia", "thumb": "tn_Cozil_u0.jpg", "sprite": "sp-coptodon_louka.png", "group": "cichlid", "rarity": 1, "waterType": "Brackish"}, {"lat": 15.6667, "lng": -9.8167, "id": "276280", "name": "Two-beaked searobin", "thumb": "tn_Prbir_u2.jpg", "sprite": "sp-anchoviella_juruasanga.png", "group": "other", "rarity": 1, "waterType": "Saltwater"}, {"lat": 12.4783, "lng": -10.5514, "id": "1133", "name": "Tanaidacea", "sprite": "sp-american_lobster.png", "group": "crab_lobster", "rarity": 1}, {"lat": 12.933, "lng": -8.633, "id": "268352", "name": "Aplocheilichthys", "sprite": "sp-anchoviella_juruasanga.png", "group": "other", "rarity": 1}, {"lat": 12.6667, "lng": -7.9833, "id": "280149", "name": "Chiloglanis batesii", "thumb": "tn_Chbat_u0.gif", "sprite": "sp-blue_catfish.png", "group": "catfish", "rarity": 1, "waterType": "Brackish"}, {"lat": 14.95, "lng": -7.233, "id": "523676", "name": "Amaea guineensis", "sprite": "sp-cowrie_shell.png", "group": "sea_snail", "rarity": 1}, {"lat": 15.7833, "lng": -8.74, "id": "275908", "name": "Shortnose batfish", "thumb": "tn_Ognas_u0.jpg", "sprite": "sp-deep_sea_anglerfish.png", "group": "anglerfish", "rarity": 1, "waterType": "Saltwater"}, {"lat": 13.5, "lng": -6.3333, "id": "1605274", "name": "Neoniphon vexillarium", "sprite": "sp-anchoviella_juruasanga.png", "group": "other", "rarity": 1}, {"lat": 12.667, "lng": -7.983, "id": "268765", "name": "Chrysichthys", "sprite": "sp-blue_catfish.png", "group": "catfish", "rarity": 1}, {"lat": 14.2167, "lng": -9.0333, "id": "283119", "name": "Dwarf stingray", "thumb": "tn_Urnan_u0.jpg", "sprite": "sp-himantura_australis.png", "group": "ray", "rarity": 1, "waterType": "Saltwater"}, {"lat": 16.2753, "lng": -6.8433, "id": "835315", "name": "Conasprella mazei", "sprite": "sp-cowrie_shell.png", "group": "sea_snail", "rarity": 1}, {"lat": 14.2667, "lng": -9.05, "id": "271991", "name": "Yellow snake eel", "thumb": "tn_Opzop_u0.jpg", "sprite": "sp-electric_eel.png", "group": "eel", "rarity": 1, "waterType": "Saltwater"}, {"lat": 15.75, "lng": -6.1, "id": "127164", "name": "Bobtail eel", "thumb": "tn_Cyatr_u0.gif", "sprite": "sp-anchoviella_juruasanga.png", "group": "other", "rarity": 1, "waterType": "Saltwater"}, {"lat": 15.7589, "lng": -9.0978, "id": "279113", "name": "Smiling snake-eel", "thumb": "tn_Icsel_u0.jpg", "sprite": "sp-electric_eel.png", "group": "eel", "rarity": 1, "waterType": "Saltwater"}, {"lat": 12.667, "lng": -7.983, "id": "1015658", "name": "Chrysichthys auratus", "thumb": "tn_Chaur_uw.jpg", "sprite": "sp-blue_catfish.png", "group": "catfish", "rarity": 1, "waterType": "Brackish"}, {"lat": 12.667, "lng": -7.983, "id": "268785", "name": "Clarias", "sprite": "sp-blue_catfish.png", "group": "catfish", "rarity": 1}, {"lat": 16.0167, "lng": -8.5917, "id": "275912", "name": "Dwarf batfish", "thumb": "tn_Ogpum_u1.jpg", "sprite": "sp-deep_sea_anglerfish.png", "group": "anglerfish", "rarity": 1, "waterType": "Saltwater"}, {"lat": 11.5167, "lng": -8.15, "id": "277541", "name": "Malthopsis gnoma", "thumb": "tn_Magno_u0.jpg", "sprite": "sp-deep_sea_anglerfish.png", "group": "anglerfish", "rarity": 1, "waterType": "Saltwater"}, {"lat": 13.833, "lng": -8.467, "id": "268785", "name": "Clarias", "sprite": "sp-blue_catfish.png", "group": "catfish", "rarity": 1}, {"lat": 12.4783, "lng": -10.5514, "id": "1135", "name": "Amphipoda", "sprite": "sp-american_lobster.png", "group": "crab_lobster", "rarity": 1}, {"lat": 13.95, "lng": -8.1, "id": "240672", "name": "Caridina", "sprite": "sp-american_lobster.png", "group": "crab_lobster", "rarity": 1}, {"lat": 12.4783, "lng": -10.5514, "id": "1302", "name": "Pycnogonida", "sprite": "sp-anchoviella_juruasanga.png", "group": "other", "rarity": 1}, {"lat": 15.9669, "lng": -5.7169, "id": "273591", "name": "St. Helena wrasse", "thumb": "tn_Thsan_f0.jpg", "sprite": "sp-cleaner_wrasse.png", "group": "wrasse", "rarity": 1, "waterType": "Saltwater"}, {"lat": 12.6669, "lng": -7.9831, "id": "293731", "name": "Mango tilapia", "thumb": "tn_Sagal_u4.jpg", "sprite": "sp-coptodon_louka.png", "group": "cichlid", "rarity": 1, "waterType": "Brackish"}, {"lat": 12.667, "lng": -7.983, "id": "581707", "name": "Hyperopisus bebe", "thumb": "tn_Hybeb_u0.jpg", "sprite": "sp-anchoviella_juruasanga.png", "group": "other", "rarity": 1, "waterType": "Brackish"}, {"lat": 11.6833, "lng": -7.4, "id": "159566", "name": "Midwater scorpionfish", "thumb": "tn_Ecimu_u0.jpg", "sprite": "sp-anchoviella_juruasanga.png", "group": "other", "rarity": 1, "waterType": "Saltwater"}]}