{"zoom": 6, "x": 30, "y": 21, "points": [{"lat": 51.6152, "lng": -6.4497, "id": "152269", "name": "Tharyx killariensis", "sprite": "sp-anchoviella_juruasanga.png", "group": "other", "rarity": 1}, {"lat": 49.9114, "lng": -6.2964, "id": "157107", "name": "Chaetomorpha capillaris", "sprite": "sp-anchoviella_juruasanga.png", "group": "other", "rarity": 1}, {"lat": 49.7187, "lng": -9.829, "id": "1205", "name": "Hyperiidea", "sprite": "sp-american_lobster.png", "group": "crab_lobster", "rarity": 1}, {"lat": 51.456, "lng": -6.4598, "id": "1128", "name": "Euphausiacea", "sprite": "sp-antarctic_krill.png", "group": "shrimp", "rarity": 1}, {"lat": 51.9784, "lng": -7.238, "id": "147459", "name": "Patella pellucida", "sprite": "sp-cowrie_shell.png", "group": "sea_snail", "rarity": 1}, {"lat": 49.9478, "lng": -6.2672, "id": "131834", "name": "Haliclona", "sprite": "sp-barrel_sponge.png", "group": "sponge", "rarity": 1}, {"lat": 52.2802, "lng": -9.9177, "id": "131818", "name": "Spongosorites", "sprite": "sp-barrel_sponge.png", "group": "sponge", "rarity": 1}, {"lat": 50.0481, "lng": -6.5475, "id": "130576", "name": "Cirrophorus branchiatus", "sprite": "sp-anchoviella_juruasanga.png", "group": "other", "rarity": 1}, {"lat": 52.198, "lng": -6.4092, "id": "137166", "name": "Sterna sandvicensis", "sprite": "sp-anchoviella_juruasanga.png", "group": "other", "rarity": 1}, {"lat": 49.9691, "lng": -7.7117, "id": "127146", "name": "Megrim", "thumb": "tn_Lewhi_u0.jpg", "sprite": "sp-atlantic_halibut.png", "group": "flatfish", "rarity": 1, "waterType": "Saltwater"}, {"lat": 49.9543, "lng": -6.3004, "id": "145722", "name": "Chorda filum", "sprite": "sp-anchoviella_juruasanga.png", "group": "other", "rarity": 1}, {"lat": 49.8276, "lng": -7.2786, "id": "11676", "name": "Pisces", "sprite": "sp-anchoviella_juruasanga.png", "group": "other", "rarity": 1}, {"lat": 51.8594, "lng": -9.663, "id": "157561", "name": "Scolelepis (Parascolelepis) tridentata", "sprite": "sp-anchoviella_juruasanga.png", "group": "other", "rarity": 1}, {"lat": 50.4324, "lng": -7.8838, "id": "423507", "name": "Medicorophium affine", "sprite": "sp-american_lobster.png", "group": "crab_lobster", "rarity": 1}, {"lat": 50.9568, "lng": -9.7435, "id": "105876", "name": "Cuckoo ray", "thumb": "tn_Lenae_u1.jpg", "sprite": "sp-himantura_australis.png", "group": "ray", "rarity": 1, "waterType": "Saltwater"}, {"lat": 49.6374, "lng": -5.9941, "id": "837446", "name": "Tripos setaceus", "sprite": "sp-anchoviella_juruasanga.png", "group": "other", "rarity": 1}, {"lat": 51.7532, "lng": -9.9276, "id": "135141", "name": "Caryophyllia (Caryophyllia) inornata", "sprite": "sp-actiniidae.png", "group": "coral", "rarity": 1}, {"lat": 51.9764, "lng": -6.7762, "id": "117994", "name": "Tubularia indivisa", "sprite": "sp-anchoviella_juruasanga.png", "group": "other", "rarity": 1}, {"lat": 49.7363, "lng": -6.4947, "id": "103251", "name": "Hyperia galba", "sprite": "sp-american_lobster.png", "group": "crab_lobster", "rarity": 1}, {"lat": 51.8645, "lng": -9.6075, "id": "129211", "name": "Capitella", "sprite": "sp-anchoviella_juruasanga.png", "group": "other", "rarity": 1}, {"lat": 51.684, "lng": -9.0283, "id": "107739", "name": "Upogebia deltaura", "sprite": "sp-american_lobster.png", "group": "crab_lobster", "rarity": 1}, {"lat": 49.9428, "lng": -6.2743, "id": "132663", "name": "Hymeniacidon perlevis", "sprite": "sp-barrel_sponge.png", "group": "sponge", "rarity": 1}, {"lat": 49.9008, "lng": -7.3983, "id": "274304", "name": "Thickback sole", "thumb": "tn_Mivar_u1.jpg", "sprite": "sp-atlantic_halibut.png", "group": "flatfish", "rarity": 1, "waterType": "Saltwater"}, {"lat": 51.4225, "lng": -6.9216, "id": "130136", "name": "Glycinde nordmanni", "sprite": "sp-anchoviella_juruasanga.png", "group": "other", "rarity": 1}, {"lat": 49.9616, "lng": -6.8027, "id": "131394", "name": "Sphaerosyllis taylori", "sprite": "sp-anchoviella_juruasanga.png", "group": "other", "rarity": 1}, {"lat": 51.6938, "lng": -9.4373, "id": "109518", "name": "Amylax", "sprite": "sp-anchoviella_juruasanga.png", "group": "other", "rarity": 1}, {"lat": 49.9425, "lng": -6.3213, "id": "134687", "name": "Nymphon gracile", "sprite": "sp-anchoviella_juruasanga.png", "group": "other", "rarity": 1}, {"lat": 51.4848, "lng": -9.697, "id": "107703", "name": "Palinurus elephas", "sprite": "sp-american_lobster.png", "group": "crab_lobster", "rarity": 1}, {"lat": 49.474, "lng": -11.205, "id": "2333", "name": "Latronema", "sprite": "sp-anchoviella_juruasanga.png", "group": "other", "rarity": 1}, {"lat": 49.8112, "lng": -7.2791, "id": "157570", "name": "Sphaerodoridium claparedii", "sprite": "sp-anchoviella_juruasanga.png", "group": "other", "rarity": 1}, {"lat": 51.7344, "lng": -9.4955, "id": "149181", "name": "Pleurosigma", "sprite": "sp-anchoviella_juruasanga.png", "group": "other", "rarity": 1}, {"lat": 51.8609, "lng": -8.223, "id": "129785", "name": "Amphicteis midas", "sprite": "sp-anchoviella_juruasanga.png", "group": "other", "rarity": 1}, {"lat": 51.6128, "lng": -9.8464, "id": "110869", "name": "Cellaria", "sprite": "sp-anchoviella_juruasanga.png", "group": "other", "rarity": 1}, {"lat": 51.9448, "lng": -7.5588, "id": "110462", "name": "Iphinoe trispinosa", "sprite": "sp-american_lobster.png", "group": "crab_lobster", "rarity": 1}, {"lat": 51.5737, "lng": -9.4066, "id": "138636", "name": "Dosinia", "sprite": "sp-blue_mussel.png", "group": "clam_mussel", "rarity": 1}, {"lat": 49.9332, "lng": -6.2908, "id": "133147", "name": "Raspailia (Clathriodendron) hispida", "sprite": "sp-barrel_sponge.png", "group": "sponge", "rarity": 1}, {"lat": 50.2895, "lng": -6.7291, "id": "136060", "name": "Nephasoma (Nephasoma) minutum", "sprite": "sp-anchoviella_juruasanga.png", "group": "other", "rarity": 1}, {"lat": 51.64, "lng": -8.7578, "id": "147006", "name": "Malmgrenia", "sprite": "sp-anchoviella_juruasanga.png", "group": "other", "rarity": 1}, {"lat": 49.9767, "lng": -6.335, "id": "131729", "name": "Clathrina", "sprite": "sp-barrel_sponge.png", "group": "sponge", "rarity": 1}, {"lat": 49.6913, "lng": -9.202, "id": "137043", "name": "Larus", "sprite": "sp-anchoviella_juruasanga.png", "group": "other", "rarity": 1}, {"lat": 49.1489, "lng": -8.9946, "id": "130126", "name": "Glycera oxycephala", "sprite": "sp-anchoviella_juruasanga.png", "group": "other", "rarity": 1}, {"lat": 51.3842, "lng": -6.489, "id": "378492", "name": "Varicorbula gibba", "sprite": "sp-blue_mussel.png", "group": "clam_mussel", "rarity": 1}, {"lat": 49.9313, "lng": -6.3376, "id": "1039850", "name": "Steromphala umbilicalis", "sprite": "sp-cowrie_shell.png", "group": "sea_snail", "rarity": 1}, {"lat": 49.5905, "lng": -10.3089, "id": "140227", "name": "Limacina retroversa", "sprite": "sp-cowrie_shell.png", "group": "sea_snail", "rarity": 1}, {"lat": 51.7586, "lng": -9.4063, "id": "150457", "name": "Onchidoris bilamellata", "sprite": "sp-cowrie_shell.png", "group": "sea_snail", "rarity": 1}, {"lat": 49.8748, "lng": -11.0005, "id": "137209", "name": "Dermochelys coriacea", "sprite": "sp-green_sea_turtle.png", "group": "sea_turtle", "rarity": 1}, {"lat": 49.4952, "lng": -6.9267, "id": "104563", "name": "Paraeuchaeta hebes", "sprite": "sp-anchoviella_juruasanga.png", "group": "other", "rarity": 1}, {"lat": 49.6962, "lng": -9.7567, "id": "841263", "name": "Tripos minutus", "sprite": "sp-anchoviella_juruasanga.png", "group": "other", "rarity": 1}, {"lat": 51.9889, "lng": -6.6628, "id": "125516", "name": "Ammodytidae", "sprite": "sp-anchoviella_juruasanga.png", "group": "other", "rarity": 1}, {"lat": 51.7623, "lng": -9.8535, "id": "1381154", "name": "Tripos teres", "sprite": "sp-anchoviella_juruasanga.png", "group": "other", "rarity": 1}, {"lat": 51.5685, "lng": -9.0087, "id": "101930", "name": "Ampelisca tenuicornis", "sprite": "sp-american_lobster.png", "group": "crab_lobster", "rarity": 1}, {"lat": 51.4843, "lng": -6.3378, "id": "129414", "name": "Ophelina", "sprite": "sp-anchoviella_juruasanga.png", "group": "other", "rarity": 1}, {"lat": 49.2457, "lng": -8.93, "id": "101928", "name": "Ampelisca spinipes", "sprite": "sp-american_lobster.png", "group": "crab_lobster", "rarity": 1}, {"lat": 49.7542, "lng": -10.0169, "id": "137094", "name": "Delphinus delphis", "sprite": "sp-bottlenose_dolphin.png", "group": "dolphin", "rarity": 1}, {"lat": 49.9979, "lng": -5.9619, "id": "1607307", "name": "Wahlenbergiella mucosa", "sprite": "sp-anchoviella_juruasanga.png", "group": "other", "rarity": 1}, {"lat": 50.2015, "lng": -6.0488, "id": "111683", "name": "Entalophoroecia deflexa", "sprite": "sp-anchoviella_juruasanga.png", "group": "other", "rarity": 1}, {"lat": 49.9423, "lng": -6.2925, "id": "145888", "name": "Cladostephus spongiosus", "sprite": "sp-anchoviella_juruasanga.png", "group": "other", "rarity": 1}, {"lat": 50.2322, "lng": -7.2252, "id": "1803", "name": "Brachiopoda", "sprite": "sp-anchoviella_juruasanga.png", "group": "other", "rarity": 1}, {"lat": 50.1682, "lng": -7.5723, "id": "127379", "name": "Snake pipefish", "thumb": "tn_Enaeq_m0.jpg", "sprite": "sp-cosmocampus_coccineus.png", "group": "seahorse", "rarity": 1, "waterType": "Brackish"}, {"lat": 51.5566, "lng": -6.206, "id": "123082", "name": "Echinoidea", "sprite": "sp-sea_cucumber.png", "group": "starfish", "rarity": 1}, {"lat": 51.7748, "lng": -9.5677, "id": "130601", "name": "Pholoe inornata", "sprite": "sp-anchoviella_juruasanga.png", "group": "other", "rarity": 1}, {"lat": 52.1482, "lng": -9.8696, "id": "102843", "name": "Melita palmata", "sprite": "sp-american_lobster.png", "group": "crab_lobster", "rarity": 1}, {"lat": 52.0581, "lng": -6.7734, "id": "170654", "name": "Polymastia penicillus", "sprite": "sp-barrel_sponge.png", "group": "sponge", "rarity": 1}, {"lat": 49.4326, "lng": -9.8114, "id": "341501", "name": "Proboscia inermis", "sprite": "sp-anchoviella_juruasanga.png", "group": "other", "rarity": 1}, {"lat": 51.7428, "lng": -9.599, "id": "149630", "name": "Stephanopyxis", "sprite": "sp-anchoviella_juruasanga.png", "group": "other", "rarity": 1}, {"lat": 49.7823, "lng": -7.1863, "id": "102377", "name": "Megamphopus cornutus", "sprite": "sp-american_lobster.png", "group": "crab_lobster", "rarity": 1}, {"lat": 51.9048, "lng": -8.0977, "id": "129964", "name": "Cirriformia tentaculata", "sprite": "sp-anchoviella_juruasanga.png", "group": "other", "rarity": 1}, {"lat": 49.654, "lng": -9.3965, "id": "137172", "name": "Stercorarius parasiticus", "sprite": "sp-anchoviella_juruasanga.png", "group": "other", "rarity": 1}, {"lat": 51.7512, "lng": -9.7976, "id": "738997", "name": "Cradoscrupocellaria reptans", "sprite": "sp-anchoviella_juruasanga.png", "group": "other", "rarity": 1}, {"lat": 50.067, "lng": -5.6933, "id": "138199", "name": "Nucella", "sprite": "sp-cowrie_shell.png", "group": "sea_snail", "rarity": 1}, {"lat": 49.9401, "lng": -6.2606, "id": "132797", "name": "Haliclona (Halichoclona) fistulosa", "sprite": "sp-barrel_sponge.png", "group": "sponge", "rarity": 1}, {"lat": 52.1866, "lng": -6.91, "id": "1310442", "name": "Octactis speculum", "sprite": "sp-anchoviella_juruasanga.png", "group": "other", "rarity": 1}, {"lat": 51.939, "lng": -5.8937, "id": "111721", "name": "Plagioecia sarniensis", "sprite": "sp-anchoviella_juruasanga.png", "group": "other", "rarity": 1}, {"lat": 49.2284, "lng": -8.9097, "id": "138339", "name": "Philine", "sprite": "sp-cowrie_shell.png", "group": "sea_snail", "rarity": 1}, {"lat": 52.1048, "lng": -7.1628, "id": "109545", "name": "Scrippsiella", "sprite": "sp-anchoviella_juruasanga.png", "group": "other", "rarity": 1}, {"lat": 51.5003, "lng": -8.9881, "id": "607402", "name": "Hilbigneris gracilis", "sprite": "sp-anchoviella_juruasanga.png", "group": "other", "rarity": 1}, {"lat": 49.9217, "lng": -6.2818, "id": "123479", "name": "Cucumaria", "sprite": "sp-sea_cucumber.png", "group": "starfish", "rarity": 1}, {"lat": 49.0, "lng": -11.0, "id": "126307", "name": "Facciola's sorcerer", "thumb": "tn_Faoxy_u0.jpg", "sprite": "sp-electric_eel.png", "group": "eel", "rarity": 1, "waterType": "Saltwater"}, {"lat": 52.0583, "lng": -6.8513, "id": "989", "name": "Spirorbinae", "sprite": "sp-anchoviella_juruasanga.png", "group": "other", "rarity": 1}, {"lat": 51.8394, "lng": -9.3494, "id": "101430", "name": "Caprella", "sprite": "sp-american_lobster.png", "group": "crab_lobster", "rarity": 1}, {"lat": 52.0064, "lng": -7.3268, "id": "138135", "name": "Littorina", "sprite": "sp-cowrie_shell.png", "group": "sea_snail", "rarity": 1}, {"lat": 49.9376, "lng": -6.2502, "id": "140838", "name": "Polycera quadrilineata", "sprite": "sp-cowrie_shell.png", "group": "sea_snail", "rarity": 1}, {"lat": 51.5093, "lng": -9.5513, "id": "111374", "name": "Securiflustra securifrons", "sprite": "sp-anchoviella_juruasanga.png", "group": "other", "rarity": 1}, {"lat": 51.3491, "lng": -6.3999, "id": "743514", "name": "Neogyptis rosea", "sprite": "sp-anchoviella_juruasanga.png", "group": "other", "rarity": 1}, {"lat": 51.4107, "lng": -9.5528, "id": "109903", "name": "Pronoctiluca pelagica", "sprite": "sp-anchoviella_juruasanga.png", "group": "other", "rarity": 1}, {"lat": 52.0367, "lng": -7.0332, "id": "123276", "name": "Henricia", "sprite": "sp-sea_cucumber.png", "group": "starfish", "rarity": 1}, {"lat": 49.9491, "lng": -6.2969, "id": "102317", "name": "Haustorius arenarius", "sprite": "sp-american_lobster.png", "group": "crab_lobster", "rarity": 1}, {"lat": 52.265, "lng": -9.9403, "id": "102364", "name": "Gammaropsis maculata", "sprite": "sp-american_lobster.png", "group": "crab_lobster", "rarity": 1}, {"lat": 51.5276, "lng": -10.0039, "id": "137142", "name": "Larus fuscus", "sprite": "sp-anchoviella_juruasanga.png", "group": "other", "rarity": 1}, {"lat": 49.2071, "lng": -8.9957, "id": "153952", "name": "Limaria loscombi", "sprite": "sp-blue_mussel.png", "group": "clam_mussel", "rarity": 1}, {"lat": 51.8371, "lng": -10.1635, "id": "139085", "name": "Cerithiopsis tubercularis", "sprite": "sp-cowrie_shell.png", "group": "sea_snail", "rarity": 1}, {"lat": 51.6418, "lng": -9.5957, "id": "378492", "name": "Varicorbula gibba", "sprite": "sp-blue_mussel.png", "group": "clam_mussel", "rarity": 1}, {"lat": 51.8125, "lng": -8.8704, "id": "131143", "name": "Polydora cornuta", "sprite": "sp-anchoviella_juruasanga.png", "group": "other", "rarity": 1}, {"lat": 49.9492, "lng": -6.0067, "id": "109604", "name": "Dinophysis acuta", "sprite": "sp-anchoviella_juruasanga.png", "group": "other", "rarity": 1}, {"lat": 49.9721, "lng": -6.277, "id": "761617", "name": "Synmerosyllis lamelligera", "sprite": "sp-anchoviella_juruasanga.png", "group": "other", "rarity": 1}, {"lat": 49.9971, "lng": -7.0997, "id": "129626", "name": "Spiophanes", "sprite": "sp-anchoviella_juruasanga.png", "group": "other", "rarity": 1}, {"lat": 50.2516, "lng": -6.5612, "id": "117030", "name": "Clytia", "sprite": "sp-anchoviella_juruasanga.png", "group": "other", "rarity": 1}, {"lat": 49.9399, "lng": -6.2571, "id": "107398", "name": "Necora puber", "sprite": "sp-american_lobster.png", "group": "crab_lobster", "rarity": 1}, {"lat": 51.6758, "lng": -9.7916, "id": "334417", "name": "Pectinaria belgica", "sprite": "sp-anchoviella_juruasanga.png", "group": "other", "rarity": 1}, {"lat": 49.2427, "lng": -9.1585, "id": "1360", "name": "Actiniaria", "sprite": "sp-actiniidae.png", "group": "coral", "rarity": 1}, {"lat": 50.3517, "lng": -6.4317, "id": "110178", "name": "Blepharocysta paulsenii", "sprite": "sp-anchoviella_juruasanga.png", "group": "other", "rarity": 1}, {"lat": 51.3177, "lng": -7.2416, "id": "138902", "name": "Colus islandicus", "sprite": "sp-cowrie_shell.png", "group": "sea_snail", "rarity": 1}, {"lat": 49.96, "lng": -6.246, "id": "137092", "name": "Megaptera novaeangliae", "sprite": "sp-blue_whale.png", "group": "whale", "rarity": 1}, {"lat": 49.9138, "lng": -6.2808, "id": "1036948", "name": "Diaphoreolis viridis", "sprite": "sp-cowrie_shell.png", "group": "sea_snail", "rarity": 1}, {"lat": 51.5, "lng": -9.297, "id": "138710", "name": "Aeolidiella alderi", "sprite": "sp-cowrie_shell.png", "group": "sea_snail", "rarity": 1}, {"lat": 51.3731, "lng": -6.2179, "id": "334508", "name": "Phyllodoce lineata", "sprite": "sp-anchoviella_juruasanga.png", "group": "other", "rarity": 1}, {"lat": 49.9288, "lng": -6.2818, "id": "103587", "name": "Lissoclinum weigelei", "sprite": "sp-anchoviella_juruasanga.png", "group": "other", "rarity": 1}, {"lat": 49.6908, "lng": -6.201, "id": "129434", "name": "Paraonides", "sprite": "sp-anchoviella_juruasanga.png", "group": "other", "rarity": 1}, {"lat": 52.0781, "lng": -9.8489, "id": "102137", "name": "Guernea (Guernea) coalita", "sprite": "sp-american_lobster.png", "group": "crab_lobster", "rarity": 1}, {"lat": 49.7821, "lng": -6.2116, "id": "115153", "name": "Harpacticidae", "sprite": "sp-anchoviella_juruasanga.png", "group": "other", "rarity": 1}, {"lat": 51.315, "lng": -10.6042, "id": "137215", "name": "Doliolidae", "sprite": "sp-anchoviella_juruasanga.png", "group": "other", "rarity": 1}, {"lat": 49.9467, "lng": -6.2775, "id": "134191", "name": "Polymastia agglutinans", "sprite": "sp-barrel_sponge.png", "group": "sponge", "rarity": 1}, {"lat": 51.6991, "lng": -9.6721, "id": "134275", "name": "Suberites carnosus", "sprite": "sp-barrel_sponge.png", "group": "sponge", "rarity": 1}, {"lat": 51.6507, "lng": -9.5917, "id": "157947", "name": "Halecium beanii", "sprite": "sp-anchoviella_juruasanga.png", "group": "other", "rarity": 1}, {"lat": 51.1959, "lng": -6.6383, "id": "882", "name": "Annelida", "sprite": "sp-anchoviella_juruasanga.png", "group": "other", "rarity": 1}, {"lat": 51.9262, "lng": -9.3571, "id": "839996", "name": "Trieres regia", "sprite": "sp-anchoviella_juruasanga.png", "group": "other", "rarity": 1}, {"lat": 49.6747, "lng": -6.2024, "id": "123182", "name": "Synaptidae", "sprite": "sp-sea_cucumber.png", "group": "starfish", "rarity": 1}, {"lat": 51.8242, "lng": -9.5312, "id": "181364", "name": "Venerupis corrugata", "sprite": "sp-blue_mussel.png", "group": "clam_mussel", "rarity": 1}, {"lat": 51.0, "lng": -11.0, "id": "306769", "name": "Stomias ferox", "sprite": "sp-anchoviella_juruasanga.png", "group": "other", "rarity": 1, "waterType": "Saltwater"}, {"lat": 51.6776, "lng": -6.5731, "id": "129892", "name": "Mediomastus fragilis", "sprite": "sp-anchoviella_juruasanga.png", "group": "other", "rarity": 1}]}