{"zoom": 6, "x": 31, "y": 18, "points": [{"lat": 59.0314, "lng": -3.0707, "id": "144737", "name": "Apoglossum ruscifolium", "sprite": "sp-anchoviella_juruasanga.png", "group": "other", "rarity": 1}, {"lat": 60.8317, "lng": -1.1652, "id": "126484", "name": "European hake", "thumb": "tn_Memer_u5.jpg", "sprite": "sp-anchoviella_juruasanga.png", "group": "other", "rarity": 1, "waterType": "Saltwater"}, {"lat": 60.9107, "lng": -1.1879, "id": "1128", "name": "Euphausiacea", "sprite": "sp-antarctic_krill.png", "group": "shrimp", "rarity": 1}, {"lat": 58.9786, "lng": -3.0637, "id": "145310", "name": "Desmarestia viridis", "sprite": "sp-anchoviella_juruasanga.png", "group": "other", "rarity": 1}, {"lat": 60.5916, "lng": -1.1227, "id": "834002", "name": "Bugulina flabellata", "sprite": "sp-anchoviella_juruasanga.png", "group": "other", "rarity": 1}, {"lat": 59.6694, "lng": -2.0036, "id": "145548", "name": "Fucus vesiculosus", "sprite": "sp-anchoviella_juruasanga.png", "group": "other", "rarity": 1}, {"lat": 59.3731, "lng": -2.3471, "id": "250081", "name": "Botrylloides leachii", "sprite": "sp-anchoviella_juruasanga.png", "group": "other", "rarity": 1}, {"lat": 59.2523, "lng": -2.5389, "id": "111621", "name": "Flustrellidra hispida", "sprite": "sp-anchoviella_juruasanga.png", "group": "other", "rarity": 1}, {"lat": 60.51, "lng": -1.2039, "id": "799", "name": "Nematoda", "sprite": "sp-anchoviella_juruasanga.png", "group": "other", "rarity": 1}, {"lat": 60.4283, "lng": -3.9666, "id": "130707", "name": "Pisione remota", "sprite": "sp-anchoviella_juruasanga.png", "group": "other", "rarity": 1}, {"lat": 60.4182, "lng": -1.4486, "id": "100982", "name": "Metridium senile", "sprite": "sp-actiniidae.png", "group": "coral", "rarity": 1}, {"lat": 60.6693, "lng": -3.5001, "id": "607402", "name": "Hilbigneris gracilis", "sprite": "sp-anchoviella_juruasanga.png", "group": "other", "rarity": 1}, {"lat": 59.4956, "lng": -3.7024, "id": "131531", "name": "Polycirrus medusa", "sprite": "sp-anchoviella_juruasanga.png", "group": "other", "rarity": 1}, {"lat": 58.8911, "lng": -3.0641, "id": "129776", "name": "Ampharete baltica", "sprite": "sp-anchoviella_juruasanga.png", "group": "other", "rarity": 1}, {"lat": 60.7876, "lng": -1.6273, "id": "130745", "name": "Eunoe nodosa", "sprite": "sp-anchoviella_juruasanga.png", "group": "other", "rarity": 1}, {"lat": 58.8679, "lng": -3.0449, "id": "131080", "name": "Commensodorum commensalis", "sprite": "sp-anchoviella_juruasanga.png", "group": "other", "rarity": 1}, {"lat": 61.122, "lng": -1.0184, "id": "102630", "name": "Normanion quadrimanus", "sprite": "sp-american_lobster.png", "group": "crab_lobster", "rarity": 1}, {"lat": 59.2654, "lng": -2.5511, "id": "150239", "name": "Clathrina lacunosa", "sprite": "sp-barrel_sponge.png", "group": "sponge", "rarity": 1}, {"lat": 59.2187, "lng": -2.5329, "id": "144457", "name": "Bryopsis plumosa", "sprite": "sp-anchoviella_juruasanga.png", "group": "other", "rarity": 1}, {"lat": 60.2077, "lng": -1.5708, "id": "131080", "name": "Commensodorum commensalis", "sprite": "sp-anchoviella_juruasanga.png", "group": "other", "rarity": 1}, {"lat": 61.3248, "lng": -4.564, "id": "110503", "name": "Leptostylis longimana", "sprite": "sp-american_lobster.png", "group": "crab_lobster", "rarity": 1}, {"lat": 59.2049, "lng": -2.0313, "id": "118732", "name": "Janira maculosa", "sprite": "sp-american_lobster.png", "group": "crab_lobster", "rarity": 1}, {"lat": 59.0027, "lng": -3.6242, "id": "214", "name": "Anomiidae", "sprite": "sp-blue_mussel.png", "group": "clam_mussel", "rarity": 1}, {"lat": 60.8608, "lng": -0.8716, "id": "111361", "name": "Eucratea loricata", "sprite": "sp-anchoviella_juruasanga.png", "group": "other", "rarity": 1}, {"lat": 60.45, "lng": -1.2121, "id": "137121", "name": "Mesoplodon bidens", "sprite": "sp-blue_whale.png", "group": "whale", "rarity": 1}, {"lat": 59.7844, "lng": -1.7525, "id": "123974", "name": "Henricia sanguinolenta", "sprite": "sp-sea_cucumber.png", "group": "starfish", "rarity": 1}, {"lat": 59.1106, "lng": -0.3068, "id": "140584", "name": "Ennucula tenuis", "sprite": "sp-blue_mussel.png", "group": "clam_mussel", "rarity": 1}, {"lat": 60.716, "lng": -0.8539, "id": "127153", "name": "Solenette", "thumb": "tn_Bulut_u1.jpg", "sprite": "sp-atlantic_halibut.png", "group": "flatfish", "rarity": 1, "waterType": "Saltwater"}, {"lat": 58.9144, "lng": -3.1929, "id": "140830", "name": "Limacia clavigera", "sprite": "sp-cowrie_shell.png", "group": "sea_snail", "rarity": 1}, {"lat": 60.3124, "lng": -1.3071, "id": "144910", "name": "Chordaria flagelliformis", "sprite": "sp-anchoviella_juruasanga.png", "group": "other", "rarity": 1}, {"lat": 59.7896, "lng": -1.1585, "id": "145", "name": "Naticidae", "sprite": "sp-cowrie_shell.png", "group": "sea_snail", "rarity": 1}, {"lat": 61.1418, "lng": -1.9776, "id": "129792", "name": "Eclysippe vanelli", "sprite": "sp-anchoviella_juruasanga.png", "group": "other", "rarity": 1}, {"lat": 59.25, "lng": -1.5667, "id": "156452", "name": "Themisto libellula", "sprite": "sp-american_lobster.png", "group": "crab_lobster", "rarity": 1}, {"lat": 59.3671, "lng": -0.6171, "id": "125073", "name": "Amphiura chiajei", "sprite": "sp-sea_cucumber.png", "group": "starfish", "rarity": 1}, {"lat": 59.9227, "lng": -1.2519, "id": "146537", "name": "Cyanobacteria", "sprite": "sp-anchoviella_juruasanga.png", "group": "other", "rarity": 1}, {"lat": 60.705, "lng": -1.552, "id": "334506", "name": "Phyllodoce groenlandica", "sprite": "sp-anchoviella_juruasanga.png", "group": "other", "rarity": 1}, {"lat": 60.6983, "lng": -0.8452, "id": "125516", "name": "Ammodytidae", "sprite": "sp-anchoviella_juruasanga.png", "group": "other", "rarity": 1}, {"lat": 58.9082, "lng": -3.1178, "id": "125781", "name": "Lepadogaster", "sprite": "sp-anchoviella_juruasanga.png", "group": "other", "rarity": 1}, {"lat": 60.12, "lng": -1.1303, "id": "1473658", "name": "Duvaucelia plebeia", "sprite": "sp-cowrie_shell.png", "group": "sea_snail", "rarity": 1}, {"lat": 59.566, "lng": -1.2648, "id": "110244", "name": "Protoperidinium pallidum", "sprite": "sp-anchoviella_juruasanga.png", "group": "other", "rarity": 1}, {"lat": 60.6781, "lng": -0.8347, "id": "110628", "name": "Pseudocuma (Pseudocuma) simile", "sprite": "sp-american_lobster.png", "group": "crab_lobster", "rarity": 1}, {"lat": 58.9709, "lng": -3.1207, "id": "107387", "name": "Liocarcinus depurator", "sprite": "sp-american_lobster.png", "group": "crab_lobster", "rarity": 1}, {"lat": 60.6722, "lng": -3.9724, "id": "1130", "name": "Decapoda", "sprite": "sp-american_lobster.png", "group": "crab_lobster", "rarity": 1}, {"lat": 59.1302, "lng": -0.1881, "id": "129911", "name": "Pseudonotomastus southerni", "sprite": "sp-anchoviella_juruasanga.png", "group": "other", "rarity": 1}, {"lat": 60.7, "lng": -3.18, "id": "107316", "name": "Dorhynchus thomsoni", "sprite": "sp-american_lobster.png", "group": "crab_lobster", "rarity": 1}, {"lat": 60.5517, "lng": -1.0297, "id": "145984", "name": "Ulva lactuca", "sprite": "sp-anchoviella_juruasanga.png", "group": "other", "rarity": 1}, {"lat": 59.344, "lng": -4.88, "id": "196832", "name": "Zoothamnium pelagicum", "sprite": "sp-anchoviella_juruasanga.png", "group": "other", "rarity": 1}, {"lat": 60.9, "lng": -3.7937, "id": "149004", "name": "Cylindrotheca closterium", "sprite": "sp-anchoviella_juruasanga.png", "group": "other", "rarity": 1}, {"lat": 60.7311, "lng": -4.3916, "id": "109528", "name": "Oxytoxum", "sprite": "sp-anchoviella_juruasanga.png", "group": "other", "rarity": 1}, {"lat": 60.612, "lng": -1.0845, "id": "130357", "name": "Nephtys cirrosa", "sprite": "sp-anchoviella_juruasanga.png", "group": "other", "rarity": 1}, {"lat": 59.002, "lng": -3.1303, "id": "106210", "name": "Semibalanus balanoides", "sprite": "sp-anchoviella_juruasanga.png", "group": "other", "rarity": 1}, {"lat": 58.9966, "lng": -3.2113, "id": "145045", "name": "Cladophora flexuosa", "sprite": "sp-anchoviella_juruasanga.png", "group": "other", "rarity": 1}, {"lat": 60.6637, "lng": -1.1862, "id": "147144", "name": "Sarsinebalia typhlops", "sprite": "sp-american_lobster.png", "group": "crab_lobster", "rarity": 1}, {"lat": 60.5043, "lng": -1.306, "id": "106257", "name": "Verruca stroemia", "sprite": "sp-anchoviella_juruasanga.png", "group": "other", "rarity": 1}, {"lat": 60.4167, "lng": -0.9667, "id": "1255419", "name": "Hymeniacidon foliatus", "sprite": "sp-barrel_sponge.png", "group": "sponge", "rarity": 1}, {"lat": 60.9341, "lng": -4.5324, "id": "110559", "name": "Campylaspis undata", "sprite": "sp-american_lobster.png", "group": "crab_lobster", "rarity": 1}, {"lat": 59.0162, "lng": -4.4613, "id": "146420", "name": "Tunicata", "sprite": "sp-anchoviella_juruasanga.png", "group": "other", "rarity": 1}, {"lat": 59.402, "lng": -4.7457, "id": "119859", "name": "Gastrosaccus", "sprite": "sp-american_lobster.png", "group": "crab_lobster", "rarity": 1}, {"lat": 60.5382, "lng": -1.0785, "id": "124913", "name": "Ophiura albida", "sprite": "sp-sea_cucumber.png", "group": "starfish", "rarity": 1}, {"lat": 60.8004, "lng": -3.6174, "id": "118437", "name": "Gnathia", "sprite": "sp-american_lobster.png", "group": "crab_lobster", "rarity": 1}, {"lat": 59.803, "lng": -1.8244, "id": "129313", "name": "Microphthalmus", "sprite": "sp-anchoviella_juruasanga.png", "group": "other", "rarity": 1}, {"lat": 59.5958, "lng": -1.8018, "id": "423079", "name": "Amphorina pallida", "sprite": "sp-cowrie_shell.png", "group": "sea_snail", "rarity": 1}, {"lat": 60.3309, "lng": -1.1106, "id": "140365", "name": "Devonia perrieri", "sprite": "sp-blue_mussel.png", "group": "clam_mussel", "rarity": 1}, {"lat": 59.6866, "lng": -2.0028, "id": "145712", "name": "Hildenbrandia rubra", "sprite": "sp-anchoviella_juruasanga.png", "group": "other", "rarity": 1}, {"lat": 60.4786, "lng": -4.1859, "id": "138831", "name": "Goodallia triangularis", "sprite": "sp-blue_mussel.png", "group": "clam_mussel", "rarity": 1}, {"lat": 60.7956, "lng": -3.5241, "id": "110398", "name": "Diastylis", "sprite": "sp-american_lobster.png", "group": "crab_lobster", "rarity": 1}, {"lat": 60.4496, "lng": -1.3592, "id": "107398", "name": "Necora puber", "sprite": "sp-american_lobster.png", "group": "crab_lobster", "rarity": 1}, {"lat": 59.9077, "lng": -1.258, "id": "103643", "name": "Aplidium elegans", "sprite": "sp-anchoviella_juruasanga.png", "group": "other", "rarity": 1}, {"lat": 60.8539, "lng": -3.1395, "id": "1091", "name": "Podocopida", "sprite": "sp-anchoviella_juruasanga.png", "group": "other", "rarity": 1}, {"lat": 60.6806, "lng": -5.1399, "id": "102915", "name": "Perioculodes longimanus", "sprite": "sp-american_lobster.png", "group": "crab_lobster", "rarity": 1}, {"lat": 59.8986, "lng": -1.3405, "id": "103220", "name": "Talitrus saltator", "sprite": "sp-american_lobster.png", "group": "crab_lobster", "rarity": 1}, {"lat": 60.4111, "lng": -1.172, "id": "145551", "name": "Himanthalia elongata", "sprite": "sp-anchoviella_juruasanga.png", "group": "other", "rarity": 1}, {"lat": 60.5292, "lng": -1.407, "id": "129528", "name": "Euchone", "sprite": "sp-anchoviella_juruasanga.png", "group": "other", "rarity": 1}, {"lat": 60.9226, "lng": -1.8708, "id": "110733", "name": "Calloporidae", "sprite": "sp-anchoviella_juruasanga.png", "group": "other", "rarity": 1}, {"lat": 60.7678, "lng": -3.829, "id": "1566", "name": "Nymphonidae", "sprite": "sp-anchoviella_juruasanga.png", "group": "other", "rarity": 1}, {"lat": 60.748, "lng": -1.8716, "id": "107215", "name": "Anapagurus chiroacanthus", "sprite": "sp-american_lobster.png", "group": "crab_lobster", "rarity": 1}, {"lat": 60.917, "lng": -3.567, "id": "137201", "name": "Puffinus gravis", "sprite": "sp-anchoviella_juruasanga.png", "group": "other", "rarity": 1}, {"lat": 60.7671, "lng": -1.338, "id": "125930", "name": "Callionymus", "sprite": "sp-anchoviella_juruasanga.png", "group": "other", "rarity": 1}, {"lat": 59.3591, "lng": -1.3277, "id": "110303", "name": "Prorocentrum micans", "sprite": "sp-anchoviella_juruasanga.png", "group": "other", "rarity": 1}, {"lat": 58.9645, "lng": -3.0795, "id": "140262", "name": "Littorina littorea", "sprite": "sp-cowrie_shell.png", "group": "sea_snail", "rarity": 1}, {"lat": 60.1459, "lng": -1.4789, "id": "140733", "name": "Ensis ensis", "sprite": "sp-blue_mussel.png", "group": "clam_mussel", "rarity": 1}, {"lat": 59.4456, "lng": -2.2027, "id": "126937", "name": "Leopard-spotted goby", "thumb": "tn_Theph_u3.jpg", "sprite": "sp-eviota_bipunctata.png", "group": "goby", "rarity": 1, "waterType": "Saltwater"}, {"lat": 61.0536, "lng": -2.0468, "id": "326587", "name": "Aricidea (Acmira) laubieri", "sprite": "sp-anchoviella_juruasanga.png", "group": "other", "rarity": 1}, {"lat": 59.3314, "lng": -0.0029, "id": "1101", "name": "Cyclopoida", "sprite": "sp-anchoviella_juruasanga.png", "group": "other", "rarity": 1}, {"lat": 59.7689, "lng": -1.7924, "id": "144233", "name": "Zostera", "sprite": "sp-anchoviella_juruasanga.png", "group": "other", "rarity": 1}, {"lat": 60.4499, "lng": -3.5555, "id": "107327", "name": "Inachus dorsettensis", "sprite": "sp-american_lobster.png", "group": "crab_lobster", "rarity": 1}, {"lat": 59.2542, "lng": -2.4288, "id": "128548", "name": "Phoronis hippocrepia", "sprite": "sp-anchoviella_juruasanga.png", "group": "other", "rarity": 1}, {"lat": 60.9381, "lng": -2.2317, "id": "130126", "name": "Glycera oxycephala", "sprite": "sp-anchoviella_juruasanga.png", "group": "other", "rarity": 1}, {"lat": 60.7266, "lng": -0.7182, "id": "107531", "name": "Spirontocaris liljeborgii", "sprite": "sp-american_lobster.png", "group": "crab_lobster", "rarity": 1}, {"lat": 60.6551, "lng": -0.9151, "id": "124933", "name": "Ophiura robusta", "sprite": "sp-sea_cucumber.png", "group": "starfish", "rarity": 1}, {"lat": 59.8382, "lng": -1.6713, "id": "117940", "name": "Thuiaria thuja", "sprite": "sp-anchoviella_juruasanga.png", "group": "other", "rarity": 1}, {"lat": 60.6778, "lng": -1.7418, "id": "105887", "name": "Spotted ray", "thumb": "tn_Ramon_u2.jpg", "sprite": "sp-himantura_australis.png", "group": "ray", "rarity": 1, "waterType": "Saltwater"}, {"lat": 58.9848, "lng": -3.4184, "id": "109545", "name": "Scrippsiella", "sprite": "sp-anchoviella_juruasanga.png", "group": "other", "rarity": 1}, {"lat": 61.25, "lng": -0.5833, "id": "445631", "name": "Dajus profundus", "sprite": "sp-american_lobster.png", "group": "crab_lobster", "rarity": 1}, {"lat": 60.2772, "lng": -1.4801, "id": "153707", "name": "Littorininae", "sprite": "sp-cowrie_shell.png", "group": "sea_snail", "rarity": 1}, {"lat": 59.7857, "lng": -2.2401, "id": "107235", "name": "Pagurus cuanensis", "sprite": "sp-american_lobster.png", "group": "crab_lobster", "rarity": 1}, {"lat": 60.8737, "lng": -1.9908, "id": "102342", "name": "Iphimedia eblanae", "sprite": "sp-american_lobster.png", "group": "crab_lobster", "rarity": 1}, {"lat": 59.241, "lng": -3.7755, "id": "867492", "name": "Hermania scabra", "sprite": "sp-cowrie_shell.png", "group": "sea_snail", "rarity": 1}, {"lat": 60.9718, "lng": -4.4885, "id": "110476", "name": "Diastylis echinata", "sprite": "sp-american_lobster.png", "group": "crab_lobster", "rarity": 1}, {"lat": 59.75, "lng": -2.5, "id": "131285", "name": "Dioplosyllis cirrosa", "sprite": "sp-anchoviella_juruasanga.png", "group": "other", "rarity": 1}, {"lat": 59.1356, "lng": -2.9472, "id": "143755", "name": "Laminariaceae", "sprite": "sp-anchoviella_juruasanga.png", "group": "other", "rarity": 1}, {"lat": 60.3795, "lng": -0.375, "id": "111558", "name": "Smittina landsborovii", "sprite": "sp-anchoviella_juruasanga.png", "group": "other", "rarity": 1}, {"lat": 61.2551, "lng": -1.8661, "id": "156214", "name": "Limea crassa", "sprite": "sp-blue_mussel.png", "group": "clam_mussel", "rarity": 1}, {"lat": 60.1192, "lng": -1.1238, "id": "751302", "name": "Tetrarca tetragona", "sprite": "sp-blue_mussel.png", "group": "clam_mussel", "rarity": 1}, {"lat": 59.4297, "lng": -0.4596, "id": "126415", "name": "Twaite shad", "thumb": "tn_Alfal_u2.jpg", "sprite": "sp-anchoviella_juruasanga.png", "group": "other", "rarity": 1, "waterType": "Brackish"}, {"lat": 59.7515, "lng": -1.6485, "id": "111547", "name": "Parasmittina trispinosa", "sprite": "sp-anchoviella_juruasanga.png", "group": "other", "rarity": 1}, {"lat": 61.0349, "lng": -2.1361, "id": "118848", "name": "Eurydice grimaldii", "sprite": "sp-american_lobster.png", "group": "crab_lobster", "rarity": 1}, {"lat": 60.0, "lng": -1.1837, "id": "1414", "name": "Prostigmata", "sprite": "sp-anchoviella_juruasanga.png", "group": "other", "rarity": 1}, {"lat": 59.8887, "lng": -1.6487, "id": "144051", "name": "Peyssonnelia", "sprite": "sp-anchoviella_juruasanga.png", "group": "other", "rarity": 1}, {"lat": 60.5621, "lng": -1.0461, "id": "101963", "name": "Amphilochoides serratipes", "sprite": "sp-american_lobster.png", "group": "crab_lobster", "rarity": 1}, {"lat": 59.2722, "lng": -3.3772, "id": "136486", "name": "Tanaissus lilljeborgi", "sprite": "sp-american_lobster.png", "group": "crab_lobster", "rarity": 1}, {"lat": 60.6098, "lng": -3.4195, "id": "247599", "name": "Paratyphlotanais microcheles", "sprite": "sp-american_lobster.png", "group": "crab_lobster", "rarity": 1}, {"lat": 60.0087, "lng": -1.1905, "id": "157305", "name": "Colaconema", "sprite": "sp-anchoviella_juruasanga.png", "group": "other", "rarity": 1}, {"lat": 60.0, "lng": -4.4286, "id": "127103", "name": "Greater eelpout", "thumb": "tn_Lyesm_u1.jpg", "sprite": "sp-anchoviella_juruasanga.png", "group": "other", "rarity": 1, "waterType": "Saltwater"}, {"lat": 58.9988, "lng": -0.5802, "id": "159135", "name": "Pluvialis apricaria", "sprite": "sp-anchoviella_juruasanga.png", "group": "other", "rarity": 1}, {"lat": 58.9198, "lng": -3.1476, "id": "149073", "name": "Skeletonema", "sprite": "sp-anchoviella_juruasanga.png", "group": "other", "rarity": 1}, {"lat": 58.8495, "lng": -3.0128, "id": "143828", "name": "Antithamnionella", "sprite": "sp-anchoviella_juruasanga.png", "group": "other", "rarity": 1}, {"lat": 60.176, "lng": -1.3156, "id": "139217", "name": "Bela nebula", "sprite": "sp-cowrie_shell.png", "group": "sea_snail", "rarity": 1}, {"lat": 59.95, "lng": -1.132, "id": "104183", "name": "Lucicutia", "sprite": "sp-anchoviella_juruasanga.png", "group": "other", "rarity": 1}, {"lat": 58.9953, "lng": -3.2107, "id": "593168", "name": "Caenidae", "sprite": "sp-anchoviella_juruasanga.png", "group": "other", "rarity": 1}]}