{"zoom": 6, "x": 31, "y": 43, "points": [{"lat": -54.3678, "lng": -3.4372, "id": "529457", "name": "Cucamba psolidiformis", "sprite": "sp-sea_cucumber.png", "group": "starfish", "rarity": 1}, {"lat": -54.6033, "lng": -0.085, "id": "127782", "name": "Discoconchoecia elegans", "sprite": "sp-anchoviella_juruasanga.png", "group": "other", "rarity": 1}, {"lat": -55.1317, "lng": -2.8883, "id": "563947", "name": "Polaribacter", "sprite": "sp-anchoviella_juruasanga.png", "group": "other", "rarity": 1}, {"lat": -54.8099, "lng": -0.851, "id": "2081", "name": "Chaetognatha", "sprite": "sp-anchoviella_juruasanga.png", "group": "other", "rarity": 1}, {"lat": -54.01, "lng": -2.6667, "id": "227091", "name": "Euchaetomera zurstrasseni", "sprite": "sp-american_lobster.png", "group": "crab_lobster", "rarity": 1}, {"lat": -55.1317, "lng": -2.8883, "id": "567523", "name": "Phyllobacteriaceae", "sprite": "sp-anchoviella_juruasanga.png", "group": "other", "rarity": 1}, {"lat": -55.1317, "lng": -2.8883, "id": "564442", "name": "Geobacillus", "sprite": "sp-anchoviella_juruasanga.png", "group": "other", "rarity": 1}, {"lat": -54.4028, "lng": -3.4071, "id": "177924", "name": "Odontaster penicillatus", "sprite": "sp-sea_cucumber.png", "group": "starfish", "rarity": 1}, {"lat": -55.1317, "lng": -2.8883, "id": "414809", "name": "Enterobacteriaceae", "sprite": "sp-anchoviella_juruasanga.png", "group": "other", "rarity": 1}, {"lat": -54.7317, "lng": -0.105, "id": "160830", "name": "Sterechinus diadema", "sprite": "sp-sea_cucumber.png", "group": "starfish", "rarity": 1}, {"lat": -54.01, "lng": -2.6667, "id": "226891", "name": "Boreomysis rostrata", "sprite": "sp-american_lobster.png", "group": "crab_lobster", "rarity": 1}, {"lat": -54.4903, "lng": -3.2967, "id": "172768", "name": "Acodontaster hodgsoni", "sprite": "sp-sea_cucumber.png", "group": "starfish", "rarity": 1}, {"lat": -54.3514, "lng": -3.2458, "id": "234948", "name": "Psilaster charcoti", "sprite": "sp-sea_cucumber.png", "group": "starfish", "rarity": 1}, {"lat": -55.1317, "lng": -2.8883, "id": "568242", "name": "Erythrobacteraceae", "sprite": "sp-anchoviella_juruasanga.png", "group": "other", "rarity": 1}, {"lat": -55.1317, "lng": -2.8883, "id": "394204", "name": "Maricaulis", "sprite": "sp-anchoviella_juruasanga.png", "group": "other", "rarity": 1}, {"lat": -55.0646, "lng": -3.964, "id": "231404", "name": "Arctocephalus gazella", "sprite": "sp-elephant_seal.png", "group": "seal", "rarity": 1}, {"lat": -55.1317, "lng": -2.8883, "id": "571349", "name": "Methylosarcina", "sprite": "sp-anchoviella_juruasanga.png", "group": "other", "rarity": 1}, {"lat": -53.9601, "lng": -0.2166, "id": "2081", "name": "Chaetognatha", "sprite": "sp-anchoviella_juruasanga.png", "group": "other", "rarity": 1}, {"lat": -55.3967, "lng": -0.3033, "id": "227091", "name": "Euchaetomera zurstrasseni", "sprite": "sp-american_lobster.png", "group": "crab_lobster", "rarity": 1}, {"lat": -55.1317, "lng": -2.8883, "id": "559989", "name": "Fluviicola", "sprite": "sp-anchoviella_juruasanga.png", "group": "other", "rarity": 1}, {"lat": -55.1317, "lng": -2.8883, "id": "571402", "name": "Phyllobacterium", "sprite": "sp-anchoviella_juruasanga.png", "group": "other", "rarity": 1}, {"lat": -55.1317, "lng": -2.8883, "id": "393159", "name": "Roseovarius", "sprite": "sp-anchoviella_juruasanga.png", "group": "other", "rarity": 1}, {"lat": -55.1317, "lng": -2.8883, "id": "393085", "name": "Paracoccus", "sprite": "sp-anchoviella_juruasanga.png", "group": "other", "rarity": 1}, {"lat": -54.6467, "lng": -2.87, "id": "413032", "name": "Botryostrobus", "sprite": "sp-anchoviella_juruasanga.png", "group": "other", "rarity": 1}, {"lat": -54.4429, "lng": -3.3038, "id": "172789", "name": "Paralophaster antarcticus", "sprite": "sp-sea_cucumber.png", "group": "starfish", "rarity": 1}, {"lat": -55.1317, "lng": -2.8883, "id": "571380", "name": "Opitutus", "sprite": "sp-anchoviella_juruasanga.png", "group": "other", "rarity": 1}, {"lat": -53.3836, "lng": -4.1857, "id": "231413", "name": "Mirounga leonina", "sprite": "sp-elephant_seal.png", "group": "seal", "rarity": 1}, {"lat": -55.1317, "lng": -2.8883, "id": "393045", "name": "Oceanospirillaceae", "sprite": "sp-anchoviella_juruasanga.png", "group": "other", "rarity": 1}, {"lat": -55.1317, "lng": -2.8883, "id": "393616", "name": "Oceanicaulis", "sprite": "sp-anchoviella_juruasanga.png", "group": "other", "rarity": 1}, {"lat": -53.4009, "lng": -1.664, "id": "343995", "name": "Thalassarche melanophris", "sprite": "sp-anchoviella_juruasanga.png", "group": "other", "rarity": 1}, {"lat": -55.1317, "lng": -2.8883, "id": "393095", "name": "Clostridiaceae", "sprite": "sp-anchoviella_juruasanga.png", "group": "other", "rarity": 1}, {"lat": -53.7456, "lng": -0.0717, "id": "236217", "name": "Euphausia superba", "sprite": "sp-antarctic_krill.png", "group": "shrimp", "rarity": 1}, {"lat": -54.3753, "lng": -3.4727, "id": "172769", "name": "Acodontaster elongatus", "sprite": "sp-sea_cucumber.png", "group": "starfish", "rarity": 1}, {"lat": -55.1317, "lng": -2.8883, "id": "559995", "name": "Flavobacteriaceae", "sprite": "sp-anchoviella_juruasanga.png", "group": "other", "rarity": 1}, {"lat": -55.1317, "lng": -2.8883, "id": "146537", "name": "Cyanobacteria", "sprite": "sp-anchoviella_juruasanga.png", "group": "other", "rarity": 1}, {"lat": -55.1317, "lng": -2.8883, "id": "393046", "name": "Marinomonas", "sprite": "sp-anchoviella_juruasanga.png", "group": "other", "rarity": 1}, {"lat": -53.6467, "lng": -3.1667, "id": "226680", "name": "Antarctomysis maxima", "sprite": "sp-american_lobster.png", "group": "crab_lobster", "rarity": 1}, {"lat": -54.4903, "lng": -3.2967, "id": "178790", "name": "Diplasterias brandti", "sprite": "sp-sea_cucumber.png", "group": "starfish", "rarity": 1}, {"lat": -55.0053, "lng": -1.2097, "id": "236219", "name": "Thysanoessa macrura", "sprite": "sp-antarctic_krill.png", "group": "shrimp", "rarity": 1}, {"lat": -54.3678, "lng": -3.4372, "id": "325442", "name": "Staurocucumis liouvillei", "sprite": "sp-sea_cucumber.png", "group": "starfish", "rarity": 1}, {"lat": -55.1317, "lng": -2.8883, "id": "571392", "name": "Haemophilus", "sprite": "sp-anchoviella_juruasanga.png", "group": "other", "rarity": 1}, {"lat": -55.1317, "lng": -2.8883, "id": "415973", "name": "Serratia", "sprite": "sp-anchoviella_juruasanga.png", "group": "other", "rarity": 1}, {"lat": -55.1317, "lng": -2.8883, "id": "393944", "name": "Betaproteobacteria", "sprite": "sp-anchoviella_juruasanga.png", "group": "other", "rarity": 1}, {"lat": -55.1317, "lng": -2.8883, "id": "178054", "name": "Proteobacteria", "sprite": "sp-anchoviella_juruasanga.png", "group": "other", "rarity": 1}, {"lat": -54.4333, "lng": -3.4, "id": "236217", "name": "Euphausia superba", "sprite": "sp-antarctic_krill.png", "group": "shrimp", "rarity": 1}, {"lat": -53.2279, "lng": -1.4813, "id": "212656", "name": "Aptenodytes patagonicus", "sprite": "sp-anchoviella_juruasanga.png", "group": "other", "rarity": 1}, {"lat": -55.1317, "lng": -2.8883, "id": "570969", "name": "Rickettsiales", "sprite": "sp-anchoviella_juruasanga.png", "group": "other", "rarity": 1}, {"lat": -55.1317, "lng": -2.8883, "id": "567812", "name": "Octadecabacter", "sprite": "sp-anchoviella_juruasanga.png", "group": "other", "rarity": 1}, {"lat": -55.1317, "lng": -2.8883, "id": "415881", "name": "Pseudoalteromonas", "sprite": "sp-anchoviella_juruasanga.png", "group": "other", "rarity": 1}, {"lat": -53.5961, "lng": -4.2776, "id": "212631", "name": "Phoebetria palpebrata", "sprite": "sp-anchoviella_juruasanga.png", "group": "other", "rarity": 1}, {"lat": -55.7042, "lng": -1.4155, "id": "344689", "name": "Metridia gerlachei", "sprite": "sp-anchoviella_juruasanga.png", "group": "other", "rarity": 1}, {"lat": -55.5827, "lng": -1.5669, "id": "220837", "name": "Rhincalanus gigas", "sprite": "sp-anchoviella_juruasanga.png", "group": "other", "rarity": 1}, {"lat": -54.6033, "lng": -0.085, "id": "127814", "name": "Metaconchoecia skogsbergi", "sprite": "sp-anchoviella_juruasanga.png", "group": "other", "rarity": 1}, {"lat": -53.1297, "lng": -1.2082, "id": "212583", "name": "Diomedea exulans", "sprite": "sp-anchoviella_juruasanga.png", "group": "other", "rarity": 1}, {"lat": -54.47, "lng": -2.6, "id": "113458", "name": "Neogloboquadrina pachyderma", "sprite": "sp-anchoviella_juruasanga.png", "group": "other", "rarity": 1}, {"lat": -53.875, "lng": -0.001, "id": "236218", "name": "Euphausia frigida", "sprite": "sp-antarctic_krill.png", "group": "shrimp", "rarity": 1}, {"lat": -55.1317, "lng": -2.8883, "id": "564100", "name": "Sphingobacteriales", "sprite": "sp-anchoviella_juruasanga.png", "group": "other", "rarity": 1}, {"lat": -55.1317, "lng": -2.8883, "id": "571298", "name": "Gemmatimonadetes", "sprite": "sp-anchoviella_juruasanga.png", "group": "other", "rarity": 1}, {"lat": -53.63, "lng": -4.9, "id": "131649", "name": "Mycalidae", "sprite": "sp-barrel_sponge.png", "group": "sponge", "rarity": 1}, {"lat": -54.8085, "lng": -0.8345, "id": "1102", "name": "Harpacticoida", "sprite": "sp-anchoviella_juruasanga.png", "group": "other", "rarity": 1}, {"lat": -52.95, "lng": -2.3667, "id": "107052", "name": "Pasiphaea", "sprite": "sp-american_lobster.png", "group": "crab_lobster", "rarity": 1}, {"lat": -55.1317, "lng": -2.8883, "id": "571305", "name": "Halanaerobium", "sprite": "sp-anchoviella_juruasanga.png", "group": "other", "rarity": 1}, {"lat": -54.6467, "lng": -2.87, "id": "493453", "name": "Saccospyris antarctica", "sprite": "sp-anchoviella_juruasanga.png", "group": "other", "rarity": 1}, {"lat": -55.1317, "lng": -2.8883, "id": "564353", "name": "Deferribacteres", "sprite": "sp-anchoviella_juruasanga.png", "group": "other", "rarity": 1}, {"lat": -55.1317, "lng": -2.8883, "id": "565572", "name": "Brevundimonas", "sprite": "sp-anchoviella_juruasanga.png", "group": "other", "rarity": 1}, {"lat": -53.7799, "lng": -0.0656, "id": "103358", "name": "Fritillaria", "sprite": "sp-anchoviella_juruasanga.png", "group": "other", "rarity": 1}, {"lat": -55.1246, "lng": -1.0046, "id": "582421", "name": "Radiozoa", "sprite": "sp-anchoviella_juruasanga.png", "group": "other", "rarity": 1}, {"lat": -54.3972, "lng": -3.4825, "id": "172667", "name": "Notasterias armata", "sprite": "sp-sea_cucumber.png", "group": "starfish", "rarity": 1}, {"lat": -53.4931, "lng": -1.9373, "id": "212631", "name": "Phoebetria palpebrata", "sprite": "sp-anchoviella_juruasanga.png", "group": "other", "rarity": 1}, {"lat": -55.1317, "lng": -2.8883, "id": "394151", "name": "Jannaschia", "sprite": "sp-anchoviella_juruasanga.png", "group": "other", "rarity": 1}, {"lat": -53.4406, "lng": -0.0516, "id": "106656", "name": "Oithona similis", "sprite": "sp-anchoviella_juruasanga.png", "group": "other", "rarity": 1}, {"lat": -54.3678, "lng": -3.4372, "id": "174035", "name": "Psolidiella", "sprite": "sp-sea_cucumber.png", "group": "starfish", "rarity": 1}, {"lat": -55.1317, "lng": -2.8883, "id": "393018", "name": "Gammaproteobacteria", "sprite": "sp-anchoviella_juruasanga.png", "group": "other", "rarity": 1}, {"lat": -55.1317, "lng": -2.8883, "id": "559844", "name": "Bacteroidetes", "sprite": "sp-anchoviella_juruasanga.png", "group": "other", "rarity": 1}, {"lat": -53.6573, "lng": -3.0099, "id": "343995", "name": "Thalassarche melanophris", "sprite": "sp-anchoviella_juruasanga.png", "group": "other", "rarity": 1}, {"lat": -54.4903, "lng": -3.2967, "id": "368324", "name": "Mimastrella cognata", "sprite": "sp-sea_cucumber.png", "group": "starfish", "rarity": 1}, {"lat": -55.5, "lng": -5.0, "id": "1526062", "name": "Antarctic jonasfish", "thumb": "tn_Nocoa_u0.gif", "sprite": "sp-anchoviella_juruasanga.png", "group": "other", "rarity": 1, "waterType": "Saltwater"}, {"lat": -54.6467, "lng": -2.87, "id": "493595", "name": "Phorticium clevei", "sprite": "sp-anchoviella_juruasanga.png", "group": "other", "rarity": 1}, {"lat": -54.4334, "lng": -3.2976, "id": "172784", "name": "Cuenotaster involutus", "sprite": "sp-sea_cucumber.png", "group": "starfish", "rarity": 1}, {"lat": -55.1317, "lng": -2.8883, "id": "394103", "name": "Shimia", "sprite": "sp-anchoviella_juruasanga.png", "group": "other", "rarity": 1}, {"lat": -53.605, "lng": -0.0692, "id": "236219", "name": "Thysanoessa macrura", "sprite": "sp-antarctic_krill.png", "group": "shrimp", "rarity": 1}, {"lat": -55.1317, "lng": -2.8883, "id": "6", "name": "Bacteria", "sprite": "sp-anchoviella_juruasanga.png", "group": "other", "rarity": 1}, {"lat": -54.6467, "lng": -2.87, "id": "412915", "name": "Cenosphaera cristata", "sprite": "sp-anchoviella_juruasanga.png", "group": "other", "rarity": 1}, {"lat": -54.4193, "lng": -3.3074, "id": "172650", "name": "Diplasterias brucei", "sprite": "sp-sea_cucumber.png", "group": "starfish", "rarity": 1}, {"lat": -53.0737, "lng": -4.9885, "id": "113458", "name": "Neogloboquadrina pachyderma", "sprite": "sp-anchoviella_juruasanga.png", "group": "other", "rarity": 1}, {"lat": -53.1167, "lng": -1.4333, "id": "332607", "name": "Tomopteris carpenteri", "sprite": "sp-anchoviella_juruasanga.png", "group": "other", "rarity": 1}, {"lat": -55.6396, "lng": -1.4299, "id": "236217", "name": "Euphausia superba", "sprite": "sp-antarctic_krill.png", "group": "shrimp", "rarity": 1}, {"lat": -55.2126, "lng": -4.0283, "id": "231413", "name": "Mirounga leonina", "sprite": "sp-elephant_seal.png", "group": "seal", "rarity": 1}, {"lat": -54.4209, "lng": -3.3978, "id": "234942", "name": "Perknaster densus", "sprite": "sp-sea_cucumber.png", "group": "starfish", "rarity": 1}, {"lat": -54.083, "lng": -0.35, "id": "234642", "name": "Brauer’s lanternfish", "thumb": "tn_Gybra_u0.gif", "sprite": "sp-anchoviella_juruasanga.png", "group": "other", "rarity": 1, "waterType": "Saltwater"}, {"lat": -55.1317, "lng": -2.8883, "id": "393040", "name": "Shewanella", "sprite": "sp-anchoviella_juruasanga.png", "group": "other", "rarity": 1}, {"lat": -54.3823, "lng": -3.103, "id": "172778", "name": "Pteraster stellifer", "sprite": "sp-sea_cucumber.png", "group": "starfish", "rarity": 1}, {"lat": -53.9601, "lng": -0.2166, "id": "220837", "name": "Rhincalanus gigas", "sprite": "sp-anchoviella_juruasanga.png", "group": "other", "rarity": 1}, {"lat": -54.6467, "lng": -2.87, "id": "493701", "name": "Triceraspyris antarctica", "sprite": "sp-anchoviella_juruasanga.png", "group": "other", "rarity": 1}, {"lat": -54.9475, "lng": -0.7182, "id": "212583", "name": "Diomedea exulans", "sprite": "sp-anchoviella_juruasanga.png", "group": "other", "rarity": 1}, {"lat": -54.6467, "lng": -2.87, "id": "412907", "name": "Actinomma antarcticum", "sprite": "sp-anchoviella_juruasanga.png", "group": "other", "rarity": 1}, {"lat": -54.6467, "lng": -2.87, "id": "493630", "name": "Cycladophora bicornis", "sprite": "sp-anchoviella_juruasanga.png", "group": "other", "rarity": 1}, {"lat": -54.4903, "lng": -3.2383, "id": "322567", "name": "Ophioplinthus gelida", "sprite": "sp-sea_cucumber.png", "group": "starfish", "rarity": 1}, {"lat": -54.6467, "lng": -2.87, "id": "413047", "name": "Actinomma boreale", "sprite": "sp-anchoviella_juruasanga.png", "group": "other", "rarity": 1}, {"lat": -55.1317, "lng": -2.8883, "id": "722760", "name": "Coxiella", "sprite": "sp-cowrie_shell.png", "group": "sea_snail", "rarity": 1}, {"lat": -55.1317, "lng": -2.8883, "id": "393081", "name": "Teredinibacter", "sprite": "sp-anchoviella_juruasanga.png", "group": "other", "rarity": 1}, {"lat": -55.1317, "lng": -2.8883, "id": "570028", "name": "Bacteriovoracaceae", "sprite": "sp-anchoviella_juruasanga.png", "group": "other", "rarity": 1}, {"lat": -54.6467, "lng": -2.87, "id": "367325", "name": "Spongurus pylomaticus", "sprite": "sp-anchoviella_juruasanga.png", "group": "other", "rarity": 1}, {"lat": -53.3217, "lng": -0.7267, "id": "282976", "name": "Thysanopsetta naresi", "thumb": "tn_Thnar_u0.jpg", "sprite": "sp-atlantic_halibut.png", "group": "flatfish", "rarity": 1, "waterType": "Saltwater"}, {"lat": -54.0167, "lng": -0.01, "id": "234825", "name": "Antarctic spiny plunderfish", "thumb": "tn_Haant_u0.jpg", "sprite": "sp-anchoviella_juruasanga.png", "group": "other", "rarity": 1, "waterType": "Saltwater"}, {"lat": -54.9014, "lng": -1.1594, "id": "103358", "name": "Fritillaria", "sprite": "sp-anchoviella_juruasanga.png", "group": "other", "rarity": 1}, {"lat": -53.8724, "lng": -0.1572, "id": "582421", "name": "Radiozoa", "sprite": "sp-anchoviella_juruasanga.png", "group": "other", "rarity": 1}, {"lat": -55.1317, "lng": -2.8883, "id": "393148", "name": "Rhizobiales", "sprite": "sp-anchoviella_juruasanga.png", "group": "other", "rarity": 1}, {"lat": -54.3996, "lng": -3.2251, "id": "172715", "name": "Bathybiaster loripes", "sprite": "sp-sea_cucumber.png", "group": "starfish", "rarity": 1}, {"lat": -55.194, "lng": -4.0539, "id": "212631", "name": "Phoebetria palpebrata", "sprite": "sp-anchoviella_juruasanga.png", "group": "other", "rarity": 1}, {"lat": -54.3775, "lng": -3.1242, "id": "172666", "name": "Lysasterias perrieri", "sprite": "sp-sea_cucumber.png", "group": "starfish", "rarity": 1}, {"lat": -55.1317, "lng": -2.8883, "id": "571372", "name": "Nitrosospira", "sprite": "sp-anchoviella_juruasanga.png", "group": "other", "rarity": 1}, {"lat": -55.2424, "lng": -4.6839, "id": "212583", "name": "Diomedea exulans", "sprite": "sp-anchoviella_juruasanga.png", "group": "other", "rarity": 1}, {"lat": -53.8561, "lng": -0.1463, "id": "342444", "name": "Clausocalanus laticeps", "sprite": "sp-anchoviella_juruasanga.png", "group": "other", "rarity": 1}, {"lat": -53.0759, "lng": -4.997, "id": "113462", "name": "Turborotalita quinqueloba", "sprite": "sp-anchoviella_juruasanga.png", "group": "other", "rarity": 1}, {"lat": -53.5432, "lng": -0.0535, "id": "103367", "name": "Oikopleura", "sprite": "sp-anchoviella_juruasanga.png", "group": "other", "rarity": 1}, {"lat": -55.1317, "lng": -2.8883, "id": "559981", "name": "Cryomorphaceae", "sprite": "sp-anchoviella_juruasanga.png", "group": "other", "rarity": 1}, {"lat": -54.8147, "lng": -1.0865, "id": "1080", "name": "Copepoda", "sprite": "sp-anchoviella_juruasanga.png", "group": "other", "rarity": 1}, {"lat": -55.1317, "lng": -2.8883, "id": "393087", "name": "Glaciecola", "sprite": "sp-anchoviella_juruasanga.png", "group": "other", "rarity": 1}, {"lat": -54.4903, "lng": -3.2383, "id": "411132", "name": "Doris kerguelenensis", "sprite": "sp-cowrie_shell.png", "group": "sea_snail", "rarity": 1}]}