{"zoom": 6, "x": 32, "y": 39, "points": [{"lat": -39.4408, "lng": 0.2025, "id": "105416", "name": "Eukrohnia hamata", "sprite": "sp-anchoviella_juruasanga.png", "group": "other", "rarity": 1}, {"lat": -37.0, "lng": 0.0, "id": "2", "name": "Animalia", "sprite": "sp-anchoviella_juruasanga.png", "group": "other", "rarity": 1}, {"lat": -39.8333, "lng": 0.0, "id": "325420", "name": "Adenocystis utricularis", "sprite": "sp-anchoviella_juruasanga.png", "group": "other", "rarity": 1}, {"lat": -40.05, "lng": 0.05, "id": "109519", "name": "Gonyaulax", "sprite": "sp-anchoviella_juruasanga.png", "group": "other", "rarity": 1}, {"lat": -37.5, "lng": 0.0, "id": "127773", "name": "Conchoecia magna", "sprite": "sp-anchoviella_juruasanga.png", "group": "other", "rarity": 1}, {"lat": -39.6059, "lng": 1.2738, "id": "325384", "name": "Themisto gaudichaudii", "sprite": "sp-american_lobster.png", "group": "crab_lobster", "rarity": 1}, {"lat": -37.5042, "lng": 4.6, "id": "117617", "name": "Halicreas minimum", "sprite": "sp-anchoviella_juruasanga.png", "group": "other", "rarity": 1}, {"lat": -37.133, "lng": 5.383, "id": "135294", "name": "Periphylla periphylla", "sprite": "sp-box_jellyfish.png", "group": "jellyfish", "rarity": 1}, {"lat": -38.0, "lng": 0.1672, "id": "127338", "name": "Sloane's viperfish", "thumb": "tn_Chslo_u5.jpg", "sprite": "sp-anchoviella_juruasanga.png", "group": "other", "rarity": 1, "waterType": "Saltwater"}, {"lat": -37.5042, "lng": 4.6, "id": "174743", "name": "Crossota brunnea", "sprite": "sp-anchoviella_juruasanga.png", "group": "other", "rarity": 1}, {"lat": -38.2, "lng": 1.2, "id": "127080", "name": "Smalleye squaretail", "thumb": "tn_Tecuv_u1.jpg", "sprite": "sp-anchoviella_juruasanga.png", "group": "other", "rarity": 1, "waterType": "Saltwater"}, {"lat": -39.025, "lng": 0.2142, "id": "172467", "name": "Boroecia antipoda", "sprite": "sp-anchoviella_juruasanga.png", "group": "other", "rarity": 1}, {"lat": -39.025, "lng": 0.2142, "id": "176551", "name": "Mollicia amblypostha", "sprite": "sp-anchoviella_juruasanga.png", "group": "other", "rarity": 1}, {"lat": -39.409, "lng": 2.855, "id": "343995", "name": "Thalassarche melanophris", "sprite": "sp-anchoviella_juruasanga.png", "group": "other", "rarity": 1}, {"lat": -36.8333, "lng": 4.0048, "id": "113454", "name": "Globoturborotalita rubescens", "sprite": "sp-anchoviella_juruasanga.png", "group": "other", "rarity": 1}, {"lat": -40.0, "lng": 0.0, "id": "180699", "name": "Lestrigonus schizogeneios", "sprite": "sp-american_lobster.png", "group": "crab_lobster", "rarity": 1}, {"lat": -38.233, "lng": 1.25, "id": "135281", "name": "Atolla vanhoeffeni", "sprite": "sp-box_jellyfish.png", "group": "jellyfish", "rarity": 1}, {"lat": -37.5827, "lng": 1.4234, "id": "220222", "name": "Eubalaena australis", "sprite": "sp-blue_whale.png", "group": "whale", "rarity": 1}, {"lat": -36.8333, "lng": 3.9142, "id": "113444", "name": "Globigerinoides ruber", "sprite": "sp-anchoviella_juruasanga.png", "group": "other", "rarity": 1}, {"lat": -37.7833, "lng": 3.9833, "id": "325407", "name": "Cyllopus magellanicus", "sprite": "sp-american_lobster.png", "group": "crab_lobster", "rarity": 1}, {"lat": -39.025, "lng": 0.2142, "id": "127780", "name": "Conchoecissa symmetrica", "sprite": "sp-anchoviella_juruasanga.png", "group": "other", "rarity": 1}, {"lat": -39.83, "lng": 1.03, "id": "899197", "name": "Recurvoides contortus", "sprite": "sp-anchoviella_juruasanga.png", "group": "other", "rarity": 1}, {"lat": -38.6667, "lng": 0.4633, "id": "325384", "name": "Themisto gaudichaudii", "sprite": "sp-american_lobster.png", "group": "crab_lobster", "rarity": 1}, {"lat": -38.25, "lng": 1.2, "id": "126994", "name": "Pelagic basslet", "thumb": "tn_Hobro_u2.jpg", "sprite": "sp-anchoviella_juruasanga.png", "group": "other", "rarity": 1, "waterType": "Saltwater"}, {"lat": -39.8, "lng": 1.335, "id": "137165", "name": "Sterna paradisaea", "sprite": "sp-anchoviella_juruasanga.png", "group": "other", "rarity": 1}, {"lat": -39.1167, "lng": 0.2583, "id": "127734", "name": "Alacia valdiviae", "sprite": "sp-anchoviella_juruasanga.png", "group": "other", "rarity": 1}, {"lat": -36.8333, "lng": 4.2767, "id": "418106", "name": "Globigerinella calida", "sprite": "sp-anchoviella_juruasanga.png", "group": "other", "rarity": 1}, {"lat": -38.233, "lng": 1.25, "id": "342295", "name": "Enoploteuthis anapsis", "sprite": "sp-giant_pacific_octopus.png", "group": "octopus_squid", "rarity": 1}, {"lat": -39.83, "lng": 1.03, "id": "112593", "name": "Pyrgo murrhina", "sprite": "sp-anchoviella_juruasanga.png", "group": "other", "rarity": 1}, {"lat": -38.0, "lng": 0.8167, "id": "712555", "name": "South African thorny flathead", "thumb": "tn_Ropor_u1.gif", "sprite": "sp-anchoviella_juruasanga.png", "group": "other", "rarity": 1, "waterType": "Saltwater"}, {"lat": -38.9333, "lng": 0.17, "id": "127773", "name": "Conchoecia magna", "sprite": "sp-anchoviella_juruasanga.png", "group": "other", "rarity": 1}, {"lat": -40.05, "lng": 0.05, "id": "1310442", "name": "Octactis speculum", "sprite": "sp-anchoviella_juruasanga.png", "group": "other", "rarity": 1}, {"lat": -37.133, "lng": 5.383, "id": "325300", "name": "Gonatus antarcticus", "sprite": "sp-giant_pacific_octopus.png", "group": "octopus_squid", "rarity": 1}, {"lat": -38.267, "lng": 1.2, "id": "341864", "name": "Histioteuthis atlantica", "sprite": "sp-giant_pacific_octopus.png", "group": "octopus_squid", "rarity": 1}, {"lat": -36.8333, "lng": 4.1012, "id": "1026286", "name": "Trilobatus sacculifer", "sprite": "sp-anchoviella_juruasanga.png", "group": "other", "rarity": 1}, {"lat": -37.5, "lng": 0.0, "id": "172482", "name": "Conchoecilla chuni", "sprite": "sp-anchoviella_juruasanga.png", "group": "other", "rarity": 1}, {"lat": -39.4625, "lng": 0.8305, "id": "130219", "name": "Pelagobia longicirrata", "sprite": "sp-anchoviella_juruasanga.png", "group": "other", "rarity": 1}, {"lat": -36.8333, "lng": 4.4292, "id": "113461", "name": "Turborotalita humilis", "sprite": "sp-anchoviella_juruasanga.png", "group": "other", "rarity": 1}, {"lat": -38.1, "lng": 1.1, "id": "127374", "name": "Boa dragonfish", "thumb": "tn_Stboa_u1.jpg", "sprite": "sp-anchoviella_juruasanga.png", "group": "other", "rarity": 1, "waterType": "Saltwater"}, {"lat": -39.4408, "lng": 0.2025, "id": "105464", "name": "Serratosagitta serratodentata", "sprite": "sp-anchoviella_juruasanga.png", "group": "other", "rarity": 1}, {"lat": -38.9333, "lng": 0.17, "id": "172482", "name": "Conchoecilla chuni", "sprite": "sp-anchoviella_juruasanga.png", "group": "other", "rarity": 1}, {"lat": -37.5, "lng": 0.0, "id": "127830", "name": "Orthoconchoecia bispinosa", "sprite": "sp-anchoviella_juruasanga.png", "group": "other", "rarity": 1}, {"lat": -36.8333, "lng": 4.1559, "id": "1455327", "name": "Globorotalia (Truncorotalia) crassaformis", "sprite": "sp-anchoviella_juruasanga.png", "group": "other", "rarity": 1}, {"lat": -39.4408, "lng": 0.2025, "id": "370469", "name": "Decipisagitta decipiens", "sprite": "sp-anchoviella_juruasanga.png", "group": "other", "rarity": 1}, {"lat": -37.3, "lng": 0.0, "id": "1055919", "name": "Moerella analogica", "sprite": "sp-blue_mussel.png", "group": "clam_mussel", "rarity": 1}, {"lat": -40.27, "lng": 0.0585, "id": "2", "name": "Animalia", "sprite": "sp-anchoviella_juruasanga.png", "group": "other", "rarity": 1}, {"lat": -37.525, "lng": 4.55, "id": "127734", "name": "Alacia valdiviae", "sprite": "sp-anchoviella_juruasanga.png", "group": "other", "rarity": 1}, {"lat": -37.5, "lng": 0.0, "id": "127845", "name": "Paraconchoecia oblonga", "sprite": "sp-anchoviella_juruasanga.png", "group": "other", "rarity": 1}, {"lat": -36.8333, "lng": 3.5517, "id": "1567942", "name": "Globorotalia eastropacia", "sprite": "sp-anchoviella_juruasanga.png", "group": "other", "rarity": 1}, {"lat": -38.267, "lng": 1.2, "id": "341870", "name": "Histioteuthis macrohista", "sprite": "sp-giant_pacific_octopus.png", "group": "octopus_squid", "rarity": 1}, {"lat": -38.2, "lng": 1.2, "id": "275025", "name": "Krefft's snaggletooth", "sprite": "sp-anchoviella_juruasanga.png", "group": "other", "rarity": 1, "waterType": "Saltwater"}, {"lat": -36.8333, "lng": 3.9905, "id": "113441", "name": "Globigerinoides conglobatus", "sprite": "sp-anchoviella_juruasanga.png", "group": "other", "rarity": 1}, {"lat": -37.5, "lng": 0.0, "id": "127832", "name": "Orthoconchoecia secernenda", "sprite": "sp-anchoviella_juruasanga.png", "group": "other", "rarity": 1}, {"lat": -37.3, "lng": 0.0, "id": "140737", "name": "Phaxas pellucidus", "sprite": "sp-blue_mussel.png", "group": "clam_mussel", "rarity": 1}, {"lat": -40.05, "lng": 0.05, "id": "235979", "name": "Syracosphaera pulchra", "sprite": "sp-anchoviella_juruasanga.png", "group": "other", "rarity": 1}, {"lat": -38.25, "lng": 1.225, "id": "341850", "name": "Abraliopsis gilchristi", "sprite": "sp-giant_pacific_octopus.png", "group": "octopus_squid", "rarity": 1}, {"lat": -37.133, "lng": 5.383, "id": "514121", "name": "Deosergestes henseni", "sprite": "sp-american_lobster.png", "group": "crab_lobster", "rarity": 1}, {"lat": -39.83, "lng": 1.03, "id": "113350", "name": "Alabaminella weddellensis", "sprite": "sp-anchoviella_juruasanga.png", "group": "other", "rarity": 1}, {"lat": -38.0843, "lng": 2.0349, "id": "212631", "name": "Phoebetria palpebrata", "sprite": "sp-anchoviella_juruasanga.png", "group": "other", "rarity": 1}, {"lat": -36.8333, "lng": 4.1559, "id": "113440", "name": "Globigerinella siphonifera", "sprite": "sp-anchoviella_juruasanga.png", "group": "other", "rarity": 1}, {"lat": -39.0, "lng": 4.3347, "id": "127333", "name": "Bathophilus vaillanti", "sprite": "sp-anchoviella_juruasanga.png", "group": "other", "rarity": 1, "waterType": "Saltwater"}, {"lat": -38.233, "lng": 1.25, "id": "342401", "name": "Tetronychoteuthis dussumieri", "sprite": "sp-giant_pacific_octopus.png", "group": "octopus_squid", "rarity": 1}, {"lat": -37.795, "lng": 1.48, "id": "137165", "name": "Sterna paradisaea", "sprite": "sp-anchoviella_juruasanga.png", "group": "other", "rarity": 1}, {"lat": -38.9333, "lng": 0.17, "id": "172498", "name": "Metaconchoecia australis", "sprite": "sp-anchoviella_juruasanga.png", "group": "other", "rarity": 1}, {"lat": -39.05, "lng": 2.5833, "id": "137217", "name": "Salpidae", "sprite": "sp-anchoviella_juruasanga.png", "group": "other", "rarity": 1}, {"lat": -37.1, "lng": 5.4, "id": "126291", "name": "Narrownecked oceanic eel", "thumb": "tn_Deser_u1.gif", "sprite": "sp-electric_eel.png", "group": "eel", "rarity": 1, "waterType": "Saltwater"}, {"lat": -39.6265, "lng": 1.3796, "id": "220222", "name": "Eubalaena australis", "sprite": "sp-blue_whale.png", "group": "whale", "rarity": 1}, {"lat": -37.5, "lng": 0.0, "id": "127861", "name": "Proceroecia procera", "sprite": "sp-anchoviella_juruasanga.png", "group": "other", "rarity": 1}, {"lat": -37.8283, "lng": 5.0297, "id": "290086", "name": "Hensenanthula rotunda", "sprite": "sp-actiniidae.png", "group": "coral", "rarity": 1}, {"lat": -38.3, "lng": 1.2, "id": "234747", "name": "Temperate snaggletooth", "sprite": "sp-anchoviella_juruasanga.png", "group": "other", "rarity": 1, "waterType": "Saltwater"}, {"lat": -37.5, "lng": 0.0, "id": "1314243", "name": "Parthenoecia parthenoda", "sprite": "sp-anchoviella_juruasanga.png", "group": "other", "rarity": 1}, {"lat": -38.3293, "lng": 2.7039, "id": "212583", "name": "Diomedea exulans", "sprite": "sp-anchoviella_juruasanga.png", "group": "other", "rarity": 1}, {"lat": -36.8333, "lng": 3.5517, "id": "418107", "name": "Globigerinoides tenellus", "sprite": "sp-anchoviella_juruasanga.png", "group": "other", "rarity": 1}, {"lat": -38.0538, "lng": 0.2225, "id": "137119", "name": "Physeter macrocephalus", "sprite": "sp-blue_whale.png", "group": "whale", "rarity": 1}, {"lat": -39.025, "lng": 0.2142, "id": "127819", "name": "Mikroconchoecia acuticosta", "sprite": "sp-anchoviella_juruasanga.png", "group": "other", "rarity": 1}, {"lat": -37.05, "lng": 5.2, "id": "127367", "name": "Smalltooth dragonfish", "thumb": "tn_Pamic_u0.gif", "sprite": "sp-anchoviella_juruasanga.png", "group": "other", "rarity": 1, "waterType": "Saltwater"}, {"lat": -39.4751, "lng": 0.1946, "id": "212583", "name": "Diomedea exulans", "sprite": "sp-anchoviella_juruasanga.png", "group": "other", "rarity": 1}, {"lat": -37.1, "lng": 5.4, "id": "126841", "name": "Kali macrodon", "thumb": "tn_Kamac_u1.gif", "sprite": "sp-anchoviella_juruasanga.png", "group": "other", "rarity": 1, "waterType": "Saltwater"}, {"lat": -39.8, "lng": 2.55, "id": "156773", "name": "Cuspidaria undata", "sprite": "sp-blue_mussel.png", "group": "clam_mussel", "rarity": 1}, {"lat": -37.7354, "lng": 5.4313, "id": "120216", "name": "Siriella thompsonii", "sprite": "sp-american_lobster.png", "group": "crab_lobster", "rarity": 1}, {"lat": -39.35, "lng": 4.35, "id": "137217", "name": "Salpidae", "sprite": "sp-anchoviella_juruasanga.png", "group": "other", "rarity": 1}, {"lat": -38.1, "lng": 1.1, "id": "127270", "name": "Shoulderspine bigscale", "thumb": "tn_Mesub_u0.gif", "sprite": "sp-anchoviella_juruasanga.png", "group": "other", "rarity": 1, "waterType": "Brackish"}, {"lat": -38.0546, "lng": 4.7079, "id": "212632", "name": "Phoebetria fusca", "sprite": "sp-anchoviella_juruasanga.png", "group": "other", "rarity": 1}, {"lat": -39.8233, "lng": 3.56, "id": "137165", "name": "Sterna paradisaea", "sprite": "sp-anchoviella_juruasanga.png", "group": "other", "rarity": 1}, {"lat": -39.35, "lng": 4.3417, "id": "325384", "name": "Themisto gaudichaudii", "sprite": "sp-american_lobster.png", "group": "crab_lobster", "rarity": 1}, {"lat": -37.0333, "lng": 5.1333, "id": "127358", "name": "Stoplight loosejaw", "thumb": "tn_Manig_u6.jpg", "sprite": "sp-anchoviella_juruasanga.png", "group": "other", "rarity": 1, "waterType": "Saltwater"}, {"lat": -36.8333, "lng": 4.1559, "id": "113474", "name": "Neogloboquadrina incompta", "sprite": "sp-anchoviella_juruasanga.png", "group": "other", "rarity": 1}, {"lat": -37.5, "lng": 0.0, "id": "176554", "name": "Obtusoecia antarctica", "sprite": "sp-anchoviella_juruasanga.png", "group": "other", "rarity": 1}, {"lat": -39.9379, "lng": 4.0324, "id": "220222", "name": "Eubalaena australis", "sprite": "sp-blue_whale.png", "group": "whale", "rarity": 1}, {"lat": -38.233, "lng": 1.25, "id": "140649", "name": "Onychoteuthis banksii", "sprite": "sp-giant_pacific_octopus.png", "group": "octopus_squid", "rarity": 1}, {"lat": -37.5, "lng": 0.0, "id": "127820", "name": "Mikroconchoecia curta", "sprite": "sp-anchoviella_juruasanga.png", "group": "other", "rarity": 1}, {"lat": -37.5519, "lng": 3.9901, "id": "220222", "name": "Eubalaena australis", "sprite": "sp-blue_whale.png", "group": "whale", "rarity": 1}, {"lat": -39.025, "lng": 0.2142, "id": "176554", "name": "Obtusoecia antarctica", "sprite": "sp-anchoviella_juruasanga.png", "group": "other", "rarity": 1}, {"lat": -38.233, "lng": 1.25, "id": "325300", "name": "Gonatus antarcticus", "sprite": "sp-giant_pacific_octopus.png", "group": "octopus_squid", "rarity": 1}, {"lat": -36.8333, "lng": 3.5517, "id": "991763", "name": "Globigerinoides elongatus", "sprite": "sp-anchoviella_juruasanga.png", "group": "other", "rarity": 1}, {"lat": -39.8567, "lng": 1.1133, "id": "131566", "name": "Tomopteris planktonis", "sprite": "sp-anchoviella_juruasanga.png", "group": "other", "rarity": 1}, {"lat": -38.9944, "lng": 0.1994, "id": "127782", "name": "Discoconchoecia elegans", "sprite": "sp-anchoviella_juruasanga.png", "group": "other", "rarity": 1}, {"lat": -36.8333, "lng": 4.76, "id": "113458", "name": "Neogloboquadrina pachyderma", "sprite": "sp-anchoviella_juruasanga.png", "group": "other", "rarity": 1}, {"lat": -40.5103, "lng": 0.5647, "id": "212631", "name": "Phoebetria palpebrata", "sprite": "sp-anchoviella_juruasanga.png", "group": "other", "rarity": 1}, {"lat": -39.5698, "lng": 0.8014, "id": "131582", "name": "Typhloscolex muelleri", "sprite": "sp-anchoviella_juruasanga.png", "group": "other", "rarity": 1}, {"lat": -39.4867, "lng": 1.0412, "id": "129715", "name": "Tomopteris", "sprite": "sp-anchoviella_juruasanga.png", "group": "other", "rarity": 1}, {"lat": -37.3675, "lng": 1.4713, "id": "343995", "name": "Thalassarche melanophris", "sprite": "sp-anchoviella_juruasanga.png", "group": "other", "rarity": 1}, {"lat": -37.5, "lng": 0.0, "id": "127782", "name": "Discoconchoecia elegans", "sprite": "sp-anchoviella_juruasanga.png", "group": "other", "rarity": 1}, {"lat": -40.0625, "lng": 0.05, "id": "115104", "name": "Emiliania huxleyi", "sprite": "sp-anchoviella_juruasanga.png", "group": "other", "rarity": 1}, {"lat": -37.5, "lng": 0.0, "id": "127776", "name": "Conchoecilla daphnoides", "sprite": "sp-anchoviella_juruasanga.png", "group": "other", "rarity": 1}, {"lat": -38.2, "lng": 1.2, "id": "217617", "name": "Fangtooth dragonfish", "thumb": "tn_Menig_ud.jpg", "sprite": "sp-anchoviella_juruasanga.png", "group": "other", "rarity": 1, "waterType": "Saltwater"}, {"lat": -39.495, "lng": 0.4425, "id": "135278", "name": "Tetraplatia volitans", "sprite": "sp-anchoviella_juruasanga.png", "group": "other", "rarity": 1}, {"lat": -39.4408, "lng": 0.2025, "id": "105445", "name": "Pseudosagitta maxima", "sprite": "sp-anchoviella_juruasanga.png", "group": "other", "rarity": 1}, {"lat": -39.7889, "lng": 4.7687, "id": "212631", "name": "Phoebetria palpebrata", "sprite": "sp-anchoviella_juruasanga.png", "group": "other", "rarity": 1}, {"lat": -40.2215, "lng": 4.2576, "id": "212583", "name": "Diomedea exulans", "sprite": "sp-anchoviella_juruasanga.png", "group": "other", "rarity": 1}, {"lat": -38.9333, "lng": 0.17, "id": "127831", "name": "Orthoconchoecia haddoni", "sprite": "sp-anchoviella_juruasanga.png", "group": "other", "rarity": 1}, {"lat": -40.5318, "lng": 5.3182, "id": "231413", "name": "Mirounga leonina", "sprite": "sp-elephant_seal.png", "group": "seal", "rarity": 1}, {"lat": -40.05, "lng": 0.05, "id": "235828", "name": "Calyptrosphaera", "sprite": "sp-anchoviella_juruasanga.png", "group": "other", "rarity": 1}, {"lat": -39.7251, "lng": 3.8935, "id": "212632", "name": "Phoebetria fusca", "sprite": "sp-anchoviella_juruasanga.png", "group": "other", "rarity": 1}, {"lat": -38.5146, "lng": 1.3394, "id": "212632", "name": "Phoebetria fusca", "sprite": "sp-anchoviella_juruasanga.png", "group": "other", "rarity": 1}, {"lat": -38.2, "lng": 1.2, "id": "126412", "name": "Redmouth whalefish", "thumb": "tn_Rolor_u0.jpg", "sprite": "sp-anchoviella_juruasanga.png", "group": "other", "rarity": 1, "waterType": "Saltwater"}, {"lat": -38.9333, "lng": 0.17, "id": "105444", "name": "Pseudosagitta lyra", "sprite": "sp-anchoviella_juruasanga.png", "group": "other", "rarity": 1}, {"lat": -36.8333, "lng": 3.9257, "id": "113473", "name": "Neogloboquadrina dutertrei", "sprite": "sp-anchoviella_juruasanga.png", "group": "other", "rarity": 1}, {"lat": -37.5, "lng": 0.0, "id": "115104", "name": "Emiliania huxleyi", "sprite": "sp-anchoviella_juruasanga.png", "group": "other", "rarity": 1}, {"lat": -37.1, "lng": 5.4, "id": "127276", "name": "Longjaw bigscale", "thumb": "tn_Scrob_u0.jpg", "sprite": "sp-anchoviella_juruasanga.png", "group": "other", "rarity": 1, "waterType": "Saltwater"}]}