{"zoom": 6, "x": 34, "y": 28, "points": [{"lat": 17.3832, "lng": 16.4168, "id": "217400", "name": "Spotted skate", "thumb": "tn_Rastr_u0.jpg", "sprite": "sp-himantura_australis.png", "group": "ray", "rarity": 1, "waterType": "Saltwater"}, {"lat": 17.3831, "lng": 16.4169, "id": "274301", "name": "Frechkop's sole", "thumb": "tn_Mifre_u0.gif", "sprite": "sp-atlantic_halibut.png", "group": "flatfish", "rarity": 1, "waterType": "Saltwater"}, {"lat": 20.45, "lng": 16.767, "id": "268785", "name": "Clarias", "sprite": "sp-blue_catfish.png", "group": "catfish", "rarity": 1}, {"lat": 20.5, "lng": 16.5331, "id": "158884", "name": "Snakefish", "thumb": "tn_Trmyo_ua.jpg", "sprite": "sp-anchoviella_juruasanga.png", "group": "other", "rarity": 1, "waterType": "Saltwater"}, {"lat": 19.1, "lng": 12.9167, "id": "212600", "name": "Calidris minuta", "sprite": "sp-anchoviella_juruasanga.png", "group": "other", "rarity": 1}, {"lat": 21.7833, "lng": 13.5, "id": "104275", "name": "Aetideus armatus", "sprite": "sp-anchoviella_juruasanga.png", "group": "other", "rarity": 1}, {"lat": 19.1, "lng": 12.9167, "id": "212620", "name": "Vanellus spinosus", "sprite": "sp-anchoviella_juruasanga.png", "group": "other", "rarity": 1}, {"lat": 17.383, "lng": 16.417, "id": "105766", "name": "Raja", "sprite": "sp-himantura_australis.png", "group": "ray", "rarity": 1}, {"lat": 19.1, "lng": 12.9167, "id": "410016", "name": "Anas crecca crecca", "sprite": "sp-anchoviella_juruasanga.png", "group": "other", "rarity": 1}, {"lat": 20.3514, "lng": 12.9206, "id": "217579", "name": "Harlequin snake eel", "thumb": "tn_Mycol_u7.jpg", "sprite": "sp-electric_eel.png", "group": "eel", "rarity": 1, "waterType": "Saltwater"}]}