{"zoom": 6, "x": 34, "y": 26, "points": [{"lat": 27.7, "lng": 15.867, "id": "127027", "name": "Yellowfin tuna", "thumb": "tn_Thalb_u0.jpg", "sprite": "sp-bluefin_tuna.png", "group": "tuna_mackerel", "rarity": 1, "waterType": "Brackish"}, {"lat": 31.2833, "lng": 13.25, "id": "218388", "name": "Coachwhip trevally", "thumb": "tn_Caobl_u1.jpg", "sprite": "sp-anchoviella_juruasanga.png", "group": "other", "rarity": 1, "waterType": "Saltwater"}, {"lat": 30.8103, "lng": 13.2294, "id": "218411", "name": "Brassy trevally", "thumb": "tn_Capap_u4.jpg", "sprite": "sp-anchoviella_juruasanga.png", "group": "other", "rarity": 1, "waterType": "Brackish"}, {"lat": 30.8394, "lng": 13.2228, "id": "212879", "name": "Indo-Pacific sergeant", "thumb": "tn_Abvai_u9.jpg", "sprite": "sp-chrysiptera_caesifrons.png", "group": "clownfish", "rarity": 1, "waterType": "Saltwater"}, {"lat": 31.2833, "lng": 13.25, "id": "218365", "name": "Arrow bulleye", "thumb": "tn_Prsag_u0.jpg", "sprite": "sp-anchoviella_juruasanga.png", "group": "other", "rarity": 1, "waterType": "Saltwater"}, {"lat": 28.367, "lng": 14.167, "id": "127058", "name": "Red pandora", "thumb": "tn_Pabel_u2.jpg", "sprite": "sp-anchoviella_juruasanga.png", "group": "other", "rarity": 1, "waterType": "Saltwater"}, {"lat": 31.2833, "lng": 13.25, "id": "272149", "name": "Japanese flyingfish", "thumb": "tn_Chago_u0.jpg", "sprite": "sp-flying_fish.png", "group": "flying_fish", "rarity": 1, "waterType": "Saltwater"}, {"lat": 30.8103, "lng": 13.2294, "id": "1043424", "name": "Largescale mullet", "thumb": "tn_Limac_u6.jpg", "sprite": "sp-anchoviella_juruasanga.png", "group": "other", "rarity": 1, "waterType": "Brackish"}, {"lat": 30.8853, "lng": 13.2221, "id": "219558", "name": "Speckled goby", "thumb": "tn_Retam_u0.jpg", "sprite": "sp-eviota_bipunctata.png", "group": "goby", "rarity": 1, "waterType": "Brackish"}, {"lat": 31.2833, "lng": 13.25, "id": "277825", "name": "Blackspot goatfish", "thumb": "tn_Paspi_u0.jpg", "sprite": "sp-anchoviella_juruasanga.png", "group": "other", "rarity": 1, "waterType": "Brackish"}, {"lat": 31.2833, "lng": 13.25, "id": "219640", "name": "Brown surgeonfish", "thumb": "tn_Acnig_uq.jpg", "sprite": "sp-acanthurus_albimento.png", "group": "surgeonfish", "rarity": 1, "waterType": "Saltwater"}, {"lat": 30.8394, "lng": 13.2228, "id": "282350", "name": "Scalpel sawtail", "thumb": "tn_Prsca_u1.jpg", "sprite": "sp-acanthurus_albimento.png", "group": "surgeonfish", "rarity": 1, "waterType": "Saltwater"}, {"lat": 28.2, "lng": 14.017, "id": "127001", "name": "Azores chromis", "thumb": "tn_Chlim_m0.jpg", "sprite": "sp-chrysiptera_caesifrons.png", "group": "clownfish", "rarity": 1, "waterType": "Saltwater"}, {"lat": 31.4136, "lng": 13.1167, "id": "272144", "name": "Red lizard fish", "thumb": "tn_Syula_u2.jpg", "sprite": "sp-anchoviella_juruasanga.png", "group": "other", "rarity": 1, "waterType": "Saltwater"}, {"lat": 27.717, "lng": 15.767, "id": "273965", "name": "Large-eye dentex", "thumb": "tn_Demac_f0.jpg", "sprite": "sp-anchoviella_juruasanga.png", "group": "other", "rarity": 1, "waterType": "Saltwater"}, {"lat": 28.817, "lng": 15.367, "id": "126812", "name": "White trevally", "thumb": "tn_Psden_ua.jpg", "sprite": "sp-anchoviella_juruasanga.png", "group": "other", "rarity": 1, "waterType": "Brackish"}, {"lat": 27.4167, "lng": 12.4667, "id": "148742", "name": "Diomedeidae", "sprite": "sp-anchoviella_juruasanga.png", "group": "other", "rarity": 1}, {"lat": 30.8394, "lng": 13.2228, "id": "280382", "name": "Broadhead clingfish", "sprite": "sp-anchoviella_juruasanga.png", "group": "other", "rarity": 1, "waterType": "Saltwater"}, {"lat": 31.2833, "lng": 13.25, "id": "271989", "name": "Manetail snake eel", "thumb": "tn_Opuro_u1.jpg", "sprite": "sp-electric_eel.png", "group": "eel", "rarity": 1, "waterType": "Saltwater"}, {"lat": 31.2833, "lng": 13.25, "id": "280124", "name": "Bluestriped angelfish", "thumb": "tn_Chsep_u1.jpg", "sprite": "sp-holacanthus.png", "group": "angelfish", "rarity": 1, "waterType": "Saltwater"}, {"lat": 31.2833, "lng": 13.25, "id": "217873", "name": "Shortfin flyingfish", "thumb": "tn_Prbre_u0.gif", "sprite": "sp-flying_fish.png", "group": "flying_fish", "rarity": 1, "waterType": "Saltwater"}, {"lat": 30.8394, "lng": 13.2228, "id": "218986", "name": "Nebulous wrasse", "thumb": "tn_Haneb_u3.jpg", "sprite": "sp-cleaner_wrasse.png", "group": "wrasse", "rarity": 1, "waterType": "Saltwater"}, {"lat": 31.2833, "lng": 13.25, "id": "273327", "name": "Oriental butterflyfish", "thumb": "tn_Chaur_uu.jpg", "sprite": "sp-chaetodon.png", "group": "butterflyfish", "rarity": 1, "waterType": "Saltwater"}, {"lat": 27.717, "lng": 15.8, "id": "126484", "name": "European hake", "thumb": "tn_Memer_u5.jpg", "sprite": "sp-anchoviella_juruasanga.png", "group": "other", "rarity": 1, "waterType": "Saltwater"}, {"lat": 31.283, "lng": 13.2492, "id": "218912", "name": "Blackspot threadfin", "thumb": "tn_Posex_u6.jpg", "sprite": "sp-anchoviella_juruasanga.png", "group": "other", "rarity": 1, "waterType": "Brackish"}, {"lat": 30.8394, "lng": 13.2228, "id": "279234", "name": "Fourspot triplefin", "thumb": "tn_Hefus_u9.jpg", "sprite": "sp-helcogramma_ascensionis.png", "group": "blenny", "rarity": 1, "waterType": "Saltwater"}, {"lat": 31.4833, "lng": 13.0333, "id": "279183", "name": "Ocellate spot skate", "thumb": "tn_Okken_u0.jpg", "sprite": "sp-himantura_australis.png", "group": "ray", "rarity": 1, "waterType": "Saltwater"}, {"lat": 28.29, "lng": 13.51, "id": "124512", "name": "Holothuria (Holothuria) mammata", "sprite": "sp-sea_cucumber.png", "group": "starfish", "rarity": 1}, {"lat": 31.2833, "lng": 13.25, "id": "272273", "name": "Bali sardinella", "thumb": "tn_Salem_u2.jpg", "sprite": "sp-anchoviella_juruasanga.png", "group": "other", "rarity": 1, "waterType": "Saltwater"}, {"lat": 31.2833, "lng": 13.25, "id": "293607", "name": "Gnathophis nystromi", "thumb": "tn_Gnnys_u0.jpg", "sprite": "sp-electric_eel.png", "group": "eel", "rarity": 1, "waterType": "Saltwater"}, {"lat": 31.4711, "lng": 13.2586, "id": "276970", "name": "Spotted scat", "thumb": "tn_Scarg_u0.jpg", "sprite": "sp-anchoviella_juruasanga.png", "group": "other", "rarity": 1, "waterType": "Brackish"}, {"lat": 31.4833, "lng": 13.0333, "id": "276948", "name": "Spotted armoured-gurnard", "thumb": "tn_Sarie_u1.jpg", "sprite": "sp-anchoviella_juruasanga.png", "group": "other", "rarity": 1, "waterType": "Saltwater"}, {"lat": 31.3333, "lng": 13.2333, "id": "126036", "name": "Upeneus", "sprite": "sp-anchoviella_juruasanga.png", "group": "other", "rarity": 1}, {"lat": 30.8394, "lng": 13.2228, "id": "212888", "name": "Blackspot sergeant", "thumb": "tn_Absor_u0.jpg", "sprite": "sp-chrysiptera_caesifrons.png", "group": "clownfish", "rarity": 1, "waterType": "Brackish"}, {"lat": 31.2833, "lng": 13.25, "id": "273279", "name": "Amberstripe scad", "thumb": "tn_Demur_u3.jpg", "sprite": "sp-anchoviella_juruasanga.png", "group": "other", "rarity": 1, "waterType": "Saltwater"}, {"lat": 31.2833, "lng": 13.25, "id": "712684", "name": "Southern orange-lined cardinal fish", "thumb": "tn_Appro_u1.jpg", "sprite": "sp-anchoviella_juruasanga.png", "group": "other", "rarity": 1, "waterType": "Saltwater"}, {"lat": 28.817, "lng": 15.367, "id": "126998", "name": "Wreckfish", "thumb": "tn_Poame_f0.jpg", "sprite": "sp-anchoviella_juruasanga.png", "group": "other", "rarity": 1, "waterType": "Saltwater"}, {"lat": 31.2833, "lng": 13.25, "id": "218536", "name": "Painted sweetlips", "thumb": "tn_Dipic_u1.jpg", "sprite": "sp-anchoviella_juruasanga.png", "group": "other", "rarity": 1, "waterType": "Saltwater"}, {"lat": 31.2833, "lng": 13.25, "id": "126989", "name": "Goldband goatfish", "thumb": "tn_Upmol_u0.jpg", "sprite": "sp-anchoviella_juruasanga.png", "group": "other", "rarity": 1, "waterType": "Brackish"}, {"lat": 28.2, "lng": 14.017, "id": "127049", "name": "Annular seabream", "thumb": "tn_Diann_u4.jpg", "sprite": "sp-anchoviella_juruasanga.png", "group": "other", "rarity": 1, "waterType": "Brackish"}, {"lat": 28.817, "lng": 15.367, "id": "126816", "name": "Greater amberjack", "thumb": "tn_Sedum_u7.jpg", "sprite": "sp-anchoviella_juruasanga.png", "group": "other", "rarity": 1, "waterType": "Saltwater"}, {"lat": 31.2829, "lng": 13.249, "id": "281558", "name": "Stripey", "thumb": "tn_Mistr_u0.jpg", "sprite": "sp-anchoviella_juruasanga.png", "group": "other", "rarity": 1, "waterType": "Brackish"}, {"lat": 31.2833, "lng": 13.25, "id": "209406", "name": "Luminous cardinalfish", "thumb": "tn_Rhgra_u5.jpg", "sprite": "sp-anchoviella_juruasanga.png", "group": "other", "rarity": 1, "waterType": "Saltwater"}, {"lat": 31.2833, "lng": 13.25, "id": "272121", "name": "Wanieso lizardfish", "thumb": "tn_Sawan_u1.jpg", "sprite": "sp-anchoviella_juruasanga.png", "group": "other", "rarity": 1, "waterType": "Saltwater"}, {"lat": 31.4833, "lng": 13.0333, "id": "276575", "name": "Bembrops curvatura", "thumb": "tn_Becur_u0.jpg", "sprite": "sp-anchoviella_juruasanga.png", "group": "other", "rarity": 1, "waterType": "Saltwater"}, {"lat": 28.57, "lng": 13.32, "id": "1392292", "name": "Rhyssoplax canariensis", "sprite": "sp-anchoviella_juruasanga.png", "group": "other", "rarity": 1}, {"lat": 31.2833, "lng": 13.25, "id": "212078", "name": "Longspine emperor", "thumb": "tn_Legen_u3.jpg", "sprite": "sp-anchoviella_juruasanga.png", "group": "other", "rarity": 1, "waterType": "Brackish"}, {"lat": 31.4136, "lng": 13.1167, "id": "212546", "name": "Green jobfish", "thumb": "tn_Apvir_u5.jpg", "sprite": "sp-mutton_snapper.png", "group": "snapper", "rarity": 1, "waterType": "Saltwater"}, {"lat": 31.4136, "lng": 13.1167, "id": "218447", "name": "Longrakered trevally", "thumb": "tn_Ulmen_u0.jpg", "sprite": "sp-anchoviella_juruasanga.png", "group": "other", "rarity": 1, "waterType": "Saltwater"}, {"lat": 28.817, "lng": 15.367, "id": "273962", "name": "Common dentex", "thumb": "tn_Deden_u6.jpg", "sprite": "sp-anchoviella_juruasanga.png", "group": "other", "rarity": 1, "waterType": "Saltwater"}, {"lat": 31.3083, "lng": 13.2417, "id": "277605", "name": "Suggrundus meerdervoortii", "thumb": "tn_Sumee_u0.jpg", "sprite": "sp-anchoviella_juruasanga.png", "group": "other", "rarity": 1, "waterType": "Saltwater"}, {"lat": 31.2833, "lng": 13.25, "id": "127016", "name": "Frigate tuna", "thumb": "tn_Autha_u1.jpg", "sprite": "sp-bluefin_tuna.png", "group": "tuna_mackerel", "rarity": 1, "waterType": "Saltwater"}, {"lat": 30.8394, "lng": 13.2228, "id": "278032", "name": "Istigobius campbelli", "thumb": "tn_Iscam_u1.jpg", "sprite": "sp-eviota_bipunctata.png", "group": "goby", "rarity": 1, "waterType": "Saltwater"}, {"lat": 31.2833, "lng": 13.25, "id": "217594", "name": "Longfin snake-eel", "thumb": "tn_Pican_u6.jpg", "sprite": "sp-electric_eel.png", "group": "eel", "rarity": 1, "waterType": "Brackish"}, {"lat": 31.2833, "lng": 13.25, "id": "219982", "name": "Buccaneer anchovy", "thumb": "tn_Enpun_u1.jpg", "sprite": "sp-anchoviella_juruasanga.png", "group": "anchovy", "rarity": 1, "waterType": "Saltwater"}, {"lat": 31.2833, "lng": 13.25, "id": "217966", "name": "Bluespotted cornetfish", "thumb": "tn_Ficom_u6.jpg", "sprite": "sp-anchoviella_juruasanga.png", "group": "other", "rarity": 1, "waterType": "Saltwater"}, {"lat": 31.2833, "lng": 13.25, "id": "218390", "name": "Whitefin trevally", "thumb": "tn_Caequ_u3.jpg", "sprite": "sp-anchoviella_juruasanga.png", "group": "other", "rarity": 1, "waterType": "Saltwater"}, {"lat": 31.4136, "lng": 13.1167, "id": "219902", "name": "Thornback cowfish", "thumb": "tn_Lafor_u8.jpg", "sprite": "sp-anchoviella_juruasanga.png", "group": "other", "rarity": 1, "waterType": "Saltwater"}, {"lat": 31.0275, "lng": 13.2339, "id": "218498", "name": "Mangrove red snapper", "thumb": "tn_Luarg_uh.jpg", "sprite": "sp-mutton_snapper.png", "group": "snapper", "rarity": 1, "waterType": "Brackish"}, {"lat": 31.2833, "lng": 13.25, "id": "127427", "name": "John dory", "thumb": "tn_Zefab_u7.jpg", "sprite": "sp-anchoviella_juruasanga.png", "group": "other", "rarity": 1, "waterType": "Brackish"}, {"lat": 31.2833, "lng": 13.25, "id": "127006", "name": "Cobia", "thumb": "tn_Racan_u8.jpg", "sprite": "sp-anchoviella_juruasanga.png", "group": "other", "rarity": 1, "waterType": "Brackish"}, {"lat": 28.817, "lng": 15.367, "id": "127011", "name": "Canary drum", "thumb": "tn_Umcan_u0.jpg", "sprite": "sp-anchoviella_juruasanga.png", "group": "other", "rarity": 1, "waterType": "Saltwater"}, {"lat": 31.2833, "lng": 13.25, "id": "217664", "name": "Clouded lizardfish", "thumb": "tn_Saneb_u2.jpg", "sprite": "sp-anchoviella_juruasanga.png", "group": "other", "rarity": 1, "waterType": "Brackish"}, {"lat": 31.2833, "lng": 13.25, "id": "221386", "name": "Shortbelly eel", "thumb": "tn_Dyang_u1.jpg", "sprite": "sp-electric_eel.png", "group": "eel", "rarity": 1, "waterType": "Saltwater"}, {"lat": 30.8394, "lng": 13.2228, "id": "218018", "name": "Shortnose pipefish", "thumb": "tn_Miand_u0.jpg", "sprite": "sp-cosmocampus_coccineus.png", "group": "seahorse", "rarity": 1, "waterType": "Saltwater"}, {"lat": 30.8394, "lng": 13.2228, "id": "217469", "name": "Starry moray", "thumb": "tn_Ecneb_u1.jpg", "sprite": "sp-anarchias.png", "group": "moray", "rarity": 1, "waterType": "Saltwater"}, {"lat": 30.8394, "lng": 13.2228, "id": "209210", "name": "Spotted frillgoby", "thumb": "tn_Bacyc_u0.jpg", "sprite": "sp-eviota_bipunctata.png", "group": "goby", "rarity": 1, "waterType": "Brackish"}, {"lat": 31.4833, "lng": 13.0333, "id": "105832", "name": "Sharpnose sevengill shark", "thumb": "tn_Heper_u6.jpg", "sprite": "sp-great_white_shark.png", "group": "shark", "rarity": 1, "waterType": "Saltwater"}, {"lat": 31.2833, "lng": 13.25, "id": "277263", "name": "Azurio tuskfish", "thumb": "tn_Chazu_u1.jpg", "sprite": "sp-cleaner_wrasse.png", "group": "wrasse", "rarity": 1, "waterType": "Saltwater"}, {"lat": 31.2833, "lng": 13.25, "id": "126388", "name": "African sailfin flyingfish", "thumb": "tn_Pamen_u0.gif", "sprite": "sp-flying_fish.png", "group": "flying_fish", "rarity": 1, "waterType": "Saltwater"}, {"lat": 28.817, "lng": 15.367, "id": "127247", "name": "Black scorpionfish", "thumb": "tn_Scpor_u0.jpg", "sprite": "sp-parascorpaena_moultoni.png", "group": "scorpionfish", "rarity": 1, "waterType": "Saltwater"}, {"lat": 31.2819, "lng": 13.2469, "id": "218105", "name": "Scorpaenopsis oxycephalus", "sprite": "sp-parascorpaena_moultoni.png", "group": "scorpionfish", "rarity": 1}, {"lat": 28.833, "lng": 13.8, "id": "126099", "name": "Tripterygion", "sprite": "sp-helcogramma_ascensionis.png", "group": "blenny", "rarity": 1}, {"lat": 30.8394, "lng": 13.2228, "id": "205965", "name": "Eviota", "sprite": "sp-eviota_bipunctata.png", "group": "goby", "rarity": 1}, {"lat": 31.2833, "lng": 13.25, "id": "126851", "name": "Spearfish remora", "thumb": "tn_Rebra_u1.jpg", "sprite": "sp-anchoviella_juruasanga.png", "group": "other", "rarity": 1, "waterType": "Saltwater"}, {"lat": 30.6464, "lng": 13.2094, "id": "219356", "name": "Dusky sleeper", "thumb": "tn_Elfus_u1.jpg", "sprite": "sp-anchoviella_juruasanga.png", "group": "other", "rarity": 1, "waterType": "Brackish"}, {"lat": 31.2833, "lng": 13.25, "id": "125727", "name": "Bregmaceros", "sprite": "sp-anchoviella_juruasanga.png", "group": "other", "rarity": 1}, {"lat": 31.2833, "lng": 13.25, "id": "279265", "name": "Japanese armorhead", "thumb": "tn_Pejap_u1.jpg", "sprite": "sp-anchoviella_juruasanga.png", "group": "other", "rarity": 1, "waterType": "Saltwater"}, {"lat": 31.2833, "lng": 13.25, "id": "218754", "name": "Vagabond butterflyfish", "thumb": "tn_Chvag_u4.jpg", "sprite": "sp-chaetodon.png", "group": "butterflyfish", "rarity": 1, "waterType": "Saltwater"}, {"lat": 31.2833, "lng": 13.25, "id": "213661", "name": "Marr's fusilier", "thumb": "tn_Ptmar_u0.jpg", "sprite": "sp-anchoviella_juruasanga.png", "group": "other", "rarity": 1, "waterType": "Saltwater"}, {"lat": 30.8394, "lng": 13.2228, "id": "204736", "name": "Bathygobius", "sprite": "sp-eviota_bipunctata.png", "group": "goby", "rarity": 1}, {"lat": 31.2917, "lng": 13.2472, "id": "272114", "name": "Saurida macrolepis", "sprite": "sp-anchoviella_juruasanga.png", "group": "other", "rarity": 1, "waterType": "Saltwater"}, {"lat": 31.2826, "lng": 13.2485, "id": "277609", "name": "Blackfoot firefish", "thumb": "tn_Pahet_u0.jpg", "sprite": "sp-parascorpaena_moultoni.png", "group": "scorpionfish", "rarity": 1, "waterType": "Saltwater"}, {"lat": 30.6282, "lng": 13.2133, "id": "282899", "name": "Stiphodon percnopterygionus", "thumb": "tn_Stper_m1.jpg", "sprite": "sp-eviota_bipunctata.png", "group": "goby", "rarity": 1, "waterType": "Brackish"}, {"lat": 31.2833, "lng": 13.25, "id": "273728", "name": "Smokey chromis", "thumb": "tn_Chfum_u0.jpg", "sprite": "sp-chrysiptera_caesifrons.png", "group": "clownfish", "rarity": 1, "waterType": "Saltwater"}, {"lat": 27.717, "lng": 15.8, "id": "126426", "name": "European anchovy", "thumb": "tn_Enenc_u1.jpg", "sprite": "sp-anchoviella_juruasanga.png", "group": "anchovy", "rarity": 1, "waterType": "Brackish"}, {"lat": 31.2833, "lng": 13.25, "id": "271492", "name": "Japanese eagle ray", "thumb": "tn_Mytob_u1.jpg", "sprite": "sp-himantura_australis.png", "group": "ray", "rarity": 1, "waterType": "Saltwater"}, {"lat": 31.2833, "lng": 13.25, "id": "218448", "name": "Whitemouth jack", "thumb": "tn_Urura_u1.jpg", "sprite": "sp-anchoviella_juruasanga.png", "group": "other", "rarity": 1, "waterType": "Saltwater"}, {"lat": 30.9062, "lng": 13.2338, "id": "402617", "name": "Enneapterygius etheostoma", "thumb": "tn_Eneth_u0.jpg", "sprite": "sp-helcogramma_ascensionis.png", "group": "blenny", "rarity": 1, "waterType": "Saltwater"}, {"lat": 31.95, "lng": 15.7014, "id": "138615", "name": "Turritella", "sprite": "sp-cowrie_shell.png", "group": "sea_snail", "rarity": 1}, {"lat": 31.2833, "lng": 13.25, "id": "275269", "name": "Lagocephalus wheeleri", "thumb": "tn_Lawhe_u1.jpg", "sprite": "sp-fahaka_pufferfish.png", "group": "pufferfish", "rarity": 1, "waterType": "Saltwater"}, {"lat": 31.2833, "lng": 13.25, "id": "219937", "name": "Brown-lined puffer", "thumb": "tn_Cariv_m0.jpg", "sprite": "sp-fahaka_pufferfish.png", "group": "pufferfish", "rarity": 1, "waterType": "Saltwater"}, {"lat": 31.2833, "lng": 13.25, "id": "277088", "name": "Fivespot flounder", "thumb": "tn_Pspen_u0.jpg", "sprite": "sp-atlantic_halibut.png", "group": "flatfish", "rarity": 1, "waterType": "Saltwater"}, {"lat": 31.2833, "lng": 13.25, "id": "219713", "name": "Striped bonito", "thumb": "tn_Saori_u0.jpg", "sprite": "sp-bluefin_tuna.png", "group": "tuna_mackerel", "rarity": 1, "waterType": "Saltwater"}, {"lat": 30.8394, "lng": 13.2228, "id": "1605258", "name": "Abantennarius dorehensis", "sprite": "sp-deep_sea_anglerfish.png", "group": "anglerfish", "rarity": 1}, {"lat": 31.4628, "lng": 13.3253, "id": "212885", "name": "Bengal sergeant", "thumb": "tn_Abben_u0.jpg", "sprite": "sp-chrysiptera_caesifrons.png", "group": "clownfish", "rarity": 1, "waterType": "Saltwater"}, {"lat": 31.2833, "lng": 13.25, "id": "126848", "name": "Live sharksucker", "thumb": "tn_Rerem_u5.jpg", "sprite": "sp-anchoviella_juruasanga.png", "group": "other", "rarity": 1, "waterType": "Brackish"}, {"lat": 31.2333, "lng": 13.2333, "id": "277626", "name": "Bathygobius hongkongensis", "thumb": "tn_Bahon_u0.jpg", "sprite": "sp-eviota_bipunctata.png", "group": "goby", "rarity": 1, "waterType": "Saltwater"}, {"lat": 31.2833, "lng": 13.25, "id": "159246", "name": "Flat needlefish", "thumb": "tn_Abhia_m0.jpg", "sprite": "sp-anchoviella_juruasanga.png", "group": "other", "rarity": 1, "waterType": "Brackish"}, {"lat": 31.2833, "lng": 13.25, "id": "282279", "name": "Chinese fanray", "thumb": "tn_Plsin_u2.jpg", "sprite": "sp-himantura_australis.png", "group": "ray", "rarity": 1, "waterType": "Saltwater"}, {"lat": 31.2933, "lng": 13.2467, "id": "1022238", "name": "Indian perch", "thumb": "tn_Aplin_u0.jpg", "sprite": "sp-anchoviella_juruasanga.png", "group": "other", "rarity": 1, "waterType": "Saltwater"}, {"lat": 30.8394, "lng": 13.2228, "id": "278883", "name": "Okinawa flap-headed goby", "thumb": "tn_Caoki_u0.jpg", "sprite": "sp-eviota_bipunctata.png", "group": "goby", "rarity": 1, "waterType": "Brackish"}, {"lat": 31.2833, "lng": 13.25, "id": "159259", "name": "Hound needlefish", "thumb": "tn_Tycro_u1.jpg", "sprite": "sp-anchoviella_juruasanga.png", "group": "other", "rarity": 1, "waterType": "Saltwater"}, {"lat": 31.2903, "lng": 13.2472, "id": "218694", "name": "Japanese goatfish", "thumb": "tn_Upjap_u1.jpg", "sprite": "sp-anchoviella_juruasanga.png", "group": "other", "rarity": 1, "waterType": "Saltwater"}, {"lat": 30.8394, "lng": 13.2228, "id": "277319", "name": "Enneapterygius minutus", "thumb": "tn_Enmin_u0.jpg", "sprite": "sp-helcogramma_ascensionis.png", "group": "blenny", "rarity": 1, "waterType": "Saltwater"}, {"lat": 31.2833, "lng": 13.25, "id": "273480", "name": "Chicken grunt", "thumb": "tn_Patri_u3.jpg", "sprite": "sp-anchoviella_juruasanga.png", "group": "other", "rarity": 1, "waterType": "Saltwater"}, {"lat": 31.0789, "lng": 13.2251, "id": "282583", "name": "Rhinogobius giurinus", "thumb": "tn_Rhgiu_u1.jpg", "sprite": "sp-eviota_bipunctata.png", "group": "goby", "rarity": 1, "waterType": "Brackish"}, {"lat": 30.8394, "lng": 13.2228, "id": "219249", "name": "Blue-dashed rockskipper", "thumb": "tn_Blper_u7.jpg", "sprite": "sp-helcogramma_ascensionis.png", "group": "blenny", "rarity": 1, "waterType": "Saltwater"}, {"lat": 31.2833, "lng": 13.25, "id": "278672", "name": "Trachyrhamphus serratus", "thumb": "tn_Trser_u1.jpg", "sprite": "sp-cosmocampus_coccineus.png", "group": "seahorse", "rarity": 1, "waterType": "Saltwater"}, {"lat": 31.2833, "lng": 13.25, "id": "219331", "name": "Striped poison-fang blenny mimic", "thumb": "tn_Pebre_u6.jpg", "sprite": "sp-helcogramma_ascensionis.png", "group": "blenny", "rarity": 1, "waterType": "Brackish"}, {"lat": 31.507, "lng": 13.0362, "id": "280303", "name": "Coelorinchus longissimus", "sprite": "sp-anchoviella_juruasanga.png", "group": "other", "rarity": 1, "waterType": "Saltwater"}, {"lat": 31.5307, "lng": 13.039, "id": "218772", "name": "Sailfin armourhead", "thumb": "tn_Hityp_u2.jpg", "sprite": "sp-anchoviella_juruasanga.png", "group": "other", "rarity": 1, "waterType": "Saltwater"}, {"lat": 31.2833, "lng": 13.25, "id": "274905", "name": "Lepidotrigla microptera", "thumb": "tn_Lemic_uc.jpg", "sprite": "sp-anchoviella_juruasanga.png", "group": "other", "rarity": 1, "waterType": "Saltwater"}, {"lat": 31.2833, "lng": 13.25, "id": "281042", "name": "Japanese topeshark", "thumb": "tn_Hejap_u1.gif", "sprite": "sp-great_white_shark.png", "group": "shark", "rarity": 1, "waterType": "Saltwater"}, {"lat": 31.2833, "lng": 13.25, "id": "1526390", "name": "Pugnose ponyfish", "thumb": "tn_Seins_u1.jpg", "sprite": "sp-anchoviella_juruasanga.png", "group": "other", "rarity": 1, "waterType": "Brackish"}, {"lat": 31.4628, "lng": 13.3253, "id": "219463", "name": "Greenbubble dwarfgoby", "thumb": "tn_Evpra_f0.jpg", "sprite": "sp-eviota_bipunctata.png", "group": "goby", "rarity": 1, "waterType": "Saltwater"}, {"lat": 31.2833, "lng": 13.25, "id": "219668", "name": "Bluespine unicornfish", "thumb": "tn_Nauni_u0.jpg", "sprite": "sp-acanthurus_albimento.png", "group": "surgeonfish", "rarity": 1, "waterType": "Saltwater"}, {"lat": 31.2833, "lng": 13.25, "id": "271726", "name": "Ariosoma meeki", "thumb": "tn_Armee_u0.jpg", "sprite": "sp-electric_eel.png", "group": "eel", "rarity": 1, "waterType": "Saltwater"}, {"lat": 31.2828, "lng": 13.2488, "id": "209281", "name": "Flag-in cardinal-fish", "thumb": "tn_Apell_u0.jpg", "sprite": "sp-anchoviella_juruasanga.png", "group": "other", "rarity": 1, "waterType": "Saltwater"}, {"lat": 30.9654, "lng": 13.23, "id": "126983", "name": "Flathead grey mullet", "thumb": "tn_Mucep_u4.jpg", "sprite": "sp-anchoviella_juruasanga.png", "group": "other", "rarity": 1, "waterType": "Brackish"}]}