{"zoom": 6, "x": 37, "y": 31, "points": [{"lat": 1.05, "lng": 29.15, "id": "1580101", "name": "Guttera plumifera schubotzi", "sprite": "sp-anchoviella_juruasanga.png", "group": "other", "rarity": 1}, {"lat": 0.5, "lng": 29.9333, "id": "212620", "name": "Vanellus spinosus", "sprite": "sp-anchoviella_juruasanga.png", "group": "other", "rarity": 1}, {"lat": 1.8479, "lng": 30.1066, "id": "172385", "name": "Fragilaria capucina var. capucina", "sprite": "sp-anchoviella_juruasanga.png", "group": "other", "rarity": 1}, {"lat": 0.0305, "lng": 32.4518, "id": "154645", "name": "Bagridae", "sprite": "sp-blue_catfish.png", "group": "catfish", "rarity": 1}, {"lat": 0.4044, "lng": 33.1945, "id": "154400", "name": "Guppy", "thumb": "tn_Poret_ue.jpg", "sprite": "sp-anchoviella_juruasanga.png", "group": "other", "rarity": 1, "waterType": "Brackish"}, {"lat": 3.6833, "lng": 29.1333, "id": "1516502", "name": "Arvicanthis niloticus", "sprite": "sp-anchoviella_juruasanga.png", "group": "other", "rarity": 1}, {"lat": 0.4838, "lng": 33.1632, "id": "1488242", "name": "Sclerophrys regularis", "sprite": "sp-anchoviella_juruasanga.png", "group": "other", "rarity": 1}, {"lat": 1.8939, "lng": 30.0621, "id": "172799", "name": "Navicula gregaria", "sprite": "sp-anchoviella_juruasanga.png", "group": "other", "rarity": 1}, {"lat": 0.15, "lng": 29.3667, "id": "1548333", "name": "Rostratula benghalensis", "sprite": "sp-anchoviella_juruasanga.png", "group": "other", "rarity": 1}, {"lat": 0.6189, "lng": 29.6494, "id": "146142", "name": "Bryozoa", "sprite": "sp-anchoviella_juruasanga.png", "group": "other", "rarity": 1}, {"lat": 0.3456, "lng": 29.9684, "id": "148370", "name": "Daphnia", "sprite": "sp-anchoviella_juruasanga.png", "group": "other", "rarity": 1}, {"lat": 0.3923, "lng": 29.7771, "id": "154291", "name": "Barbus", "sprite": "sp-enteromius.png", "group": "carp_minnow", "rarity": 1}, {"lat": 0.4014, "lng": 33.2481, "id": "206826", "name": "Oreochromis", "sprite": "sp-coptodon_louka.png", "group": "cichlid", "rarity": 1}, {"lat": 2.2786, "lng": 31.6878, "id": "268352", "name": "Aplocheilichthys", "sprite": "sp-anchoviella_juruasanga.png", "group": "other", "rarity": 1}, {"lat": 0.1991, "lng": 32.7137, "id": "154291", "name": "Barbus", "sprite": "sp-enteromius.png", "group": "carp_minnow", "rarity": 1}, {"lat": 0.295, "lng": 29.9047, "id": "148406", "name": "Chydorus sphaericus", "sprite": "sp-anchoviella_juruasanga.png", "group": "other", "rarity": 1}, {"lat": 0.5636, "lng": 30.3606, "id": "101", "name": "Gastropoda", "sprite": "sp-cowrie_shell.png", "group": "sea_snail", "rarity": 1}, {"lat": 0.1122, "lng": 32.5486, "id": "280003", "name": "True big-scale tetra", "thumb": "tn_Brmac_u4.jpg", "sprite": "sp-anchoviella_juruasanga.png", "group": "other", "rarity": 1, "waterType": "Brackish"}, {"lat": 1.8939, "lng": 30.0621, "id": "149524", "name": "Amphora ovalis", "sprite": "sp-anchoviella_juruasanga.png", "group": "other", "rarity": 1}, {"lat": 0.5875, "lng": 29.8042, "id": "1479040", "name": "Bubalus bubalis", "sprite": "sp-anchoviella_juruasanga.png", "group": "other", "rarity": 1}, {"lat": 0.15, "lng": 29.2833, "id": "416693", "name": "Porzana porzana", "sprite": "sp-anchoviella_juruasanga.png", "group": "other", "rarity": 1}, {"lat": 3.6833, "lng": 29.1333, "id": "212620", "name": "Vanellus spinosus", "sprite": "sp-anchoviella_juruasanga.png", "group": "other", "rarity": 1}, {"lat": 0.5169, "lng": 29.5948, "id": "268785", "name": "Clarias", "sprite": "sp-blue_catfish.png", "group": "catfish", "rarity": 1}, {"lat": 0.3833, "lng": 29.9, "id": "212715", "name": "Gypohierax angolensis", "sprite": "sp-anchoviella_juruasanga.png", "group": "other", "rarity": 1}, {"lat": 1.4002, "lng": 28.5806, "id": "280003", "name": "True big-scale tetra", "thumb": "tn_Brmac_u4.jpg", "sprite": "sp-anchoviella_juruasanga.png", "group": "other", "rarity": 1, "waterType": "Brackish"}, {"lat": 0.2267, "lng": 30.275, "id": "268352", "name": "Aplocheilichthys", "sprite": "sp-anchoviella_juruasanga.png", "group": "other", "rarity": 1}, {"lat": 4.3333, "lng": 29.8333, "id": "1610105", "name": "Grayia smythii", "sprite": "sp-anchoviella_juruasanga.png", "group": "other", "rarity": 1}, {"lat": 1.275, "lng": 29.7833, "id": "1516502", "name": "Arvicanthis niloticus", "sprite": "sp-anchoviella_juruasanga.png", "group": "other", "rarity": 1}, {"lat": 0.699, "lng": 29.52, "id": "205886", "name": "Cisticola", "sprite": "sp-anchoviella_juruasanga.png", "group": "other", "rarity": 1}, {"lat": 0.5, "lng": 29.4667, "id": "1484443", "name": "Estrilda melpoda", "sprite": "sp-anchoviella_juruasanga.png", "group": "other", "rarity": 1}, {"lat": 4.0, "lng": 29.45, "id": "416680", "name": "Alopochen aegyptiaca", "sprite": "sp-anchoviella_juruasanga.png", "group": "other", "rarity": 1}, {"lat": 1.8479, "lng": 30.1066, "id": "149498", "name": "Gyrosigma scalproides", "sprite": "sp-anchoviella_juruasanga.png", "group": "other", "rarity": 1}, {"lat": 1.8785, "lng": 30.0769, "id": "1428162", "name": "Sellaphora nigri", "sprite": "sp-anchoviella_juruasanga.png", "group": "other", "rarity": 1}, {"lat": 3.6833, "lng": 29.1333, "id": "1485229", "name": "Hemidactylus mabouia", "sprite": "sp-anchoviella_juruasanga.png", "group": "other", "rarity": 1}, {"lat": 4.571, "lng": 28.402, "id": "1488236", "name": "Ptychadena oxyrhynchus", "sprite": "sp-anchoviella_juruasanga.png", "group": "other", "rarity": 1}, {"lat": 1.8939, "lng": 30.0621, "id": "969054", "name": "Achnanthes rupestris var. rupestris", "sprite": "sp-anchoviella_juruasanga.png", "group": "other", "rarity": 1}, {"lat": 1.8709, "lng": 30.0844, "id": "984026", "name": "Navicula mutica f. mutica", "sprite": "sp-anchoviella_juruasanga.png", "group": "other", "rarity": 1}, {"lat": 1.8907, "lng": 30.0682, "id": "973746", "name": "Achnanthes subhudsonis var. subhudsonis", "sprite": "sp-anchoviella_juruasanga.png", "group": "other", "rarity": 1}, {"lat": 1.2333, "lng": 30.4667, "id": "212707", "name": "Platalea alba", "sprite": "sp-anchoviella_juruasanga.png", "group": "other", "rarity": 1}, {"lat": 4.6683, "lng": 28.2374, "id": "1486708", "name": "Hoplobatrachus occipitalis", "sprite": "sp-anchoviella_juruasanga.png", "group": "other", "rarity": 1}, {"lat": 0.9343, "lng": 30.15, "id": "1485229", "name": "Hemidactylus mabouia", "sprite": "sp-anchoviella_juruasanga.png", "group": "other", "rarity": 1}, {"lat": 1.2333, "lng": 30.4667, "id": "1542687", "name": "Hydrictis maculicollis", "sprite": "sp-giant_river_otter.png", "group": "sea_otter", "rarity": 1}, {"lat": 0.6667, "lng": 29.8333, "id": "212666", "name": "Ardea goliath", "sprite": "sp-anchoviella_juruasanga.png", "group": "other", "rarity": 1}, {"lat": 1.0389, "lng": 30.2056, "id": "212603", "name": "Actitis hypoleucos", "sprite": "sp-anchoviella_juruasanga.png", "group": "other", "rarity": 1}, {"lat": 4.3333, "lng": 29.25, "id": "1560718", "name": "Ciconia abdimii", "sprite": "sp-anchoviella_juruasanga.png", "group": "other", "rarity": 1}, {"lat": 0.8, "lng": 28.9667, "id": "1506658", "name": "Crocidura", "sprite": "sp-anchoviella_juruasanga.png", "group": "other", "rarity": 1}, {"lat": 0.2089, "lng": 32.4329, "id": "268785", "name": "Clarias", "sprite": "sp-blue_catfish.png", "group": "catfish", "rarity": 1}, {"lat": 1.8939, "lng": 30.0621, "id": "974062", "name": "Achnanthes exigua var. exigua", "sprite": "sp-anchoviella_juruasanga.png", "group": "other", "rarity": 1}, {"lat": 1.4041, "lng": 28.5821, "id": "269582", "name": "Labeo", "sprite": "sp-enteromius.png", "group": "carp_minnow", "rarity": 1}, {"lat": 1.8479, "lng": 30.1066, "id": "149572", "name": "Hantzschia amphioxys", "sprite": "sp-anchoviella_juruasanga.png", "group": "other", "rarity": 1}, {"lat": 1.286, "lng": 30.4561, "id": "1486610", "name": "Pelusios williamsi", "sprite": "sp-anchoviella_juruasanga.png", "group": "other", "rarity": 1}, {"lat": 0.8278, "lng": 29.4, "id": "1560718", "name": "Ciconia abdimii", "sprite": "sp-anchoviella_juruasanga.png", "group": "other", "rarity": 1}, {"lat": 3.6833, "lng": 29.1333, "id": "212603", "name": "Actitis hypoleucos", "sprite": "sp-anchoviella_juruasanga.png", "group": "other", "rarity": 1}, {"lat": 4.3333, "lng": 29.8333, "id": "578010", "name": "Nycticorax nycticorax nycticorax", "sprite": "sp-anchoviella_juruasanga.png", "group": "other", "rarity": 1}, {"lat": 0.3813, "lng": 33.1544, "id": "293639", "name": "Nile tilapia", "thumb": "tn_Ornil_u6.jpg", "sprite": "sp-coptodon_louka.png", "group": "cichlid", "rarity": 1, "waterType": "Brackish"}, {"lat": 0.5336, "lng": 32.5314, "id": "1505231", "name": "Tadarida", "sprite": "sp-anchoviella_juruasanga.png", "group": "other", "rarity": 1}, {"lat": 0.3781, "lng": 29.8929, "id": "148397", "name": "Pleuroxus aduncus", "sprite": "sp-anchoviella_juruasanga.png", "group": "other", "rarity": 1}, {"lat": 0.5336, "lng": 32.5314, "id": "1037280", "name": "Eptesicus", "sprite": "sp-anchoviella_juruasanga.png", "group": "other", "rarity": 1}, {"lat": 1.8939, "lng": 30.0621, "id": "970823", "name": "Navicula schroeteri var. schroeteri", "sprite": "sp-anchoviella_juruasanga.png", "group": "other", "rarity": 1}, {"lat": 1.4, "lng": 30.4333, "id": "212612", "name": "Charadrius asiaticus", "sprite": "sp-anchoviella_juruasanga.png", "group": "other", "rarity": 1}, {"lat": 0.15, "lng": 29.2833, "id": "159046", "name": "Philomachus pugnax", "sprite": "sp-anchoviella_juruasanga.png", "group": "other", "rarity": 1}, {"lat": 1.4, "lng": 30.4333, "id": "137136", "name": "Chlidonias leucopterus", "sprite": "sp-anchoviella_juruasanga.png", "group": "other", "rarity": 1}, {"lat": 0.5167, "lng": 30.3, "id": "317356", "name": "Redbelly tilapia", "thumb": "tn_Cozil_u0.jpg", "sprite": "sp-coptodon_louka.png", "group": "cichlid", "rarity": 1, "waterType": "Brackish"}, {"lat": 1.8479, "lng": 30.1066, "id": "638795", "name": "Cymbella grossestriata", "sprite": "sp-anchoviella_juruasanga.png", "group": "other", "rarity": 1}, {"lat": 3.6833, "lng": 29.1333, "id": "366834", "name": "Glareola cinerea", "sprite": "sp-anchoviella_juruasanga.png", "group": "other", "rarity": 1}, {"lat": 1.9502, "lng": 30.0199, "id": "149203", "name": "Navicula cryptocephala", "sprite": "sp-anchoviella_juruasanga.png", "group": "other", "rarity": 1}, {"lat": 1.8709, "lng": 30.0844, "id": "614247", "name": "Navicula symmetrica", "sprite": "sp-anchoviella_juruasanga.png", "group": "other", "rarity": 1}, {"lat": 1.8939, "lng": 30.0621, "id": "176164", "name": "Gomphonema parvulum var. parvulum", "sprite": "sp-anchoviella_juruasanga.png", "group": "other", "rarity": 1}, {"lat": 1.8479, "lng": 30.1066, "id": "149451", "name": "Navicula cincta", "sprite": "sp-anchoviella_juruasanga.png", "group": "other", "rarity": 1}, {"lat": 1.8479, "lng": 30.1066, "id": "180507", "name": "Navicula contenta f. contenta", "sprite": "sp-anchoviella_juruasanga.png", "group": "other", "rarity": 1}, {"lat": 0.15, "lng": 29.2833, "id": "212674", "name": "Dendrocygna bicolor", "sprite": "sp-anchoviella_juruasanga.png", "group": "other", "rarity": 1}, {"lat": 1.8939, "lng": 30.0621, "id": "973710", "name": "Achnanthes minutissima var. minutissima", "sprite": "sp-anchoviella_juruasanga.png", "group": "other", "rarity": 1}, {"lat": 0.9961, "lng": 31.9959, "id": "151383", "name": "Cichlidae", "sprite": "sp-coptodon_louka.png", "group": "cichlid", "rarity": 1}, {"lat": 0.375, "lng": 29.775, "id": "1488195", "name": "Mochlus fernandi", "sprite": "sp-anchoviella_juruasanga.png", "group": "other", "rarity": 1}, {"lat": 1.05, "lng": 29.15, "id": "366832", "name": "Glareola nordmanni", "sprite": "sp-anchoviella_juruasanga.png", "group": "other", "rarity": 1}, {"lat": 3.5667, "lng": 31.4333, "id": "268785", "name": "Clarias", "sprite": "sp-blue_catfish.png", "group": "catfish", "rarity": 1}, {"lat": 0.3102, "lng": 29.8917, "id": "148388", "name": "Ilyocryptus", "sprite": "sp-anchoviella_juruasanga.png", "group": "other", "rarity": 1}, {"lat": 1.534, "lng": 30.9682, "id": "206513", "name": "Lates", "sprite": "sp-anchoviella_juruasanga.png", "group": "other", "rarity": 1}, {"lat": 0.6496, "lng": 33.2878, "id": "317356", "name": "Redbelly tilapia", "thumb": "tn_Cozil_u0.jpg", "sprite": "sp-coptodon_louka.png", "group": "cichlid", "rarity": 1, "waterType": "Brackish"}, {"lat": 3.6167, "lng": 28.5667, "id": "404123", "name": "Aonyx capensis", "sprite": "sp-giant_river_otter.png", "group": "sea_otter", "rarity": 1}, {"lat": 0.0667, "lng": 30.2167, "id": "151383", "name": "Cichlidae", "sprite": "sp-coptodon_louka.png", "group": "cichlid", "rarity": 1}, {"lat": 1.8709, "lng": 30.0844, "id": "697400", "name": "Gomphonema intricatum var. pumila", "sprite": "sp-anchoviella_juruasanga.png", "group": "other", "rarity": 1}]}