{"zoom": 6, "x": 39, "y": 28, "points": [{"lat": 18.1111, "lng": 41.3522, "id": "531848", "name": "Tricornis tricornis", "sprite": "sp-cowrie_shell.png", "group": "sea_snail", "rarity": 1}, {"lat": 18.6586, "lng": 40.827, "id": "218732", "name": "Blacktail butterflyfish", "thumb": "tn_Chaus_u0.jpg", "sprite": "sp-chaetodon.png", "group": "butterflyfish", "rarity": 1, "waterType": "Saltwater"}, {"lat": 19.8741, "lng": 40.1089, "id": "211773", "name": "Regal angelfish", "thumb": "tn_Pydia_uk.jpg", "sprite": "sp-holacanthus.png", "group": "angelfish", "rarity": 1, "waterType": "Saltwater"}, {"lat": 18.1407, "lng": 40.2592, "id": "921", "name": "Capitellidae", "sprite": "sp-anchoviella_juruasanga.png", "group": "other", "rarity": 1}, {"lat": 19.0054, "lng": 40.0784, "id": "558453", "name": "Goniobranchus", "sprite": "sp-cowrie_shell.png", "group": "sea_snail", "rarity": 1}, {"lat": 16.9504, "lng": 41.8077, "id": "946", "name": "Hesionidae", "sprite": "sp-anchoviella_juruasanga.png", "group": "other", "rarity": 1}, {"lat": 18.6213, "lng": 40.5812, "id": "443875", "name": "Trapezia bidentata", "sprite": "sp-american_lobster.png", "group": "crab_lobster", "rarity": 1}, {"lat": 18.3611, "lng": 39.7655, "id": "13704", "name": "Limacinidae", "sprite": "sp-cowrie_shell.png", "group": "sea_snail", "rarity": 1}, {"lat": 16.791, "lng": 41.199, "id": "1470133", "name": "Asteronotus namuro", "sprite": "sp-cowrie_shell.png", "group": "sea_snail", "rarity": 1}, {"lat": 17.69, "lng": 40.76, "id": "207451", "name": "Favites chinensis", "sprite": "sp-actiniidae.png", "group": "coral", "rarity": 1}, {"lat": 19.7837, "lng": 39.9732, "id": "218719", "name": "Chevron butterflyfish", "thumb": "tn_Chtri_u1.jpg", "sprite": "sp-chaetodon.png", "group": "butterflyfish", "rarity": 1, "waterType": "Saltwater"}, {"lat": 16.7999, "lng": 42.2202, "id": "208948", "name": "Actinopyga bannwarthi", "sprite": "sp-sea_cucumber.png", "group": "starfish", "rarity": 1}, {"lat": 18.0552, "lng": 40.8572, "id": "2", "name": "Animalia", "sprite": "sp-anchoviella_juruasanga.png", "group": "other", "rarity": 1}, {"lat": 19.0038, "lng": 40.1482, "id": "212818", "name": "Trispot chromis", "thumb": "tn_Chtri_ue.jpg", "sprite": "sp-chrysiptera_caesifrons.png", "group": "clownfish", "rarity": 1, "waterType": "Saltwater"}, {"lat": 18.6595, "lng": 40.827, "id": "123314", "name": "Ophidiaster", "sprite": "sp-sea_cucumber.png", "group": "starfish", "rarity": 1}, {"lat": 18.4256, "lng": 40.9704, "id": "732677", "name": "Nodolatirus nodatus", "sprite": "sp-cowrie_shell.png", "group": "sea_snail", "rarity": 1}, {"lat": 20.2624, "lng": 39.9967, "id": "218404", "name": "Bigeye trevally", "thumb": "tn_Casex_u0.jpg", "sprite": "sp-anchoviella_juruasanga.png", "group": "other", "rarity": 1, "waterType": "Brackish"}, {"lat": 17.69, "lng": 40.76, "id": "207287", "name": "Leptoseris yabei", "sprite": "sp-actiniidae.png", "group": "coral", "rarity": 1}, {"lat": 16.836, "lng": 42.5835, "id": "106775", "name": "Pinnotheridae", "sprite": "sp-american_lobster.png", "group": "crab_lobster", "rarity": 1}, {"lat": 16.7807, "lng": 42.3313, "id": "208468", "name": "Isognomon isognomum", "sprite": "sp-blue_mussel.png", "group": "clam_mussel", "rarity": 1}, {"lat": 16.8354, "lng": 42.3064, "id": "212209", "name": "Moon wrasse", "thumb": "tn_Thlun_m0.jpg", "sprite": "sp-cleaner_wrasse.png", "group": "wrasse", "rarity": 1, "waterType": "Saltwater"}, {"lat": 16.8358, "lng": 42.3063, "id": "208488", "name": "Chama asperella", "sprite": "sp-blue_mussel.png", "group": "clam_mussel", "rarity": 1}, {"lat": 17.69, "lng": 40.76, "id": "207470", "name": "Leptastrea purpurea", "sprite": "sp-actiniidae.png", "group": "coral", "rarity": 1}, {"lat": 19.9169, "lng": 39.8706, "id": "137026", "name": "Tursiops", "sprite": "sp-bottlenose_dolphin.png", "group": "dolphin", "rarity": 1}, {"lat": 16.7667, "lng": 41.9667, "id": "660754", "name": "Lyngbya majuscula", "sprite": "sp-anchoviella_juruasanga.png", "group": "other", "rarity": 1}, {"lat": 16.791, "lng": 42.1987, "id": "203976", "name": "Trachycardium", "sprite": "sp-blue_mussel.png", "group": "clam_mussel", "rarity": 1}, {"lat": 16.836, "lng": 42.5835, "id": "106727", "name": "Penaeidae", "sprite": "sp-american_lobster.png", "group": "crab_lobster", "rarity": 1}, {"lat": 20.1672, "lng": 40.2233, "id": "106978", "name": "Alpheus", "sprite": "sp-american_lobster.png", "group": "crab_lobster", "rarity": 1}, {"lat": 16.813, "lng": 42.2522, "id": "212964", "name": "Sulphur damsel", "thumb": "tn_Posul_u1.jpg", "sprite": "sp-chrysiptera_caesifrons.png", "group": "clownfish", "rarity": 1, "waterType": "Saltwater"}, {"lat": 18.1117, "lng": 40.3012, "id": "138323", "name": "Pecten", "sprite": "sp-blue_mussel.png", "group": "clam_mussel", "rarity": 1}, {"lat": 16.7977, "lng": 42.1991, "id": "123133", "name": "Asterinidae", "sprite": "sp-sea_cucumber.png", "group": "starfish", "rarity": 1}, {"lat": 16.9903, "lng": 41.6443, "id": "557651", "name": "Hiplyra variegata", "sprite": "sp-american_lobster.png", "group": "crab_lobster", "rarity": 1}, {"lat": 19.5613, "lng": 40.0318, "id": "216685", "name": "Cerithium rueppelli", "sprite": "sp-cowrie_shell.png", "group": "sea_snail", "rarity": 1}, {"lat": 17.69, "lng": 40.76, "id": "207487", "name": "Platygyra lamellina", "sprite": "sp-actiniidae.png", "group": "coral", "rarity": 1}, {"lat": 16.9504, "lng": 41.8088, "id": "213364", "name": "Clypeaster humilis", "sprite": "sp-sea_cucumber.png", "group": "starfish", "rarity": 1}, {"lat": 20.0394, "lng": 40.1763, "id": "219999", "name": "Arabian angelfish", "thumb": "tn_Poasf_u0.jpg", "sprite": "sp-holacanthus.png", "group": "angelfish", "rarity": 1, "waterType": "Saltwater"}, {"lat": 19.8438, "lng": 40.1119, "id": "123207", "name": "Ophiactidae", "sprite": "sp-sea_cucumber.png", "group": "starfish", "rarity": 1}, {"lat": 18.7236, "lng": 40.5483, "id": "106840", "name": "Calcinus", "sprite": "sp-american_lobster.png", "group": "crab_lobster", "rarity": 1}, {"lat": 19.0053, "lng": 40.1482, "id": "196118", "name": "Oxycephalidae", "sprite": "sp-american_lobster.png", "group": "crab_lobster", "rarity": 1}, {"lat": 18.4129, "lng": 39.8792, "id": "586732", "name": "Acantharia", "sprite": "sp-anchoviella_juruasanga.png", "group": "other", "rarity": 1}, {"lat": 17.1147, "lng": 41.7958, "id": "217923", "name": "Yellowtip soldierfish", "thumb": "tn_Myxan_u0.jpg", "sprite": "sp-anchoviella_juruasanga.png", "group": "other", "rarity": 1, "waterType": "Saltwater"}, {"lat": 20.1672, "lng": 40.2233, "id": "330303", "name": "Paralepidonotus erythromaris", "sprite": "sp-anchoviella_juruasanga.png", "group": "other", "rarity": 1}, {"lat": 19.5707, "lng": 40.0088, "id": "106736", "name": "Diogenidae", "sprite": "sp-american_lobster.png", "group": "crab_lobster", "rarity": 1}, {"lat": 19.8711, "lng": 40.1078, "id": "218730", "name": "Threadfin butterflyfish", "thumb": "tn_Chaur_uv.jpg", "sprite": "sp-chaetodon.png", "group": "butterflyfish", "rarity": 1, "waterType": "Saltwater"}, {"lat": 17.5711, "lng": 41.4608, "id": "205005", "name": "Umbonium", "sprite": "sp-cowrie_shell.png", "group": "sea_snail", "rarity": 1}, {"lat": 16.7527, "lng": 41.6049, "id": "476501", "name": "Gyrineum concinnum", "sprite": "sp-cowrie_shell.png", "group": "sea_snail", "rarity": 1}, {"lat": 19.5707, "lng": 40.0088, "id": "836712", "name": "Thalamitoides spinigera", "sprite": "sp-american_lobster.png", "group": "crab_lobster", "rarity": 1}, {"lat": 16.8359, "lng": 42.3987, "id": "887755", "name": "Clivipollia incarnata", "sprite": "sp-cowrie_shell.png", "group": "sea_snail", "rarity": 1}, {"lat": 16.7943, "lng": 42.1989, "id": "216458", "name": "Ervilia purpurea", "sprite": "sp-blue_mussel.png", "group": "clam_mussel", "rarity": 1}, {"lat": 16.836, "lng": 42.5835, "id": "216923", "name": "Polinices mammilla", "sprite": "sp-cowrie_shell.png", "group": "sea_snail", "rarity": 1}, {"lat": 17.1639, "lng": 41.6929, "id": "310389", "name": "Paletail damsel", "thumb": "tn_Potri_u5.jpg", "sprite": "sp-chrysiptera_caesifrons.png", "group": "clownfish", "rarity": 1, "waterType": "Saltwater"}, {"lat": 16.792, "lng": 42.198, "id": "218695", "name": "Silver moony", "thumb": "tn_Moarg_u6.jpg", "sprite": "sp-anchoviella_juruasanga.png", "group": "other", "rarity": 1, "waterType": "Brackish"}, {"lat": 17.69, "lng": 40.76, "id": "207384", "name": "Acanthastrea echinata", "sprite": "sp-actiniidae.png", "group": "coral", "rarity": 1}, {"lat": 16.8729, "lng": 41.4068, "id": "712695", "name": "Narrowstripe cardinalfish", "thumb": "tn_Apexo_u4.jpg", "sprite": "sp-anchoviella_juruasanga.png", "group": "other", "rarity": 1, "waterType": "Saltwater"}, {"lat": 16.9789, "lng": 41.3852, "id": "393115", "name": "Laevichlamys rubromaculata", "sprite": "sp-blue_mussel.png", "group": "clam_mussel", "rarity": 1}, {"lat": 16.7977, "lng": 42.1991, "id": "206166", "name": "Botula", "sprite": "sp-blue_mussel.png", "group": "clam_mussel", "rarity": 1}, {"lat": 17.69, "lng": 40.76, "id": "207327", "name": "Cycloseris vaughani", "sprite": "sp-actiniidae.png", "group": "coral", "rarity": 1}, {"lat": 17.5494, "lng": 41.8658, "id": "605717", "name": "Malleus regula", "sprite": "sp-blue_mussel.png", "group": "clam_mussel", "rarity": 1}, {"lat": 18.0786, "lng": 40.9472, "id": "208840", "name": "Thalamita quadrilobata", "sprite": "sp-american_lobster.png", "group": "crab_lobster", "rarity": 1}, {"lat": 16.8358, "lng": 42.3063, "id": "106987", "name": "Hippolyte", "sprite": "sp-american_lobster.png", "group": "crab_lobster", "rarity": 1}, {"lat": 16.813, "lng": 42.2522, "id": "205965", "name": "Eviota", "sprite": "sp-eviota_bipunctata.png", "group": "goby", "rarity": 1}, {"lat": 18.6595, "lng": 40.827, "id": "107351", "name": "Micippa thalia", "sprite": "sp-american_lobster.png", "group": "crab_lobster", "rarity": 1}, {"lat": 16.793, "lng": 42.1973, "id": "218331", "name": "Sunrise dottyback", "thumb": "tn_Psfla_u9.jpg", "sprite": "sp-anchoviella_juruasanga.png", "group": "other", "rarity": 1, "waterType": "Saltwater"}, {"lat": 19.95, "lng": 40.117, "id": "218205", "name": "Greasy grouper", "thumb": "tn_Eptau_u0.jpg", "sprite": "sp-chelidoperca_santosi.png", "group": "grouper", "rarity": 1, "waterType": "Saltwater"}, {"lat": 19.0053, "lng": 40.1482, "id": "137760", "name": "Cerithium", "sprite": "sp-cowrie_shell.png", "group": "sea_snail", "rarity": 1}, {"lat": 19.5519, "lng": 40.0548, "id": "527652", "name": "Copula", "sprite": "sp-anchoviella_juruasanga.png", "group": "other", "rarity": 1}, {"lat": 17.5467, "lng": 41.3827, "id": "212392", "name": "Ophiomastix variabilis", "sprite": "sp-sea_cucumber.png", "group": "starfish", "rarity": 1}, {"lat": 19.5519, "lng": 40.0548, "id": "1360", "name": "Actiniaria", "sprite": "sp-actiniidae.png", "group": "coral", "rarity": 1}, {"lat": 18.5061, "lng": 40.6698, "id": "476516", "name": "Monoplex aquatilis", "sprite": "sp-cowrie_shell.png", "group": "sea_snail", "rarity": 1}, {"lat": 16.7907, "lng": 42.198, "id": "1007715", "name": "Threeband cardinalfish", "thumb": "tn_Ostri_m0.jpg", "sprite": "sp-anchoviella_juruasanga.png", "group": "other", "rarity": 1, "waterType": "Saltwater"}, {"lat": 16.7977, "lng": 42.1991, "id": "106840", "name": "Calcinus", "sprite": "sp-american_lobster.png", "group": "crab_lobster", "rarity": 1}, {"lat": 19.5519, "lng": 40.0548, "id": "137782", "name": "Chromodoris", "sprite": "sp-cowrie_shell.png", "group": "sea_snail", "rarity": 1}, {"lat": 17.8977, "lng": 41.3906, "id": "277598", "name": "Maldives damselfish", "thumb": "tn_Amind_u0.jpg", "sprite": "sp-chrysiptera_caesifrons.png", "group": "clownfish", "rarity": 1, "waterType": "Saltwater"}, {"lat": 17.1086, "lng": 42.0688, "id": "179636", "name": "Echinothrix", "sprite": "sp-sea_cucumber.png", "group": "starfish", "rarity": 1}, {"lat": 19.0053, "lng": 40.1482, "id": "210522", "name": "Alpheus paracrinitus", "sprite": "sp-american_lobster.png", "group": "crab_lobster", "rarity": 1}, {"lat": 16.7667, "lng": 41.9667, "id": "495604", "name": "Coleofasciculus chthonoplastes", "sprite": "sp-anchoviella_juruasanga.png", "group": "other", "rarity": 1}, {"lat": 18.6595, "lng": 40.827, "id": "506176", "name": "Septifer cumingii", "sprite": "sp-blue_mussel.png", "group": "clam_mussel", "rarity": 1}, {"lat": 18.4167, "lng": 39.8667, "id": "112203", "name": "Orbulina", "sprite": "sp-anchoviella_juruasanga.png", "group": "other", "rarity": 1}, {"lat": 18.1917, "lng": 41.1138, "id": "607338", "name": "Zoantharia", "sprite": "sp-actiniidae.png", "group": "coral", "rarity": 1}, {"lat": 17.1103, "lng": 42.0675, "id": "204563", "name": "Scorpaenopsis", "sprite": "sp-parascorpaena_moultoni.png", "group": "scorpionfish", "rarity": 1}, {"lat": 16.9504, "lng": 41.8109, "id": "599449", "name": "Sagaminopteron nigropunctatum", "sprite": "sp-cowrie_shell.png", "group": "sea_snail", "rarity": 1}, {"lat": 19.5707, "lng": 40.0088, "id": "514815", "name": "Alpheus amirantei", "sprite": "sp-american_lobster.png", "group": "crab_lobster", "rarity": 1}, {"lat": 17.3268, "lng": 41.7896, "id": "985", "name": "Sabellidae", "sprite": "sp-anchoviella_juruasanga.png", "group": "other", "rarity": 1}, {"lat": 16.7707, "lng": 42.4646, "id": "931", "name": "Phyllodocidae", "sprite": "sp-anchoviella_juruasanga.png", "group": "other", "rarity": 1}, {"lat": 20.1672, "lng": 40.2233, "id": "288925", "name": "Boloceroides mcmurrichi", "sprite": "sp-actiniidae.png", "group": "coral", "rarity": 1}, {"lat": 19.9715, "lng": 40.0745, "id": "1540017", "name": "Eviota marerubrum", "sprite": "sp-eviota_bipunctata.png", "group": "goby", "rarity": 1}, {"lat": 16.9504, "lng": 41.8109, "id": "1264647", "name": "Doriprismatica rossi", "sprite": "sp-cowrie_shell.png", "group": "sea_snail", "rarity": 1}, {"lat": 18.1806, "lng": 40.7918, "id": "952", "name": "Glyceridae", "sprite": "sp-anchoviella_juruasanga.png", "group": "other", "rarity": 1}, {"lat": 16.7527, "lng": 41.6049, "id": "564729", "name": "Conomurex fasciatus", "sprite": "sp-cowrie_shell.png", "group": "sea_snail", "rarity": 1}, {"lat": 16.7977, "lng": 42.1991, "id": "555464", "name": "Trivirostra triticum", "sprite": "sp-cowrie_shell.png", "group": "sea_snail", "rarity": 1}, {"lat": 17.69, "lng": 40.76, "id": "207179", "name": "Montipora stellata", "sprite": "sp-actiniidae.png", "group": "coral", "rarity": 1}, {"lat": 16.9504, "lng": 41.8077, "id": "878954", "name": "Pseudobiceros fulgor", "sprite": "sp-anchoviella_juruasanga.png", "group": "other", "rarity": 1}, {"lat": 18.0122, "lng": 40.0897, "id": "900", "name": "Terebellida", "sprite": "sp-anchoviella_juruasanga.png", "group": "other", "rarity": 1}, {"lat": 16.8169, "lng": 42.3913, "id": "923", "name": "Maldanidae", "sprite": "sp-anchoviella_juruasanga.png", "group": "other", "rarity": 1}, {"lat": 17.1766, "lng": 42.208, "id": "948", "name": "Syllidae", "sprite": "sp-anchoviella_juruasanga.png", "group": "other", "rarity": 1}, {"lat": 16.7977, "lng": 42.1991, "id": "216886", "name": "Pustularia cicercula", "sprite": "sp-cowrie_shell.png", "group": "sea_snail", "rarity": 1}, {"lat": 17.69, "lng": 40.76, "id": "207417", "name": "Diploastrea heliopora", "sprite": "sp-actiniidae.png", "group": "coral", "rarity": 1}, {"lat": 16.7527, "lng": 41.8109, "id": "534009", "name": "Crosslandia viridis", "sprite": "sp-cowrie_shell.png", "group": "sea_snail", "rarity": 1}, {"lat": 16.791, "lng": 42.1987, "id": "597354", "name": "Goniobranchus charlottae", "sprite": "sp-cowrie_shell.png", "group": "sea_snail", "rarity": 1}, {"lat": 16.7527, "lng": 41.6049, "id": "210533", "name": "Alpheus pareuchirus", "sprite": "sp-american_lobster.png", "group": "crab_lobster", "rarity": 1}, {"lat": 19.5705, "lng": 40.0087, "id": "181240", "name": "Caloria indica", "sprite": "sp-cowrie_shell.png", "group": "sea_snail", "rarity": 1}, {"lat": 19.8259, "lng": 40.1177, "id": "344684", "name": "Red sea lionfish", "thumb": "tn_Ptcin_u0.jpg", "sprite": "sp-parascorpaena_moultoni.png", "group": "scorpionfish", "rarity": 1, "waterType": "Saltwater"}, {"lat": 16.8257, "lng": 42.4179, "id": "138235", "name": "Nassarius", "sprite": "sp-cowrie_shell.png", "group": "sea_snail", "rarity": 1}, {"lat": 16.8337, "lng": 42.5826, "id": "730428", "name": "Murex scolopax", "sprite": "sp-cowrie_shell.png", "group": "sea_snail", "rarity": 1}, {"lat": 19.0053, "lng": 40.1482, "id": "513994", "name": "Cuapetes", "sprite": "sp-american_lobster.png", "group": "crab_lobster", "rarity": 1}, {"lat": 16.84, "lng": 41.58, "id": "330382", "name": "Parapterosyllis sexoculata", "sprite": "sp-anchoviella_juruasanga.png", "group": "other", "rarity": 1}, {"lat": 18.464, "lng": 40.8466, "id": "135074", "name": "Dendrophylliidae", "sprite": "sp-actiniidae.png", "group": "coral", "rarity": 1}, {"lat": 17.1667, "lng": 39.3833, "id": "219588", "name": "Yellow pygmygoby", "thumb": "tn_Trtay_u0.jpg", "sprite": "sp-eviota_bipunctata.png", "group": "goby", "rarity": 1, "waterType": "Saltwater"}, {"lat": 20.2624, "lng": 39.9967, "id": "218432", "name": "Talang queenfish", "thumb": "tn_Sccom_u5.jpg", "sprite": "sp-anchoviella_juruasanga.png", "group": "other", "rarity": 1, "waterType": "Brackish"}, {"lat": 18.1118, "lng": 41.1801, "id": "205143", "name": "Trapezia", "sprite": "sp-american_lobster.png", "group": "crab_lobster", "rarity": 1}, {"lat": 17.69, "lng": 40.76, "id": "207373", "name": "Mycedium elephantotus", "sprite": "sp-actiniidae.png", "group": "coral", "rarity": 1}, {"lat": 16.7802, "lng": 41.6077, "id": "209637", "name": "Iphione muricata", "sprite": "sp-anchoviella_juruasanga.png", "group": "other", "rarity": 1}, {"lat": 18.4129, "lng": 39.8792, "id": "128586", "name": "Oncaeidae", "sprite": "sp-anchoviella_juruasanga.png", "group": "other", "rarity": 1}, {"lat": 16.8168, "lng": 42.2527, "id": "506176", "name": "Septifer cumingii", "sprite": "sp-blue_mussel.png", "group": "clam_mussel", "rarity": 1}, {"lat": 21.4156, "lng": 42.0017, "id": "396726", "name": "Jellyella eburnea", "sprite": "sp-anchoviella_juruasanga.png", "group": "other", "rarity": 1}, {"lat": 16.7707, "lng": 42.4646, "id": "204603", "name": "Actaeodes", "sprite": "sp-american_lobster.png", "group": "crab_lobster", "rarity": 1}, {"lat": 19.5706, "lng": 40.0087, "id": "599554", "name": "Marionia levis", "sprite": "sp-cowrie_shell.png", "group": "sea_snail", "rarity": 1}, {"lat": 18.2835, "lng": 41.0056, "id": "209145", "name": "Liocarpilodes armiger", "sprite": "sp-american_lobster.png", "group": "crab_lobster", "rarity": 1}, {"lat": 18.4256, "lng": 40.9704, "id": "513422", "name": "Nudechinus verruculatus", "sprite": "sp-sea_cucumber.png", "group": "starfish", "rarity": 1}, {"lat": 17.4673, "lng": 41.7871, "id": "218084", "name": "Radial firefish", "thumb": "tn_Ptrad_u0.jpg", "sprite": "sp-parascorpaena_moultoni.png", "group": "scorpionfish", "rarity": 1, "waterType": "Saltwater"}]}