{"zoom": 6, "x": 3, "y": 35, "points": [{"lat": -18.8667, "lng": -159.7667, "id": "210065", "name": "Ptychodera flava", "sprite": "sp-anchoviella_juruasanga.png", "group": "other", "rarity": 1}, {"lat": -21.2223, "lng": -159.7748, "id": "208014", "name": "Tonna perdix", "sprite": "sp-cowrie_shell.png", "group": "sea_snail", "rarity": 1}, {"lat": -18.883, "lng": -159.775, "id": "208536", "name": "Vanikoro cancellata", "sprite": "sp-cowrie_shell.png", "group": "sea_snail", "rarity": 1}, {"lat": -21.25, "lng": -159.74, "id": "217138", "name": "Aspella producta", "sprite": "sp-cowrie_shell.png", "group": "sea_snail", "rarity": 1}, {"lat": -21.2, "lng": -159.7833, "id": "212819", "name": "Paletail chromis", "thumb": "tn_Chxan_u1.jpg", "sprite": "sp-chrysiptera_caesifrons.png", "group": "clownfish", "rarity": 1, "waterType": "Saltwater"}, {"lat": -17.8685, "lng": -158.0611, "id": "131636", "name": "Chalinidae", "sprite": "sp-barrel_sponge.png", "group": "sponge", "rarity": 1}, {"lat": -21.2293, "lng": -159.7691, "id": "216254", "name": "Nerita albicilla", "sprite": "sp-cowrie_shell.png", "group": "sea_snail", "rarity": 1}, {"lat": -21.2, "lng": -159.8, "id": "211010", "name": "Chiridota rigida", "sprite": "sp-sea_cucumber.png", "group": "starfish", "rarity": 1}, {"lat": -18.8996, "lng": -159.7925, "id": "138518", "name": "Spondylus", "sprite": "sp-blue_mussel.png", "group": "clam_mussel", "rarity": 1}, {"lat": -21.2283, "lng": -159.8084, "id": "724109", "name": "Galeropsis monodonta", "sprite": "sp-cowrie_shell.png", "group": "sea_snail", "rarity": 1}, {"lat": -18.0373, "lng": -163.1114, "id": "216371", "name": "Turbo argyrostomus", "sprite": "sp-cowrie_shell.png", "group": "sea_snail", "rarity": 1}, {"lat": -18.865, "lng": -159.765, "id": "215458", "name": "Conus rattus", "sprite": "sp-cowrie_shell.png", "group": "sea_snail", "rarity": 1}, {"lat": -18.9, "lng": -159.8, "id": "137846", "name": "Vexillum", "sprite": "sp-cowrie_shell.png", "group": "sea_snail", "rarity": 1}, {"lat": -18.89, "lng": -159.785, "id": "217950", "name": "Sabre squirrelfish", "thumb": "tn_Saspi_u0.jpg", "sprite": "sp-anchoviella_juruasanga.png", "group": "other", "rarity": 1, "waterType": "Saltwater"}, {"lat": -18.8873, "lng": -159.764, "id": "125541", "name": "Labridae", "sprite": "sp-cleaner_wrasse.png", "group": "wrasse", "rarity": 1}, {"lat": -21.25, "lng": -159.75, "id": "159229", "name": "Liopropoma", "sprite": "sp-chelidoperca_santosi.png", "group": "grouper", "rarity": 1}, {"lat": -21.2517, "lng": -159.7317, "id": "550170", "name": "Podocerus hanapepe", "sprite": "sp-american_lobster.png", "group": "crab_lobster", "rarity": 1}, {"lat": -18.93, "lng": -159.76, "id": "277127", "name": "Obscure damsel", "thumb": "tn_Poade_u0.jpg", "sprite": "sp-chrysiptera_caesifrons.png", "group": "clownfish", "rarity": 1, "waterType": "Saltwater"}, {"lat": -18.8753, "lng": -159.7865, "id": "218972", "name": "Sling-jaw wrasse", "thumb": "tn_Epins_u6.jpg", "sprite": "sp-cleaner_wrasse.png", "group": "wrasse", "rarity": 1, "waterType": "Saltwater"}, {"lat": -18.8943, "lng": -159.7917, "id": "714811", "name": "Periglypta reticulata", "sprite": "sp-blue_mussel.png", "group": "clam_mussel", "rarity": 1}, {"lat": -21.25, "lng": -159.75, "id": "208915", "name": "Sixline wrasse", "thumb": "tn_Pshex_u1.jpg", "sprite": "sp-cleaner_wrasse.png", "group": "wrasse", "rarity": 1, "waterType": "Saltwater"}, {"lat": -21.5138, "lng": -158.9933, "id": "213383", "name": "Echinometra mathaei", "sprite": "sp-sea_cucumber.png", "group": "starfish", "rarity": 1}, {"lat": -18.9171, "lng": -159.7794, "id": "210768", "name": "Bohadschia argus", "sprite": "sp-sea_cucumber.png", "group": "starfish", "rarity": 1}, {"lat": -18.9, "lng": -159.8, "id": "138125", "name": "Lima", "sprite": "sp-blue_mussel.png", "group": "clam_mussel", "rarity": 1}, {"lat": -21.25, "lng": -159.75, "id": "219890", "name": "White-banded triggerfish", "thumb": "tn_Rhacu_ui.jpg", "sprite": "sp-balistidae.png", "group": "triggerfish", "rarity": 1, "waterType": "Saltwater"}, {"lat": -18.9337, "lng": -159.7633, "id": "213377", "name": "Echinothrix calamaris", "sprite": "sp-sea_cucumber.png", "group": "starfish", "rarity": 1}, {"lat": -18.9, "lng": -159.8, "id": "206609", "name": "Stomatia", "sprite": "sp-cowrie_shell.png", "group": "sea_snail", "rarity": 1}, {"lat": -17.89, "lng": -159.4683, "id": "1268", "name": "Sipuncula", "sprite": "sp-anchoviella_juruasanga.png", "group": "other", "rarity": 1}, {"lat": -21.25, "lng": -159.75, "id": "217499", "name": "Fimbriated moray", "thumb": "tn_Gyfim_u3.jpg", "sprite": "sp-anarchias.png", "group": "moray", "rarity": 1, "waterType": "Brackish"}, {"lat": -18.05, "lng": -163.1, "id": "106772", "name": "Grapsidae", "sprite": "sp-american_lobster.png", "group": "crab_lobster", "rarity": 1}, {"lat": -18.9, "lng": -159.8, "id": "507285", "name": "Semele australis", "sprite": "sp-blue_mussel.png", "group": "clam_mussel", "rarity": 1}, {"lat": -18.894, "lng": -159.784, "id": "215561", "name": "Conus frigidus", "sprite": "sp-cowrie_shell.png", "group": "sea_snail", "rarity": 1}, {"lat": -21.2579, "lng": -159.7214, "id": "218419", "name": "Bluefin trevally", "thumb": "tn_Camel_u0.jpg", "sprite": "sp-anchoviella_juruasanga.png", "group": "other", "rarity": 1, "waterType": "Brackish"}, {"lat": -21.233, "lng": -159.766, "id": "137779", "name": "Chiton", "sprite": "sp-anchoviella_juruasanga.png", "group": "other", "rarity": 1}, {"lat": -21.1968, "lng": -159.7932, "id": "367443", "name": "Calcinus isabellae", "sprite": "sp-american_lobster.png", "group": "crab_lobster", "rarity": 1}, {"lat": -18.8667, "lng": -159.7667, "id": "206414", "name": "Tonicia", "sprite": "sp-anchoviella_juruasanga.png", "group": "other", "rarity": 1}, {"lat": -21.2111, "lng": -159.7889, "id": "208992", "name": "Liomera tristis", "sprite": "sp-american_lobster.png", "group": "crab_lobster", "rarity": 1}, {"lat": -21.233, "lng": -159.766, "id": "216867", "name": "Mauritia scurra", "sprite": "sp-cowrie_shell.png", "group": "sea_snail", "rarity": 1}, {"lat": -21.233, "lng": -159.766, "id": "106788", "name": "Palaemonidae", "sprite": "sp-american_lobster.png", "group": "crab_lobster", "rarity": 1}, {"lat": -18.9, "lng": -159.8, "id": "208657", "name": "Coenobita rugosus", "sprite": "sp-american_lobster.png", "group": "crab_lobster", "rarity": 1}, {"lat": -21.233, "lng": -159.766, "id": "204535", "name": "Euchelus", "sprite": "sp-cowrie_shell.png", "group": "sea_snail", "rarity": 1}, {"lat": -20.89, "lng": -159.7967, "id": "215559", "name": "Conus eburneus", "sprite": "sp-cowrie_shell.png", "group": "sea_snail", "rarity": 1}, {"lat": -21.9, "lng": -157.9, "id": "266504", "name": "Phascolosoma (Phascolosoma) perlucens", "sprite": "sp-anchoviella_juruasanga.png", "group": "other", "rarity": 1}, {"lat": -21.6273, "lng": -158.7269, "id": "712689", "name": "Reef-flat cardinalfish", "thumb": "tn_Aptae_ue.jpg", "sprite": "sp-anchoviella_juruasanga.png", "group": "other", "rarity": 1, "waterType": "Saltwater"}, {"lat": -20.9333, "lng": -160.05, "id": "117567", "name": "Geryonia proboscidalis", "sprite": "sp-anchoviella_juruasanga.png", "group": "other", "rarity": 1}, {"lat": -21.2411, "lng": -159.7469, "id": "101467", "name": "Bemlos", "sprite": "sp-american_lobster.png", "group": "crab_lobster", "rarity": 1}, {"lat": -18.8938, "lng": -159.7924, "id": "531880", "name": "Canarium mutabile", "sprite": "sp-cowrie_shell.png", "group": "sea_snail", "rarity": 1}, {"lat": -21.2286, "lng": -159.7643, "id": "277176", "name": "Ocellate damselfish", "thumb": "tn_Povai_u2.jpg", "sprite": "sp-chrysiptera_caesifrons.png", "group": "clownfish", "rarity": 1, "waterType": "Saltwater"}, {"lat": -21.9083, "lng": -157.9667, "id": "218081", "name": "Broadbarred firefish", "thumb": "tn_Ptant_u0.jpg", "sprite": "sp-parascorpaena_moultoni.png", "group": "scorpionfish", "rarity": 1, "waterType": "Saltwater"}, {"lat": -21.2248, "lng": -159.762, "id": "208048", "name": "Peristernia nassatula", "sprite": "sp-cowrie_shell.png", "group": "sea_snail", "rarity": 1}, {"lat": -21.2, "lng": -159.7833, "id": "219014", "name": "Bluestreak cleaner wrasse", "thumb": "tn_Ladim_u2.jpg", "sprite": "sp-cleaner_wrasse.png", "group": "wrasse", "rarity": 1, "waterType": "Saltwater"}, {"lat": -21.2579, "lng": -159.7214, "id": "218933", "name": "Axilspot hogfish", "thumb": "tn_Boaxi_u6.jpg", "sprite": "sp-cleaner_wrasse.png", "group": "wrasse", "rarity": 1, "waterType": "Saltwater"}, {"lat": -18.8943, "lng": -159.7943, "id": "600713", "name": "Morula uva", "sprite": "sp-cowrie_shell.png", "group": "sea_snail", "rarity": 1}, {"lat": -21.6722, "lng": -158.5744, "id": "277815", "name": "Twosaddle goatfish", "thumb": "tn_Pains_u0.jpg", "sprite": "sp-anchoviella_juruasanga.png", "group": "other", "rarity": 1, "waterType": "Saltwater"}, {"lat": -20.9333, "lng": -160.05, "id": "117568", "name": "Liriope tetraphylla", "sprite": "sp-anchoviella_juruasanga.png", "group": "other", "rarity": 1}, {"lat": -21.2034, "lng": -159.793, "id": "208673", "name": "Calcinus vachoni", "sprite": "sp-american_lobster.png", "group": "crab_lobster", "rarity": 1}, {"lat": -18.9, "lng": -159.8, "id": "208043", "name": "Peristernia chlorostoma", "sprite": "sp-cowrie_shell.png", "group": "sea_snail", "rarity": 1}, {"lat": -18.9, "lng": -159.8, "id": "23073", "name": "Mitridae", "sprite": "sp-cowrie_shell.png", "group": "sea_snail", "rarity": 1}, {"lat": -18.883, "lng": -163.041, "id": "127776", "name": "Conchoecilla daphnoides", "sprite": "sp-anchoviella_juruasanga.png", "group": "other", "rarity": 1}, {"lat": -21.2, "lng": -159.8, "id": "138533", "name": "Tellina", "sprite": "sp-blue_mussel.png", "group": "clam_mussel", "rarity": 1}, {"lat": -21.2095, "lng": -159.7383, "id": "169702", "name": "Pseudoceratina purpurea", "sprite": "sp-barrel_sponge.png", "group": "sponge", "rarity": 1}, {"lat": -21.2, "lng": -159.7667, "id": "172886", "name": "Arachnopusia decipiens", "sprite": "sp-anchoviella_juruasanga.png", "group": "other", "rarity": 1}, {"lat": -18.8952, "lng": -159.7929, "id": "490968", "name": "Engina siderea", "sprite": "sp-cowrie_shell.png", "group": "sea_snail", "rarity": 1}, {"lat": -21.2579, "lng": -159.7214, "id": "220058", "name": "Honeycomb filefish", "thumb": "tn_Capar_u3.jpg", "sprite": "sp-anchoviella_juruasanga.png", "group": "other", "rarity": 1, "waterType": "Saltwater"}, {"lat": -18.9021, "lng": -159.7408, "id": "565356", "name": "Lentigo lentiginosus", "sprite": "sp-cowrie_shell.png", "group": "sea_snail", "rarity": 1}, {"lat": -21.2, "lng": -159.7667, "id": "173485", "name": "Chaperiopsis galeata", "sprite": "sp-anchoviella_juruasanga.png", "group": "other", "rarity": 1}, {"lat": -21.2, "lng": -159.79, "id": "205362", "name": "Comanthus", "sprite": "sp-sea_cucumber.png", "group": "starfish", "rarity": 1}, {"lat": -21.2, "lng": -159.77, "id": "217927", "name": "Blotcheye soldierfish", "thumb": "tn_Myber_u0.jpg", "sprite": "sp-anchoviella_juruasanga.png", "group": "other", "rarity": 1, "waterType": "Saltwater"}, {"lat": -21.9083, "lng": -157.9667, "id": "126045", "name": "Chromis", "sprite": "sp-chrysiptera_caesifrons.png", "group": "clownfish", "rarity": 1}, {"lat": -21.2169, "lng": -159.7782, "id": "217065", "name": "Pollia undosa", "sprite": "sp-cowrie_shell.png", "group": "sea_snail", "rarity": 1}, {"lat": -21.25, "lng": -159.75, "id": "1551095", "name": "Stegastes lacrymatus", "sprite": "sp-chrysiptera_caesifrons.png", "group": "clownfish", "rarity": 1}, {"lat": -18.887, "lng": -159.7889, "id": "570811", "name": "Monetaria caputserpentis", "sprite": "sp-cowrie_shell.png", "group": "sea_snail", "rarity": 1}, {"lat": -21.2333, "lng": -159.7611, "id": "219659", "name": "Striated surgeonfish", "thumb": "tn_Ctstr_uf.jpg", "sprite": "sp-acanthurus_albimento.png", "group": "surgeonfish", "rarity": 1, "waterType": "Saltwater"}, {"lat": -21.2579, "lng": -159.7214, "id": "218986", "name": "Nebulous wrasse", "thumb": "tn_Haneb_u3.jpg", "sprite": "sp-cleaner_wrasse.png", "group": "wrasse", "rarity": 1, "waterType": "Saltwater"}, {"lat": -18.8629, "lng": -159.8221, "id": "206994", "name": "Acropora lutkeni", "sprite": "sp-actiniidae.png", "group": "coral", "rarity": 1}, {"lat": -21.0947, "lng": -158.982, "id": "205978", "name": "Cypraea", "sprite": "sp-cowrie_shell.png", "group": "sea_snail", "rarity": 1}, {"lat": -21.3161, "lng": -159.5679, "id": "218783", "name": "Grey demoiselle", "thumb": "tn_Chgla_u2.jpg", "sprite": "sp-chrysiptera_caesifrons.png", "group": "clownfish", "rarity": 1, "waterType": "Saltwater"}, {"lat": -21.233, "lng": -159.766, "id": "148534", "name": "Atyidae", "sprite": "sp-american_lobster.png", "group": "crab_lobster", "rarity": 1}, {"lat": -21.3122, "lng": -159.5589, "id": "215441", "name": "Conus catus", "sprite": "sp-cowrie_shell.png", "group": "sea_snail", "rarity": 1}, {"lat": -21.2238, "lng": -159.778, "id": "272957", "name": "Achilles tang", "thumb": "tn_Acach_u8.jpg", "sprite": "sp-acanthurus_albimento.png", "group": "surgeonfish", "rarity": 1, "waterType": "Saltwater"}, {"lat": -18.9, "lng": -159.8, "id": "494113", "name": "Enzinopsis", "sprite": "sp-cowrie_shell.png", "group": "sea_snail", "rarity": 1}, {"lat": -21.25, "lng": -159.75, "id": "274760", "name": "Pigmy scorpionfish", "thumb": "tn_Sefow_u0.jpg", "sprite": "sp-parascorpaena_moultoni.png", "group": "scorpionfish", "rarity": 1, "waterType": "Saltwater"}, {"lat": -18.9, "lng": -159.8, "id": "137804", "name": "Mitrella", "sprite": "sp-cowrie_shell.png", "group": "sea_snail", "rarity": 1}, {"lat": -18.0373, "lng": -163.1114, "id": "413432", "name": "Turbo setosus", "sprite": "sp-cowrie_shell.png", "group": "sea_snail", "rarity": 1}, {"lat": -18.889, "lng": -159.7833, "id": "446938", "name": "Tectarius grandinatus", "sprite": "sp-cowrie_shell.png", "group": "sea_snail", "rarity": 1}, {"lat": -21.233, "lng": -159.766, "id": "395261", "name": "Menathais", "sprite": "sp-cowrie_shell.png", "group": "sea_snail", "rarity": 1}, {"lat": -18.86, "lng": -159.81, "id": "219479", "name": "Poison goby", "thumb": "tn_Gocit_u6.jpg", "sprite": "sp-eviota_bipunctata.png", "group": "goby", "rarity": 1, "waterType": "Saltwater"}, {"lat": -21.2, "lng": -159.8, "id": "217219", "name": "Strigatella litterata", "sprite": "sp-cowrie_shell.png", "group": "sea_snail", "rarity": 1}, {"lat": -21.2, "lng": -159.8, "id": "439137", "name": "Zosiminae", "sprite": "sp-american_lobster.png", "group": "crab_lobster", "rarity": 1}, {"lat": -21.2, "lng": -159.8, "id": "207574", "name": "Percnon planissimum", "sprite": "sp-american_lobster.png", "group": "crab_lobster", "rarity": 1}, {"lat": -21.2, "lng": -159.8, "id": "216525", "name": "Pinguitellina robusta", "sprite": "sp-blue_mussel.png", "group": "clam_mussel", "rarity": 1}, {"lat": -21.916, "lng": -157.966, "id": "219689", "name": "Little spinefoot", "thumb": "tn_Siver_u6.jpg", "sprite": "sp-anchoviella_juruasanga.png", "group": "other", "rarity": 1, "waterType": "Saltwater"}, {"lat": -21.412, "lng": -159.3049, "id": "276748", "name": "Threeband pennantfish", "thumb": "tn_Hechr_u1.jpg", "sprite": "sp-chaetodon.png", "group": "butterflyfish", "rarity": 1, "waterType": "Saltwater"}, {"lat": -21.21, "lng": -159.7567, "id": "530884", "name": "Lyncina vitellus", "sprite": "sp-cowrie_shell.png", "group": "sea_snail", "rarity": 1}, {"lat": -18.9, "lng": -159.8, "id": "215837", "name": "Codakia punctata", "sprite": "sp-blue_mussel.png", "group": "clam_mussel", "rarity": 1}, {"lat": -18.9, "lng": -159.8, "id": "570658", "name": "Euthymella", "sprite": "sp-cowrie_shell.png", "group": "sea_snail", "rarity": 1}, {"lat": -21.266, "lng": -159.757, "id": "2688", "name": "Cetacea", "sprite": "sp-anchoviella_juruasanga.png", "group": "other", "rarity": 1}, {"lat": -21.225, "lng": -159.77, "id": "219611", "name": "Fire goby", "thumb": "tn_Nemag_u3.jpg", "sprite": "sp-anchoviella_juruasanga.png", "group": "other", "rarity": 1, "waterType": "Saltwater"}, {"lat": -21.25, "lng": -159.75, "id": "219945", "name": "Spotted sharpnose", "thumb": "tn_Casol_u0.jpg", "sprite": "sp-fahaka_pufferfish.png", "group": "pufferfish", "rarity": 1, "waterType": "Saltwater"}, {"lat": -21.2347, "lng": -159.7846, "id": "215492", "name": "Conus pulicarius", "sprite": "sp-cowrie_shell.png", "group": "sea_snail", "rarity": 1}, {"lat": -21.25, "lng": -159.75, "id": "218851", "name": "Twospot hawkfish", "thumb": "tn_Ambim_u6.jpg", "sprite": "sp-anchoviella_juruasanga.png", "group": "other", "rarity": 1, "waterType": "Saltwater"}, {"lat": -18.9, "lng": -159.8, "id": "162", "name": "Pyramidellidae", "sprite": "sp-cowrie_shell.png", "group": "sea_snail", "rarity": 1}, {"lat": -21.24, "lng": -159.7419, "id": "219665", "name": "Orangespine unicornfish", "thumb": "tn_Nalit_u9.jpg", "sprite": "sp-acanthurus_albimento.png", "group": "surgeonfish", "rarity": 1, "waterType": "Saltwater"}, {"lat": -21.1514, "lng": -159.3777, "id": "732677", "name": "Nodolatirus nodatus", "sprite": "sp-cowrie_shell.png", "group": "sea_snail", "rarity": 1}, {"lat": -21.9, "lng": -157.9, "id": "136033", "name": "Aspidosiphon (Aspidosiphon) elegans", "sprite": "sp-anchoviella_juruasanga.png", "group": "other", "rarity": 1}, {"lat": -17.0, "lng": -158.0, "id": "107026", "name": "Oplophorus", "sprite": "sp-american_lobster.png", "group": "crab_lobster", "rarity": 1}, {"lat": -21.2031, "lng": -159.825, "id": "531829", "name": "Pyramidelloides", "sprite": "sp-cowrie_shell.png", "group": "sea_snail", "rarity": 1}, {"lat": -21.2, "lng": -159.77, "id": "219642", "name": "Bluelined surgeonfish", "thumb": "tn_Acnig_uk.jpg", "sprite": "sp-acanthurus_albimento.png", "group": "surgeonfish", "rarity": 1, "waterType": "Saltwater"}, {"lat": -18.883, "lng": -163.041, "id": "176752", "name": "Macrocypridina poulseni", "sprite": "sp-anchoviella_juruasanga.png", "group": "other", "rarity": 1}, {"lat": -18.9, "lng": -159.8, "id": "605886", "name": "Tellinella crucigera", "sprite": "sp-blue_mussel.png", "group": "clam_mussel", "rarity": 1}, {"lat": -21.2, "lng": -159.77, "id": "213372", "name": "Diadema setosum", "sprite": "sp-sea_cucumber.png", "group": "starfish", "rarity": 1}, {"lat": -18.855, "lng": -159.81, "id": "219894", "name": "Boomerang triggerfish", "thumb": "tn_Subur_u2.jpg", "sprite": "sp-balistidae.png", "group": "triggerfish", "rarity": 1, "waterType": "Saltwater"}, {"lat": -21.2, "lng": -159.8, "id": "444460", "name": "Grapsus longitarsis", "sprite": "sp-american_lobster.png", "group": "crab_lobster", "rarity": 1}, {"lat": -21.23, "lng": -159.76, "id": "426289", "name": "Conus adamsonii", "sprite": "sp-cowrie_shell.png", "group": "sea_snail", "rarity": 1}, {"lat": -18.866, "lng": -159.75, "id": "215835", "name": "Codakia tigerina", "sprite": "sp-blue_mussel.png", "group": "clam_mussel", "rarity": 1}, {"lat": -21.2, "lng": -159.785, "id": "275262", "name": "Papuan toby", "thumb": "tn_Capap_u3.jpg", "sprite": "sp-fahaka_pufferfish.png", "group": "pufferfish", "rarity": 1, "waterType": "Saltwater"}, {"lat": -21.9083, "lng": -157.9667, "id": "126024", "name": "Thalassoma", "sprite": "sp-cleaner_wrasse.png", "group": "wrasse", "rarity": 1}, {"lat": -18.86, "lng": -159.81, "id": "273353", "name": "Sunset butterflyfish", "thumb": "tn_Chpel_u5.jpg", "sprite": "sp-chaetodon.png", "group": "butterflyfish", "rarity": 1, "waterType": "Saltwater"}, {"lat": -18.858, "lng": -159.7665, "id": "564627", "name": "Gibberulus gibberulus", "sprite": "sp-cowrie_shell.png", "group": "sea_snail", "rarity": 1}, {"lat": -21.5878, "lng": -158.8073, "id": "215533", "name": "Conus miliaris", "sprite": "sp-cowrie_shell.png", "group": "sea_snail", "rarity": 1}]}