{"zoom": 6, "x": 42, "y": 47, "points": [{"lat": -64.7204, "lng": 60.8264, "id": "342435", "name": "Calanus propinquus", "sprite": "sp-anchoviella_juruasanga.png", "group": "other", "rarity": 1}, {"lat": -66.086, "lng": 57.7618, "id": "137090", "name": "Balaenoptera musculus", "sprite": "sp-blue_whale.png", "group": "whale", "rarity": 1}, {"lat": -66.35, "lng": 58.8317, "id": "290632", "name": "Paraconotrochus antarcticus", "sprite": "sp-actiniidae.png", "group": "coral", "rarity": 1}, {"lat": -66.0992, "lng": 57.435, "id": "1803", "name": "Brachiopoda", "sprite": "sp-anchoviella_juruasanga.png", "group": "other", "rarity": 1}, {"lat": -65.9889, "lng": 57.1722, "id": "173596", "name": "Ophioperla koehleri", "sprite": "sp-sea_cucumber.png", "group": "starfish", "rarity": 1}, {"lat": -66.4139, "lng": 59.3417, "id": "173577", "name": "Umbellula magniflora", "sprite": "sp-actiniidae.png", "group": "coral", "rarity": 1}, {"lat": -65.4948, "lng": 59.9882, "id": "236220", "name": "Euphausia triacantha", "sprite": "sp-antarctic_krill.png", "group": "shrimp", "rarity": 1}, {"lat": -65.0007, "lng": 60.7472, "id": "129766", "name": "Vanadis longissima", "sprite": "sp-anchoviella_juruasanga.png", "group": "other", "rarity": 1}, {"lat": -65.9085, "lng": 60.008, "id": "1509944", "name": "Scolecithricella minor minor", "sprite": "sp-anchoviella_juruasanga.png", "group": "other", "rarity": 1}, {"lat": -65.9596, "lng": 60.3202, "id": "137165", "name": "Sterna paradisaea", "sprite": "sp-anchoviella_juruasanga.png", "group": "other", "rarity": 1}, {"lat": -65.9862, "lng": 57.1492, "id": "174001", "name": "Fasciculipora ramosa", "sprite": "sp-anchoviella_juruasanga.png", "group": "other", "rarity": 1}, {"lat": -64.6371, "lng": 57.9234, "id": "212651", "name": "Procellaria aequinoctialis", "sprite": "sp-anchoviella_juruasanga.png", "group": "other", "rarity": 1}, {"lat": -65.9988, "lng": 60.7471, "id": "266854", "name": "Solidosagitta marri", "sprite": "sp-anchoviella_juruasanga.png", "group": "other", "rarity": 1}, {"lat": -66.1058, "lng": 57.7042, "id": "1135", "name": "Amphipoda", "sprite": "sp-american_lobster.png", "group": "crab_lobster", "rarity": 1}, {"lat": -64.5639, "lng": 60.4934, "id": "514315", "name": "Nematocarcinus longirostris", "sprite": "sp-american_lobster.png", "group": "crab_lobster", "rarity": 1}, {"lat": -65.8859, "lng": 60.6208, "id": "137047", "name": "Sterna", "sprite": "sp-anchoviella_juruasanga.png", "group": "other", "rarity": 1}, {"lat": -64.876, "lng": 60.4965, "id": "325384", "name": "Themisto gaudichaudii", "sprite": "sp-american_lobster.png", "group": "crab_lobster", "rarity": 1}, {"lat": -64.25, "lng": 60.0, "id": "149313", "name": "Fragilariopsis", "sprite": "sp-anchoviella_juruasanga.png", "group": "other", "rarity": 1}, {"lat": -64.6879, "lng": 57.4865, "id": "343995", "name": "Thalassarche melanophris", "sprite": "sp-anchoviella_juruasanga.png", "group": "other", "rarity": 1}, {"lat": -66.3014, "lng": 61.2004, "id": "173841", "name": "Koellikerina maasi", "sprite": "sp-anchoviella_juruasanga.png", "group": "other", "rarity": 1}, {"lat": -64.5, "lng": 57.0, "id": "227091", "name": "Euchaetomera zurstrasseni", "sprite": "sp-american_lobster.png", "group": "crab_lobster", "rarity": 1}, {"lat": -65.9833, "lng": 57.15, "id": "169659", "name": "Aplysina minima", "sprite": "sp-barrel_sponge.png", "group": "sponge", "rarity": 1}, {"lat": -65.0167, "lng": 57.9933, "id": "129715", "name": "Tomopteris", "sprite": "sp-anchoviella_juruasanga.png", "group": "other", "rarity": 1}, {"lat": -65.0197, "lng": 57.9898, "id": "217697", "name": "Electrona antarctica", "thumb": "tn_Elant_u0.gif", "sprite": "sp-anchoviella_juruasanga.png", "group": "other", "rarity": 1, "waterType": "Saltwater"}, {"lat": -64.3331, "lng": 59.9993, "id": "341558", "name": "Fragilariopsis pseudonana", "sprite": "sp-anchoviella_juruasanga.png", "group": "other", "rarity": 1}, {"lat": -66.35, "lng": 58.8322, "id": "172104", "name": "Rossella racovitzae", "sprite": "sp-barrel_sponge.png", "group": "sponge", "rarity": 1}, {"lat": -65.9833, "lng": 57.15, "id": "110956", "name": "Reteporella", "sprite": "sp-anchoviella_juruasanga.png", "group": "other", "rarity": 1}, {"lat": -65.9833, "lng": 57.15, "id": "1026014", "name": "Himantozoum (Himantozoum) antarcticum", "sprite": "sp-anchoviella_juruasanga.png", "group": "other", "rarity": 1}, {"lat": -66.4966, "lng": 59.4916, "id": "110984", "name": "Phylactella", "sprite": "sp-anchoviella_juruasanga.png", "group": "other", "rarity": 1}, {"lat": -66.35, "lng": 58.83, "id": "125293", "name": "Acanthogorgia", "sprite": "sp-actiniidae.png", "group": "coral", "rarity": 1}, {"lat": -64.982, "lng": 60.7591, "id": "332607", "name": "Tomopteris carpenteri", "sprite": "sp-anchoviella_juruasanga.png", "group": "other", "rarity": 1}, {"lat": -66.2067, "lng": 57.7367, "id": "956", "name": "Nephtyidae", "sprite": "sp-anchoviella_juruasanga.png", "group": "other", "rarity": 1}, {"lat": -66.0133, "lng": 57.99, "id": "174211", "name": "Zanclonia weldoni", "sprite": "sp-anchoviella_juruasanga.png", "group": "other", "rarity": 1}, {"lat": -66.1883, "lng": 61.605, "id": "137119", "name": "Physeter macrocephalus", "sprite": "sp-blue_whale.png", "group": "whale", "rarity": 1}, {"lat": -65.001, "lng": 59.9903, "id": "104434", "name": "Haloptilus oxycephalus", "sprite": "sp-anchoviella_juruasanga.png", "group": "other", "rarity": 1}, {"lat": -66.4966, "lng": 59.4916, "id": "168471", "name": "Isodictya setifera", "sprite": "sp-barrel_sponge.png", "group": "sponge", "rarity": 1}, {"lat": -65.9862, "lng": 57.1492, "id": "174387", "name": "Halecium incertus", "sprite": "sp-anchoviella_juruasanga.png", "group": "other", "rarity": 1}, {"lat": -64.346, "lng": 59.988, "id": "342449", "name": "Ctenocalanus citer", "sprite": "sp-anchoviella_juruasanga.png", "group": "other", "rarity": 1}, {"lat": -65.9528, "lng": 57.1267, "id": "883", "name": "Polychaeta", "sprite": "sp-anchoviella_juruasanga.png", "group": "other", "rarity": 1}, {"lat": -66.0038, "lng": 61.5037, "id": "342438", "name": "Candacia maxima", "sprite": "sp-anchoviella_juruasanga.png", "group": "other", "rarity": 1}, {"lat": -65.0167, "lng": 58.0, "id": "137217", "name": "Salpidae", "sprite": "sp-anchoviella_juruasanga.png", "group": "other", "rarity": 1}, {"lat": -65.9583, "lng": 60.6607, "id": "212640", "name": "Daption capense", "sprite": "sp-anchoviella_juruasanga.png", "group": "other", "rarity": 1}, {"lat": -66.0, "lng": 58.0, "id": "127286", "name": "Veiled anglemouth", "thumb": "tn_Cymic_u5.jpg", "sprite": "sp-anchoviella_juruasanga.png", "group": "other", "rarity": 1, "waterType": "Saltwater"}, {"lat": -66.052, "lng": 60.5415, "id": "212636", "name": "Macronectes giganteus", "sprite": "sp-anchoviella_juruasanga.png", "group": "other", "rarity": 1}, {"lat": -66.35, "lng": 58.8333, "id": "169444", "name": "Myxilla (Myxilla) australis", "sprite": "sp-barrel_sponge.png", "group": "sponge", "rarity": 1}, {"lat": -66.395, "lng": 59.2667, "id": "175168", "name": "Acutiserolis johnstoni", "sprite": "sp-american_lobster.png", "group": "crab_lobster", "rarity": 1}, {"lat": -65.8911, "lng": 57.3695, "id": "225772", "name": "Pagodroma nivea", "sprite": "sp-anchoviella_juruasanga.png", "group": "other", "rarity": 1}, {"lat": -66.35, "lng": 58.8333, "id": "231630", "name": "Conopora verrucosa", "sprite": "sp-anchoviella_juruasanga.png", "group": "other", "rarity": 1}, {"lat": -65.4533, "lng": 57.9971, "id": "204680", "name": "Pachyptila", "sprite": "sp-anchoviella_juruasanga.png", "group": "other", "rarity": 1}, {"lat": -66.0133, "lng": 58.0, "id": "342624", "name": "Haloptilus ocellatus", "sprite": "sp-anchoviella_juruasanga.png", "group": "other", "rarity": 1}, {"lat": -66.395, "lng": 59.2667, "id": "252233", "name": "Bathypera hastaefera", "sprite": "sp-anchoviella_juruasanga.png", "group": "other", "rarity": 1}, {"lat": -66.2, "lng": 58.245, "id": "573457", "name": "Diatoma rhombica", "sprite": "sp-anchoviella_juruasanga.png", "group": "other", "rarity": 1}, {"lat": -66.16, "lng": 60.0, "id": "341540", "name": "Thalassiothrix antarctica", "sprite": "sp-anchoviella_juruasanga.png", "group": "other", "rarity": 1}, {"lat": -66.16, "lng": 60.0, "id": "149221", "name": "Chaetoceros curvisetus", "sprite": "sp-anchoviella_juruasanga.png", "group": "other", "rarity": 1}, {"lat": -65.0167, "lng": 57.9933, "id": "220837", "name": "Rhincalanus gigas", "sprite": "sp-anchoviella_juruasanga.png", "group": "other", "rarity": 1}, {"lat": -65.779, "lng": 57.4593, "id": "212638", "name": "Fulmarus glacialoides", "sprite": "sp-anchoviella_juruasanga.png", "group": "other", "rarity": 1}, {"lat": -66.35, "lng": 58.8333, "id": "168471", "name": "Isodictya setifera", "sprite": "sp-barrel_sponge.png", "group": "sponge", "rarity": 1}, {"lat": -66.5056, "lng": 59.4972, "id": "243663", "name": "Ophiogona doederleini", "sprite": "sp-sea_cucumber.png", "group": "starfish", "rarity": 1}, {"lat": -66.027, "lng": 60.8054, "id": "344689", "name": "Metridia gerlachei", "sprite": "sp-anchoviella_juruasanga.png", "group": "other", "rarity": 1}, {"lat": -65.4948, "lng": 59.9882, "id": "345232", "name": "Paraheterorhabdus farrani", "sprite": "sp-anchoviella_juruasanga.png", "group": "other", "rarity": 1}, {"lat": -66.5, "lng": 58.33, "id": "163161", "name": "Chaetoceros tortissimus", "sprite": "sp-anchoviella_juruasanga.png", "group": "other", "rarity": 1}, {"lat": -64.6026, "lng": 61.2545, "id": "103358", "name": "Fritillaria", "sprite": "sp-anchoviella_juruasanga.png", "group": "other", "rarity": 1}, {"lat": -66.5, "lng": 58.33, "id": "232376", "name": "Prorocentrum cordatum", "sprite": "sp-anchoviella_juruasanga.png", "group": "other", "rarity": 1}, {"lat": -66.1992, "lng": 58.2812, "id": "231405", "name": "Balaenoptera bonaerensis", "sprite": "sp-blue_whale.png", "group": "whale", "rarity": 1}, {"lat": -65.5369, "lng": 61.0691, "id": "204680", "name": "Pachyptila", "sprite": "sp-anchoviella_juruasanga.png", "group": "other", "rarity": 1}, {"lat": -66.0033, "lng": 57.7167, "id": "342435", "name": "Calanus propinquus", "sprite": "sp-anchoviella_juruasanga.png", "group": "other", "rarity": 1}, {"lat": -66.072, "lng": 57.821, "id": "137091", "name": "Balaenoptera physalus", "sprite": "sp-blue_whale.png", "group": "whale", "rarity": 1}, {"lat": -65.0167, "lng": 57.9933, "id": "131548", "name": "Tomopteris cavallii", "sprite": "sp-anchoviella_juruasanga.png", "group": "other", "rarity": 1}, {"lat": -64.7016, "lng": 59.9715, "id": "1526062", "name": "Antarctic jonasfish", "thumb": "tn_Nocoa_u0.gif", "sprite": "sp-anchoviella_juruasanga.png", "group": "other", "rarity": 1, "waterType": "Saltwater"}, {"lat": -65.501, "lng": 60.005, "id": "342443", "name": "Clausocalanus brevipes", "sprite": "sp-anchoviella_juruasanga.png", "group": "other", "rarity": 1}, {"lat": -66.0167, "lng": 57.8333, "id": "212636", "name": "Macronectes giganteus", "sprite": "sp-anchoviella_juruasanga.png", "group": "other", "rarity": 1}, {"lat": -66.0133, "lng": 58.01, "id": "117617", "name": "Halicreas minimum", "sprite": "sp-anchoviella_juruasanga.png", "group": "other", "rarity": 1}, {"lat": -66.35, "lng": 58.83, "id": "124757", "name": "Laetmogone wyvillethomsoni", "sprite": "sp-sea_cucumber.png", "group": "starfish", "rarity": 1}, {"lat": -66.35, "lng": 58.8333, "id": "160810", "name": "Notocidaris gaussensis", "sprite": "sp-sea_cucumber.png", "group": "starfish", "rarity": 1}, {"lat": -64.9445, "lng": 61.1118, "id": "344008", "name": "Lobodon carcinophagus", "sprite": "sp-elephant_seal.png", "group": "seal", "rarity": 1}, {"lat": -66.2067, "lng": 57.7367, "id": "123160", "name": "Echinidae", "sprite": "sp-sea_cucumber.png", "group": "starfish", "rarity": 1}, {"lat": -64.823, "lng": 60.7675, "id": "416371", "name": "Rhynchonereella bongraini", "sprite": "sp-anchoviella_juruasanga.png", "group": "other", "rarity": 1}, {"lat": -66.35, "lng": 58.8317, "id": "197236", "name": "Limopsis marionensis", "sprite": "sp-blue_mussel.png", "group": "clam_mussel", "rarity": 1}, {"lat": -64.3333, "lng": 56.6333, "id": "172923", "name": "Neosabellides elongatus", "sprite": "sp-anchoviella_juruasanga.png", "group": "other", "rarity": 1}, {"lat": -65.9833, "lng": 57.15, "id": "132127", "name": "Rossella", "sprite": "sp-barrel_sponge.png", "group": "sponge", "rarity": 1}, {"lat": -65.001, "lng": 59.9903, "id": "140223", "name": "Limacina helicina", "sprite": "sp-cowrie_shell.png", "group": "sea_snail", "rarity": 1}, {"lat": -65.9839, "lng": 57.1522, "id": "557693", "name": "Uristes murrayi", "sprite": "sp-american_lobster.png", "group": "crab_lobster", "rarity": 1}, {"lat": -65.9892, "lng": 57.1483, "id": "335476", "name": "Harmothoe spinosa typica", "sprite": "sp-anchoviella_juruasanga.png", "group": "other", "rarity": 1}, {"lat": -65.9937, "lng": 59.9835, "id": "101798", "name": "Hyperoche", "sprite": "sp-american_lobster.png", "group": "crab_lobster", "rarity": 1}, {"lat": -64.7667, "lng": 57.4665, "id": "106656", "name": "Oithona similis", "sprite": "sp-anchoviella_juruasanga.png", "group": "other", "rarity": 1}, {"lat": -66.2, "lng": 58.245, "id": "179785", "name": "Dactyliosolen antarcticus", "sprite": "sp-anchoviella_juruasanga.png", "group": "other", "rarity": 1}, {"lat": -65.9833, "lng": 57.15, "id": "1538958", "name": "Tethyopsis longispina", "sprite": "sp-barrel_sponge.png", "group": "sponge", "rarity": 1}, {"lat": -66.16, "lng": 60.0, "id": "163348", "name": "Rhizosolenia semispina", "sprite": "sp-anchoviella_juruasanga.png", "group": "other", "rarity": 1}, {"lat": -65.9892, "lng": 57.1483, "id": "369204", "name": "Notocrangon antarcticus", "sprite": "sp-american_lobster.png", "group": "crab_lobster", "rarity": 1}, {"lat": -66.0133, "lng": 58.0, "id": "344689", "name": "Metridia gerlachei", "sprite": "sp-anchoviella_juruasanga.png", "group": "other", "rarity": 1}, {"lat": -65.015, "lng": 58.005, "id": "11676", "name": "Pisces", "sprite": "sp-anchoviella_juruasanga.png", "group": "other", "rarity": 1}, {"lat": -64.9385, "lng": 60.6411, "id": "212638", "name": "Fulmarus glacialoides", "sprite": "sp-anchoviella_juruasanga.png", "group": "other", "rarity": 1}, {"lat": -66.0408, "lng": 57.425, "id": "1410", "name": "Foraminifera", "sprite": "sp-anchoviella_juruasanga.png", "group": "other", "rarity": 1}, {"lat": -66.1666, "lng": 57.9917, "id": "737580", "name": "Tedania (Tedaniopsis) tantula", "sprite": "sp-barrel_sponge.png", "group": "sponge", "rarity": 1}, {"lat": -65.1004, "lng": 61.0138, "id": "325406", "name": "Cyllopus lucasii", "sprite": "sp-american_lobster.png", "group": "crab_lobster", "rarity": 1}, {"lat": -65.16, "lng": 60.0, "id": "573578", "name": "Rhizosolenia inermis", "sprite": "sp-anchoviella_juruasanga.png", "group": "other", "rarity": 1}, {"lat": -65.98, "lng": 60.21, "id": "234525", "name": "Muraenolepis", "sprite": "sp-anchoviella_juruasanga.png", "group": "other", "rarity": 1}, {"lat": -64.5533, "lng": 60.0, "id": "179785", "name": "Dactyliosolen antarcticus", "sprite": "sp-anchoviella_juruasanga.png", "group": "other", "rarity": 1}, {"lat": -66.395, "lng": 59.2667, "id": "174391", "name": "Polyeunoa laevis", "sprite": "sp-anchoviella_juruasanga.png", "group": "other", "rarity": 1}, {"lat": -66.26, "lng": 58.262, "id": "573422", "name": "Coscinodiscus gracilis", "sprite": "sp-anchoviella_juruasanga.png", "group": "other", "rarity": 1}, {"lat": -65.9185, "lng": 57.5184, "id": "225773", "name": "Aptenodytes forsteri", "sprite": "sp-anchoviella_juruasanga.png", "group": "other", "rarity": 1}, {"lat": -65.0007, "lng": 60.7472, "id": "342468", "name": "Euchirella rostromagna", "sprite": "sp-anchoviella_juruasanga.png", "group": "other", "rarity": 1}, {"lat": -66.027, "lng": 60.8054, "id": "342434", "name": "Calanoides acutus", "sprite": "sp-anchoviella_juruasanga.png", "group": "other", "rarity": 1}, {"lat": -66.0133, "lng": 58.01, "id": "104798", "name": "Scaphocalanus magnus", "sprite": "sp-anchoviella_juruasanga.png", "group": "other", "rarity": 1}, {"lat": -65.7687, "lng": 60.5712, "id": "343995", "name": "Thalassarche melanophris", "sprite": "sp-anchoviella_juruasanga.png", "group": "other", "rarity": 1}, {"lat": -66.078, "lng": 60.1846, "id": "137217", "name": "Salpidae", "sprite": "sp-anchoviella_juruasanga.png", "group": "other", "rarity": 1}, {"lat": -65.9085, "lng": 60.008, "id": "209714", "name": "Phalacrophorus pictus", "sprite": "sp-anchoviella_juruasanga.png", "group": "other", "rarity": 1}, {"lat": -64.5, "lng": 57.0, "id": "131568", "name": "Tomopteris septentrionalis", "sprite": "sp-anchoviella_juruasanga.png", "group": "other", "rarity": 1}, {"lat": -65.8667, "lng": 56.6167, "id": "137065", "name": "Puffinus", "sprite": "sp-anchoviella_juruasanga.png", "group": "other", "rarity": 1}, {"lat": -66.16, "lng": 60.0, "id": "573621", "name": "Terebraria kerguelensis", "sprite": "sp-anchoviella_juruasanga.png", "group": "other", "rarity": 1}, {"lat": -65.9892, "lng": 57.1483, "id": "131520", "name": "Pista mirabilis", "sprite": "sp-anchoviella_juruasanga.png", "group": "other", "rarity": 1}, {"lat": -66.0019, "lng": 60.6099, "id": "180759", "name": "Primno macropa", "sprite": "sp-american_lobster.png", "group": "crab_lobster", "rarity": 1}, {"lat": -65.0167, "lng": 57.9933, "id": "139033", "name": "Clio pyramidata", "sprite": "sp-cowrie_shell.png", "group": "sea_snail", "rarity": 1}, {"lat": -65.0167, "lng": 57.9933, "id": "174752", "name": "Pegantha martagon", "sprite": "sp-anchoviella_juruasanga.png", "group": "other", "rarity": 1}, {"lat": -64.6031, "lng": 58.0499, "id": "212640", "name": "Daption capense", "sprite": "sp-anchoviella_juruasanga.png", "group": "other", "rarity": 1}, {"lat": -66.4966, "lng": 59.4916, "id": "168672", "name": "Mycale (Oxymycale) acerata", "sprite": "sp-barrel_sponge.png", "group": "sponge", "rarity": 1}, {"lat": -65.1935, "lng": 61.1782, "id": "212649", "name": "Pachyptila desolata", "sprite": "sp-anchoviella_juruasanga.png", "group": "other", "rarity": 1}, {"lat": -66.0256, "lng": 57.6252, "id": "231413", "name": "Mirounga leonina", "sprite": "sp-elephant_seal.png", "group": "seal", "rarity": 1}, {"lat": -66.16, "lng": 60.0, "id": "573457", "name": "Diatoma rhombica", "sprite": "sp-anchoviella_juruasanga.png", "group": "other", "rarity": 1}, {"lat": -65.1004, "lng": 61.0138, "id": "266258", "name": "Pseudosagitta gazellae", "sprite": "sp-anchoviella_juruasanga.png", "group": "other", "rarity": 1}]}