{"zoom": 6, "x": 45, "y": 29, "points": [{"lat": 15.0333, "lng": 73.5019, "id": "958", "name": "Tomopteridae", "sprite": "sp-anchoviella_juruasanga.png", "group": "other", "rarity": 1}, {"lat": 12.4647, "lng": 74.2866, "id": "842517", "name": "Tripos trichoceros", "sprite": "sp-anchoviella_juruasanga.png", "group": "other", "rarity": 1}, {"lat": 14.5167, "lng": 73.2, "id": "437947", "name": "Candida", "sprite": "sp-anchoviella_juruasanga.png", "group": "other", "rarity": 1}, {"lat": 12.1952, "lng": 75.0957, "id": "462638", "name": "Keijella whatleyi", "sprite": "sp-anchoviella_juruasanga.png", "group": "other", "rarity": 1}, {"lat": 12.17, "lng": 75.16, "id": "254749", "name": "Magelona longicornis", "sprite": "sp-anchoviella_juruasanga.png", "group": "other", "rarity": 1}, {"lat": 15.3767, "lng": 73.8506, "id": "211551", "name": "Gracilaria corticata", "sprite": "sp-anchoviella_juruasanga.png", "group": "other", "rarity": 1}, {"lat": 14.13, "lng": 73.49, "id": "107478", "name": "Alpheus lobidens", "sprite": "sp-american_lobster.png", "group": "crab_lobster", "rarity": 1}, {"lat": 11.705, "lng": 75.5433, "id": "962773", "name": "Licmophora flabellata", "sprite": "sp-anchoviella_juruasanga.png", "group": "other", "rarity": 1}, {"lat": 12.49, "lng": 73.9625, "id": "1248", "name": "Ctenophora", "sprite": "sp-anchoviella_juruasanga.png", "group": "other", "rarity": 1}, {"lat": 15.48, "lng": 73.79, "id": "217364", "name": "Spadenose shark", "thumb": "tn_Sclat_u0.jpg", "sprite": "sp-great_white_shark.png", "group": "shark", "rarity": 1, "waterType": "Brackish"}, {"lat": 13.2278, "lng": 73.6722, "id": "104228", "name": "Scaphocalanus", "sprite": "sp-anchoviella_juruasanga.png", "group": "other", "rarity": 1}, {"lat": 11.683, "lng": 75.517, "id": "127078", "name": "Small-scaled terapon", "thumb": "tn_Teput_u2.jpg", "sprite": "sp-anchoviella_juruasanga.png", "group": "other", "rarity": 1, "waterType": "Brackish"}, {"lat": 12.5003, "lng": 74.0346, "id": "1082", "name": "Cirripedia", "sprite": "sp-anchoviella_juruasanga.png", "group": "other", "rarity": 1}, {"lat": 15.12, "lng": 73.9024, "id": "394106", "name": "Piscirickettsiaceae", "sprite": "sp-anchoviella_juruasanga.png", "group": "other", "rarity": 1}, {"lat": 15.5097, "lng": 73.8831, "id": "571094", "name": "Castellaniella", "sprite": "sp-anchoviella_juruasanga.png", "group": "other", "rarity": 1}, {"lat": 11.5281, "lng": 75.149, "id": "1368332", "name": "Eunice tentaculata", "sprite": "sp-anchoviella_juruasanga.png", "group": "other", "rarity": 1}, {"lat": 15.3648, "lng": 73.8652, "id": "494899", "name": "Sargassum ilicifolium", "sprite": "sp-anchoviella_juruasanga.png", "group": "other", "rarity": 1}, {"lat": 15.475, "lng": 73.78, "id": "208814", "name": "Scylla serrata", "sprite": "sp-american_lobster.png", "group": "crab_lobster", "rarity": 1}, {"lat": 14.8394, "lng": 74.4875, "id": "235069", "name": "Aegiceras corniculatum", "sprite": "sp-anchoviella_juruasanga.png", "group": "other", "rarity": 1}, {"lat": 12.7222, "lng": 74.5216, "id": "478712", "name": "Ctenapseudes chilkensis", "sprite": "sp-american_lobster.png", "group": "crab_lobster", "rarity": 1}, {"lat": 15.2759, "lng": 73.8947, "id": "571416", "name": "Ensifer", "sprite": "sp-anchoviella_juruasanga.png", "group": "other", "rarity": 1}, {"lat": 14.5, "lng": 73.5, "id": "333865", "name": "Lumbrineris bifilaris", "sprite": "sp-anchoviella_juruasanga.png", "group": "other", "rarity": 1}, {"lat": 15.8694, "lng": 73.675, "id": "209756", "name": "Namalycastis indica", "sprite": "sp-anchoviella_juruasanga.png", "group": "other", "rarity": 1}, {"lat": 14.0167, "lng": 74.4532, "id": "109550", "name": "Podolampas", "sprite": "sp-anchoviella_juruasanga.png", "group": "other", "rarity": 1}, {"lat": 15.0611, "lng": 74.3177, "id": "144531", "name": "Centroceras clavulatum", "sprite": "sp-anchoviella_juruasanga.png", "group": "other", "rarity": 1}, {"lat": 11.3314, "lng": 75.1951, "id": "495363", "name": "Tripos muelleri", "sprite": "sp-anchoviella_juruasanga.png", "group": "other", "rarity": 1}, {"lat": 11.4786, "lng": 75.6028, "id": "679230", "name": "Navicula directa var. remota", "sprite": "sp-anchoviella_juruasanga.png", "group": "other", "rarity": 1}, {"lat": 14.13, "lng": 73.49, "id": "107555", "name": "Parapontophilus gracilis", "sprite": "sp-american_lobster.png", "group": "crab_lobster", "rarity": 1}, {"lat": 11.234, "lng": 75.789, "id": "279744", "name": "Aseraggodes umbratilis", "thumb": "tn_Asumb_u0.jpg", "sprite": "sp-atlantic_halibut.png", "group": "flatfish", "rarity": 1, "waterType": "Saltwater"}, {"lat": 11.5444, "lng": 75.025, "id": "131164", "name": "Prionospio steenstrupi", "sprite": "sp-anchoviella_juruasanga.png", "group": "other", "rarity": 1}, {"lat": 13.9678, "lng": 73.242, "id": "129404", "name": "Onuphis", "sprite": "sp-anchoviella_juruasanga.png", "group": "other", "rarity": 1}, {"lat": 11.7611, "lng": 75.1722, "id": "130513", "name": "Leitoscoloplos kerguelensis", "sprite": "sp-anchoviella_juruasanga.png", "group": "other", "rarity": 1}, {"lat": 14.4915, "lng": 73.3205, "id": "615435", "name": "Helicosphaera carteri", "sprite": "sp-anchoviella_juruasanga.png", "group": "other", "rarity": 1}, {"lat": 15.6525, "lng": 73.7994, "id": "571310", "name": "Sulfuricurvum", "sprite": "sp-anchoviella_juruasanga.png", "group": "other", "rarity": 1}, {"lat": 14.5, "lng": 73.5, "id": "431332", "name": "Americorophium triaeonyx", "sprite": "sp-american_lobster.png", "group": "crab_lobster", "rarity": 1}, {"lat": 15.48, "lng": 73.79, "id": "220044", "name": "Bald glassy", "thumb": "tn_Amgym_u1.jpg", "sprite": "sp-anchoviella_juruasanga.png", "group": "other", "rarity": 1, "waterType": "Brackish"}, {"lat": 15.48, "lng": 73.79, "id": "218498", "name": "Mangrove red snapper", "thumb": "tn_Luarg_uh.jpg", "sprite": "sp-mutton_snapper.png", "group": "snapper", "rarity": 1, "waterType": "Brackish"}, {"lat": 11.679, "lng": 75.0, "id": "139034", "name": "Creseis acicula", "sprite": "sp-cowrie_shell.png", "group": "sea_snail", "rarity": 1}, {"lat": 12.79, "lng": 75.066, "id": "145060", "name": "Cladophora prolifera", "sprite": "sp-anchoviella_juruasanga.png", "group": "other", "rarity": 1}, {"lat": 15.6525, "lng": 73.7994, "id": "571398", "name": "Thermincola", "sprite": "sp-anchoviella_juruasanga.png", "group": "other", "rarity": 1}, {"lat": 14.0167, "lng": 74.4532, "id": "145369", "name": "Dictyota fasciola", "sprite": "sp-anchoviella_juruasanga.png", "group": "other", "rarity": 1}, {"lat": 15.41, "lng": 76.58, "id": "281615", "name": "Gangetic mystus", "thumb": "tn_Mycav_u0.jpg", "sprite": "sp-blue_catfish.png", "group": "catfish", "rarity": 1, "waterType": "Brackish"}, {"lat": 11.9993, "lng": 74.7495, "id": "596997", "name": "Scolelepis (Parascolelepis) gilchristi", "sprite": "sp-anchoviella_juruasanga.png", "group": "other", "rarity": 1}, {"lat": 12.5411, "lng": 74.0411, "id": "161439", "name": "Pseudanchialina pusilla", "sprite": "sp-american_lobster.png", "group": "crab_lobster", "rarity": 1}, {"lat": 15.3875, "lng": 73.8643, "id": "571302", "name": "Gemmatimonas", "sprite": "sp-anchoviella_juruasanga.png", "group": "other", "rarity": 1}, {"lat": 15.5204, "lng": 73.8449, "id": "565568", "name": "Planctomyces", "sprite": "sp-anchoviella_juruasanga.png", "group": "other", "rarity": 1}, {"lat": 12.49, "lng": 73.9625, "id": "155670", "name": "Diplostraca", "sprite": "sp-anchoviella_juruasanga.png", "group": "other", "rarity": 1}, {"lat": 14.13, "lng": 73.49, "id": "220269", "name": "Metapenaeopsis hilarula", "sprite": "sp-american_lobster.png", "group": "crab_lobster", "rarity": 1}, {"lat": 15.5811, "lng": 73.8413, "id": "394101", "name": "Rhodovulum", "sprite": "sp-anchoviella_juruasanga.png", "group": "other", "rarity": 1}, {"lat": 14.9632, "lng": 74.0277, "id": "983464", "name": "Fragilaria oceanica f. oceanica", "sprite": "sp-anchoviella_juruasanga.png", "group": "other", "rarity": 1}, {"lat": 15.3833, "lng": 73.8833, "id": "437880", "name": "Zopfiella marina", "sprite": "sp-anchoviella_juruasanga.png", "group": "other", "rarity": 1}, {"lat": 12.5621, "lng": 75.1868, "id": "283170", "name": "Freshwater garfish", "thumb": "tn_Xecan_u3.jpg", "sprite": "sp-anchoviella_juruasanga.png", "group": "other", "rarity": 1, "waterType": "Brackish"}, {"lat": 15.8567, "lng": 73.6067, "id": "849071", "name": "Alaona ala", "sprite": "sp-blue_mussel.png", "group": "clam_mussel", "rarity": 1}, {"lat": 15.12, "lng": 73.9024, "id": "563899", "name": "Maribacter", "sprite": "sp-anchoviella_juruasanga.png", "group": "other", "rarity": 1}, {"lat": 12.2172, "lng": 75.0885, "id": "461941", "name": "Loxoconcha lilljeborgii", "sprite": "sp-anchoviella_juruasanga.png", "group": "other", "rarity": 1}, {"lat": 12.8267, "lng": 73.5117, "id": "220834", "name": "Canthocalanus pauper", "sprite": "sp-anchoviella_juruasanga.png", "group": "other", "rarity": 1}, {"lat": 12.4779, "lng": 73.2697, "id": "126404", "name": "Mediterranean slimehead", "thumb": "tn_Homed_u2.jpg", "sprite": "sp-anchoviella_juruasanga.png", "group": "other", "rarity": 1, "waterType": "Saltwater"}, {"lat": 12.4779, "lng": 73.2697, "id": "278387", "name": "Glyptophidium argenteum", "thumb": "tn_Glarg_u0.gif", "sprite": "sp-anchoviella_juruasanga.png", "group": "other", "rarity": 1, "waterType": "Saltwater"}, {"lat": 15.6525, "lng": 73.7994, "id": "393990", "name": "Kordiimonas", "sprite": "sp-anchoviella_juruasanga.png", "group": "other", "rarity": 1}, {"lat": 11.6175, "lng": 77.2559, "id": "1021856", "name": "Blackspot barb", "thumb": "tn_Pufil_u1.jpg", "sprite": "sp-enteromius.png", "group": "carp_minnow", "rarity": 1, "waterType": "Brackish"}, {"lat": 11.3694, "lng": 75.1556, "id": "174843", "name": "Exogone heterosetosa", "sprite": "sp-anchoviella_juruasanga.png", "group": "other", "rarity": 1}, {"lat": 15.47, "lng": 73.77, "id": "126061", "name": "Rastrelliger", "sprite": "sp-bluefin_tuna.png", "group": "tuna_mackerel", "rarity": 1}, {"lat": 15.0333, "lng": 73.5019, "id": "146420", "name": "Tunicata", "sprite": "sp-anchoviella_juruasanga.png", "group": "other", "rarity": 1}, {"lat": 15.58, "lng": 73.73, "id": "283335", "name": "Anthopleura anjunae", "sprite": "sp-actiniidae.png", "group": "coral", "rarity": 1}, {"lat": 15.4363, "lng": 73.2982, "id": "120764", "name": "Dichromadora geophila", "sprite": "sp-anchoviella_juruasanga.png", "group": "other", "rarity": 1}, {"lat": 14.02, "lng": 73.78, "id": "167770", "name": "Clathria (Thalysias) procera", "sprite": "sp-barrel_sponge.png", "group": "sponge", "rarity": 1}, {"lat": 14.13, "lng": 73.49, "id": "210424", "name": "Solenocera hextii", "sprite": "sp-american_lobster.png", "group": "crab_lobster", "rarity": 1}, {"lat": 16.2014, "lng": 73.4455, "id": "171287", "name": "Cinachyrella", "sprite": "sp-barrel_sponge.png", "group": "sponge", "rarity": 1}, {"lat": 13.2856, "lng": 73.6192, "id": "282818", "name": "Günther's waspfish", "thumb": "tn_Sngue_u0.jpg", "sprite": "sp-anchoviella_juruasanga.png", "group": "other", "rarity": 1, "waterType": "Saltwater"}, {"lat": 15.495, "lng": 73.86, "id": "456742", "name": "Babylonia spirata", "sprite": "sp-cowrie_shell.png", "group": "sea_snail", "rarity": 1}, {"lat": 14.8811, "lng": 74.7261, "id": "269185", "name": "Garra", "sprite": "sp-enteromius.png", "group": "carp_minnow", "rarity": 1}, {"lat": 14.13, "lng": 73.49, "id": "514518", "name": "Cuapetes grandis", "sprite": "sp-american_lobster.png", "group": "crab_lobster", "rarity": 1}, {"lat": 15.5811, "lng": 73.8413, "id": "393926", "name": "Parvibaculum", "sprite": "sp-anchoviella_juruasanga.png", "group": "other", "rarity": 1}, {"lat": 14.0167, "lng": 74.4532, "id": "376384", "name": "Hydropuntia edulis", "sprite": "sp-anchoviella_juruasanga.png", "group": "other", "rarity": 1}, {"lat": 12.25, "lng": 73.15, "id": "220915", "name": "Candacia bispinosa", "sprite": "sp-anchoviella_juruasanga.png", "group": "other", "rarity": 1}, {"lat": 11.2401, "lng": 74.9808, "id": "335517", "name": "Lumbrineris heteropoda difficilis", "sprite": "sp-anchoviella_juruasanga.png", "group": "other", "rarity": 1}, {"lat": 15.0042, "lng": 73.2849, "id": "346210", "name": "Calanopia thompsoni", "sprite": "sp-anchoviella_juruasanga.png", "group": "other", "rarity": 1}, {"lat": 12.0, "lng": 75.25, "id": "571880", "name": "Natica vitellus", "sprite": "sp-cowrie_shell.png", "group": "sea_snail", "rarity": 1}, {"lat": 14.13, "lng": 73.49, "id": "883867", "name": "Belzebub faxoni", "sprite": "sp-american_lobster.png", "group": "crab_lobster", "rarity": 1}, {"lat": 14.02, "lng": 74.33, "id": "165538", "name": "Dragmacidon agariciforme", "sprite": "sp-barrel_sponge.png", "group": "sponge", "rarity": 1}, {"lat": 12.1014, "lng": 74.6396, "id": "131128", "name": "Laonice cirrata", "sprite": "sp-anchoviella_juruasanga.png", "group": "other", "rarity": 1}, {"lat": 15.5573, "lng": 73.8552, "id": "570924", "name": "Alicyclobacillus", "sprite": "sp-anchoviella_juruasanga.png", "group": "other", "rarity": 1}, {"lat": 14.4915, "lng": 73.3205, "id": "235962", "name": "Oolithotus fragilis", "sprite": "sp-anchoviella_juruasanga.png", "group": "other", "rarity": 1}, {"lat": 15.5097, "lng": 73.8831, "id": "571307", "name": "Halothermothrix", "sprite": "sp-anchoviella_juruasanga.png", "group": "other", "rarity": 1}, {"lat": 15.415, "lng": 73.7282, "id": "284602", "name": "Eutima commensalis", "sprite": "sp-anchoviella_juruasanga.png", "group": "other", "rarity": 1}, {"lat": 15.12, "lng": 73.9024, "id": "570208", "name": "Syntrophobacteraceae", "sprite": "sp-anchoviella_juruasanga.png", "group": "other", "rarity": 1}, {"lat": 12.0911, "lng": 75.9408, "id": "770866", "name": "Archicythereis", "sprite": "sp-anchoviella_juruasanga.png", "group": "other", "rarity": 1}, {"lat": 15.48, "lng": 73.79, "id": "273993", "name": "Chinese silver pomfret", "thumb": "tn_Pachi_u5.jpg", "sprite": "sp-anchoviella_juruasanga.png", "group": "other", "rarity": 1, "waterType": "Brackish"}, {"lat": 11.4786, "lng": 75.6028, "id": "149074", "name": "Skeletonema costatum", "sprite": "sp-anchoviella_juruasanga.png", "group": "other", "rarity": 1}, {"lat": 11.52, "lng": 75.25, "id": "149073", "name": "Skeletonema", "sprite": "sp-anchoviella_juruasanga.png", "group": "other", "rarity": 1}, {"lat": 11.679, "lng": 75.0, "id": "112849", "name": "Ammonia beccarii", "sprite": "sp-anchoviella_juruasanga.png", "group": "other", "rarity": 1}, {"lat": 14.1283, "lng": 74.0853, "id": "131521", "name": "Pista unibranchia", "sprite": "sp-anchoviella_juruasanga.png", "group": "other", "rarity": 1}, {"lat": 14.4915, "lng": 73.4625, "id": "113473", "name": "Neogloboquadrina dutertrei", "sprite": "sp-anchoviella_juruasanga.png", "group": "other", "rarity": 1}, {"lat": 14.13, "lng": 73.49, "id": "514332", "name": "Nematocarcinus tenuirostris", "sprite": "sp-american_lobster.png", "group": "crab_lobster", "rarity": 1}, {"lat": 12.1228, "lng": 75.1872, "id": "137906", "name": "Donax", "sprite": "sp-blue_mussel.png", "group": "clam_mussel", "rarity": 1}, {"lat": 11.9357, "lng": 75.0143, "id": "122013", "name": "Halalaimus longicaudatus", "sprite": "sp-anchoviella_juruasanga.png", "group": "other", "rarity": 1}, {"lat": 15.4365, "lng": 73.815, "id": "841260", "name": "Tripos macroceros", "sprite": "sp-anchoviella_juruasanga.png", "group": "other", "rarity": 1}, {"lat": 12.49, "lng": 73.9625, "id": "127769", "name": "Conchoecetta giesbrechti", "sprite": "sp-anchoviella_juruasanga.png", "group": "other", "rarity": 1}, {"lat": 11.2505, "lng": 75.7734, "id": "398531", "name": "Decorated ponyfish", "thumb": "tn_Ledec_u0.jpg", "sprite": "sp-anchoviella_juruasanga.png", "group": "other", "rarity": 1, "waterType": "Brackish"}, {"lat": 14.2496, "lng": 73.2341, "id": "884697", "name": "Kirkegaardia annulosa", "sprite": "sp-anchoviella_juruasanga.png", "group": "other", "rarity": 1}, {"lat": 14.75, "lng": 73.35, "id": "110673", "name": "Euphausia", "sprite": "sp-antarctic_krill.png", "group": "shrimp", "rarity": 1}, {"lat": 12.49, "lng": 73.9625, "id": "106673", "name": "Brachyura", "sprite": "sp-american_lobster.png", "group": "crab_lobster", "rarity": 1}, {"lat": 15.1846, "lng": 73.3616, "id": "1078", "name": "Ostracoda", "sprite": "sp-anchoviella_juruasanga.png", "group": "other", "rarity": 1}, {"lat": 14.3069, "lng": 73.7815, "id": "130711", "name": "Poecilochaetus serpens", "sprite": "sp-anchoviella_juruasanga.png", "group": "other", "rarity": 1}, {"lat": 15.0489, "lng": 74.03, "id": "218236", "name": "Spinycheek grouper", "thumb": "tn_Epdia_u1.jpg", "sprite": "sp-chelidoperca_santosi.png", "group": "grouper", "rarity": 1, "waterType": "Saltwater"}, {"lat": 12.4167, "lng": 73.6333, "id": "104183", "name": "Lucicutia", "sprite": "sp-anchoviella_juruasanga.png", "group": "other", "rarity": 1}, {"lat": 13.0, "lng": 75.0, "id": "151380", "name": "Channidae", "sprite": "sp-anchoviella_juruasanga.png", "group": "other", "rarity": 1}, {"lat": 12.5865, "lng": 73.9474, "id": "129379", "name": "Nereis", "sprite": "sp-anchoviella_juruasanga.png", "group": "other", "rarity": 1}, {"lat": 14.0167, "lng": 74.4532, "id": "143804", "name": "Spongomorpha", "sprite": "sp-anchoviella_juruasanga.png", "group": "other", "rarity": 1}, {"lat": 12.4779, "lng": 73.2697, "id": "272882", "name": "Rouleina nuda", "sprite": "sp-anchoviella_juruasanga.png", "group": "other", "rarity": 1, "waterType": "Saltwater"}, {"lat": 12.6796, "lng": 73.7347, "id": "128634", "name": "Corycaeus", "sprite": "sp-anchoviella_juruasanga.png", "group": "other", "rarity": 1}, {"lat": 14.885, "lng": 74.25, "id": "218641", "name": "Tigertooth croaker", "thumb": "tn_Otrub_u6.jpg", "sprite": "sp-anchoviella_juruasanga.png", "group": "other", "rarity": 1, "waterType": "Brackish"}, {"lat": 15.4625, "lng": 73.794, "id": "218539", "name": "Harry hotlips", "thumb": "tn_Plgib_u6.jpg", "sprite": "sp-anchoviella_juruasanga.png", "group": "other", "rarity": 1, "waterType": "Brackish"}, {"lat": 15.8799, "lng": 73.556, "id": "700395", "name": "Caulerpa chemnitzia", "sprite": "sp-anchoviella_juruasanga.png", "group": "other", "rarity": 1}, {"lat": 15.517, "lng": 73.9, "id": "282082", "name": "Half-mourning croaker", "thumb": "tn_Pasem_u1.jpg", "sprite": "sp-anchoviella_juruasanga.png", "group": "other", "rarity": 1, "waterType": "Saltwater"}, {"lat": 15.0329, "lng": 73.5005, "id": "2", "name": "Animalia", "sprite": "sp-anchoviella_juruasanga.png", "group": "other", "rarity": 1}, {"lat": 12.0911, "lng": 75.9408, "id": "391239", "name": "Copytus", "sprite": "sp-anchoviella_juruasanga.png", "group": "other", "rarity": 1}, {"lat": 12.1819, "lng": 75.4826, "id": "1021856", "name": "Blackspot barb", "thumb": "tn_Pufil_u1.jpg", "sprite": "sp-enteromius.png", "group": "carp_minnow", "rarity": 1, "waterType": "Brackish"}, {"lat": 12.382, "lng": 74.4247, "id": "129462", "name": "Ancistrosyllis", "sprite": "sp-anchoviella_juruasanga.png", "group": "other", "rarity": 1}, {"lat": 12.4415, "lng": 74.0977, "id": "109470", "name": "Alexandrium", "sprite": "sp-anchoviella_juruasanga.png", "group": "other", "rarity": 1}]}