{"zoom": 6, "x": 45, "y": 30, "points": [{"lat": 10.07, "lng": 73.62, "id": "210372", "name": "Penaeus latisulcatus", "sprite": "sp-american_lobster.png", "group": "crab_lobster", "rarity": 1}, {"lat": 9.6983, "lng": 76.3349, "id": "279626", "name": "Chacunda gizzard shad", "thumb": "tn_Ancha_u1.jpg", "sprite": "sp-anchoviella_juruasanga.png", "group": "other", "rarity": 1, "waterType": "Brackish"}, {"lat": 7.9635, "lng": 77.3516, "id": "1421344", "name": "Ophiuroglypha kinbergi", "sprite": "sp-sea_cucumber.png", "group": "starfish", "rarity": 1}, {"lat": 8.9105, "lng": 76.2893, "id": "131573", "name": "Terebellides stroemii", "sprite": "sp-anchoviella_juruasanga.png", "group": "other", "rarity": 1}, {"lat": 10.0, "lng": 75.0, "id": "274193", "name": "Largescale tonguesole", "thumb": "tn_Cyare_u1.jpg", "sprite": "sp-atlantic_halibut.png", "group": "flatfish", "rarity": 1, "waterType": "Brackish"}, {"lat": 9.9633, "lng": 76.1435, "id": "280714", "name": "White sardine", "thumb": "tn_Estho_u1.jpg", "sprite": "sp-anchoviella_juruasanga.png", "group": "other", "rarity": 1, "waterType": "Brackish"}, {"lat": 8.3683, "lng": 76.9567, "id": "109612", "name": "Dinophysis caudata", "sprite": "sp-anchoviella_juruasanga.png", "group": "other", "rarity": 1}, {"lat": 9.3521, "lng": 74.4863, "id": "105719", "name": "Carcharhinus", "sprite": "sp-great_white_shark.png", "group": "shark", "rarity": 1}, {"lat": 8.81, "lng": 78.1897, "id": "218730", "name": "Threadfin butterflyfish", "thumb": "tn_Chaur_uv.jpg", "sprite": "sp-chaetodon.png", "group": "butterflyfish", "rarity": 1, "waterType": "Saltwater"}, {"lat": 6.3833, "lng": 78.0167, "id": "161474", "name": "Siriella aequiremis", "sprite": "sp-american_lobster.png", "group": "crab_lobster", "rarity": 1}, {"lat": 10.2452, "lng": 75.6982, "id": "131435", "name": "Syllis gracilis", "sprite": "sp-anchoviella_juruasanga.png", "group": "other", "rarity": 1}, {"lat": 9.5917, "lng": 74.2833, "id": "104208", "name": "Labidocera", "sprite": "sp-anchoviella_juruasanga.png", "group": "other", "rarity": 1}, {"lat": 8.8752, "lng": 76.589, "id": "274692", "name": "Pontinus rhodochrous", "thumb": "tn_Porho_u2.jpg", "sprite": "sp-parascorpaena_moultoni.png", "group": "scorpionfish", "rarity": 1, "waterType": "Saltwater"}, {"lat": 8.117, "lng": 73.25, "id": "113440", "name": "Globigerinella siphonifera", "sprite": "sp-anchoviella_juruasanga.png", "group": "other", "rarity": 1}, {"lat": 7.0581, "lng": 73.3535, "id": "210774", "name": "Labidodemas semperianum", "sprite": "sp-sea_cucumber.png", "group": "starfish", "rarity": 1}, {"lat": 7.07, "lng": 76.57, "id": "254871", "name": "Brisinga insularum", "sprite": "sp-sea_cucumber.png", "group": "starfish", "rarity": 1}, {"lat": 7.0581, "lng": 73.3535, "id": "213299", "name": "Fromia milleporella", "sprite": "sp-sea_cucumber.png", "group": "starfish", "rarity": 1}, {"lat": 8.3833, "lng": 76.979, "id": "273333", "name": "Indian vagabond butterflyfish", "thumb": "tn_Chdec_uc.jpg", "sprite": "sp-chaetodon.png", "group": "butterflyfish", "rarity": 1, "waterType": "Saltwater"}, {"lat": 8.1514, "lng": 77.6664, "id": "373190", "name": "Padina antillarum", "sprite": "sp-anchoviella_juruasanga.png", "group": "other", "rarity": 1}, {"lat": 7.3564, "lng": 74.9571, "id": "387338", "name": "Pterotracheoidea", "sprite": "sp-cowrie_shell.png", "group": "sea_snail", "rarity": 1}, {"lat": 8.3686, "lng": 76.5564, "id": "129285", "name": "Euphrosine", "sprite": "sp-anchoviella_juruasanga.png", "group": "other", "rarity": 1}, {"lat": 9.7713, "lng": 73.9558, "id": "219729", "name": "Indo-Pacific blue marlin", "thumb": "tn_Mamaz_u2.jpg", "sprite": "sp-blue_marlin.png", "group": "swordfish", "rarity": 1, "waterType": "Saltwater"}, {"lat": 8.8, "lng": 78.2, "id": "218579", "name": "Blue-lined large-eye bream", "thumb": "tn_Gygra_u3.jpg", "sprite": "sp-anchoviella_juruasanga.png", "group": "other", "rarity": 1, "waterType": "Saltwater"}, {"lat": 8.5, "lng": 76.91, "id": "418905", "name": "Tridentata marginata", "sprite": "sp-anchoviella_juruasanga.png", "group": "other", "rarity": 1}, {"lat": 11.1306, "lng": 75.8325, "id": "233493", "name": "Protoperidinium applanatum", "sprite": "sp-anchoviella_juruasanga.png", "group": "other", "rarity": 1}, {"lat": 8.38, "lng": 75.78, "id": "380650", "name": "Persephonaster rhodopeplus", "sprite": "sp-sea_cucumber.png", "group": "starfish", "rarity": 1}, {"lat": 7.6733, "lng": 77.2267, "id": "220834", "name": "Canthocalanus pauper", "sprite": "sp-anchoviella_juruasanga.png", "group": "other", "rarity": 1}, {"lat": 8.0833, "lng": 77.5667, "id": "1310304", "name": "Caulerpa denticulata var. intermedia", "sprite": "sp-anchoviella_juruasanga.png", "group": "other", "rarity": 1}, {"lat": 9.4555, "lng": 75.3056, "id": "1436445", "name": "Pleuromamma gracilis gracilis", "sprite": "sp-anchoviella_juruasanga.png", "group": "other", "rarity": 1}, {"lat": 8.4833, "lng": 76.9167, "id": "104492", "name": "Centropages calaninus", "sprite": "sp-anchoviella_juruasanga.png", "group": "other", "rarity": 1}, {"lat": 7.1857, "lng": 75.0329, "id": "266884", "name": "Zonosagitta bedoti", "sprite": "sp-anchoviella_juruasanga.png", "group": "other", "rarity": 1}, {"lat": 10.081, "lng": 73.629, "id": "234474", "name": "Ulva linza", "sprite": "sp-anchoviella_juruasanga.png", "group": "other", "rarity": 1}, {"lat": 8.1167, "lng": 73.3, "id": "113625", "name": "Neorotalia calcar", "sprite": "sp-anchoviella_juruasanga.png", "group": "other", "rarity": 1}, {"lat": 11.17, "lng": 75.809, "id": "212289", "name": "Longjaw thryssa", "thumb": "tn_Thset_u0.jpg", "sprite": "sp-anchoviella_juruasanga.png", "group": "anchovy", "rarity": 1, "waterType": "Brackish"}, {"lat": 8.479, "lng": 76.924, "id": "212888", "name": "Blackspot sergeant", "thumb": "tn_Absor_u0.jpg", "sprite": "sp-chrysiptera_caesifrons.png", "group": "clownfish", "rarity": 1, "waterType": "Brackish"}, {"lat": 9.1833, "lng": 75.7167, "id": "104232", "name": "Scottocalanus", "sprite": "sp-anchoviella_juruasanga.png", "group": "other", "rarity": 1}, {"lat": 9.95, "lng": 76.238, "id": "275553", "name": "Dussumier's thryssa", "thumb": "tn_Thdus_u0.jpg", "sprite": "sp-anchoviella_juruasanga.png", "group": "anchovy", "rarity": 1, "waterType": "Brackish"}, {"lat": 5.9417, "lng": 73.4, "id": "218304", "name": "Yellow-edged lyretail", "thumb": "tn_Valou_uc.jpg", "sprite": "sp-chelidoperca_santosi.png", "group": "grouper", "rarity": 1, "waterType": "Saltwater"}, {"lat": 7.7423, "lng": 77.3507, "id": "130702", "name": "Sigambra parva", "sprite": "sp-anchoviella_juruasanga.png", "group": "other", "rarity": 1}, {"lat": 7.7923, "lng": 77.5091, "id": "213245", "name": "Astropecten polyacanthus", "sprite": "sp-sea_cucumber.png", "group": "starfish", "rarity": 1}, {"lat": 7.48, "lng": 76.44, "id": "380655", "name": "Psilaster agassizi", "sprite": "sp-sea_cucumber.png", "group": "starfish", "rarity": 1}, {"lat": 9.6517, "lng": 74.9105, "id": "745865", "name": "Paracalanus parvus parvus", "sprite": "sp-anchoviella_juruasanga.png", "group": "other", "rarity": 1}, {"lat": 8.388, "lng": 76.9763, "id": "219283", "name": "Fringelip rockskipper", "thumb": "tn_Enepa_u0.jpg", "sprite": "sp-helcogramma_ascensionis.png", "group": "blenny", "rarity": 1, "waterType": "Saltwater"}, {"lat": 9.0, "lng": 76.2033, "id": "558", "name": "Porifera", "sprite": "sp-barrel_sponge.png", "group": "sponge", "rarity": 1}, {"lat": 9.9667, "lng": 76.2167, "id": "129825", "name": "Amphinome rostrata", "sprite": "sp-anchoviella_juruasanga.png", "group": "other", "rarity": 1}, {"lat": 10.02, "lng": 75.64, "id": "282922", "name": "Longfin dragonfish", "sprite": "sp-anchoviella_juruasanga.png", "group": "other", "rarity": 1, "waterType": "Saltwater"}, {"lat": 7.1712, "lng": 77.3478, "id": "129491", "name": "Harmothoe", "sprite": "sp-anchoviella_juruasanga.png", "group": "other", "rarity": 1}, {"lat": 8.76, "lng": 78.45, "id": "218201", "name": "Comet grouper", "thumb": "tn_Epmor_u9.jpg", "sprite": "sp-chelidoperca_santosi.png", "group": "grouper", "rarity": 1, "waterType": "Saltwater"}, {"lat": 8.3683, "lng": 76.9567, "id": "963647", "name": "Nitzschia panduriformis", "sprite": "sp-anchoviella_juruasanga.png", "group": "other", "rarity": 1}, {"lat": 8.21, "lng": 77.18, "id": "131745", "name": "Dysidea", "sprite": "sp-barrel_sponge.png", "group": "sponge", "rarity": 1}, {"lat": 8.1439, "lng": 77.1567, "id": "244143", "name": "Ophiothrix (Acanthophiothrix) proteus", "sprite": "sp-sea_cucumber.png", "group": "starfish", "rarity": 1}, {"lat": 7.0, "lng": 78.0, "id": "282314", "name": "Bleeding wrasse", "thumb": "tn_Pocru_u0.gif", "sprite": "sp-cleaner_wrasse.png", "group": "wrasse", "rarity": 1, "waterType": "Saltwater"}, {"lat": 8.48, "lng": 76.92, "id": "239488", "name": "Anoplodactylus sandromagni", "sprite": "sp-anchoviella_juruasanga.png", "group": "other", "rarity": 1}, {"lat": 8.3667, "lng": 75.55, "id": "149119", "name": "Bacteriastrum hyalinum", "sprite": "sp-anchoviella_juruasanga.png", "group": "other", "rarity": 1}, {"lat": 8.6737, "lng": 76.5763, "id": "209857", "name": "Protodorvillea egena", "sprite": "sp-anchoviella_juruasanga.png", "group": "other", "rarity": 1}, {"lat": 8.85, "lng": 78.5167, "id": "212440", "name": "Stomopneustes variolaris", "sprite": "sp-sea_cucumber.png", "group": "starfish", "rarity": 1}, {"lat": 9.7778, "lng": 75.9167, "id": "236680", "name": "Harmothoe serrata", "sprite": "sp-anchoviella_juruasanga.png", "group": "other", "rarity": 1}, {"lat": 8.87, "lng": 76.59, "id": "743629", "name": "Murex trapa", "sprite": "sp-cowrie_shell.png", "group": "sea_snail", "rarity": 1}, {"lat": 7.4886, "lng": 77.34, "id": "423170", "name": "Augeneria albidentata", "sprite": "sp-anchoviella_juruasanga.png", "group": "other", "rarity": 1}, {"lat": 7.7833, "lng": 77.2167, "id": "127415", "name": "Half-smooth golden pufferfish", "thumb": "tn_Laspa_u2.jpg", "sprite": "sp-fahaka_pufferfish.png", "group": "pufferfish", "rarity": 1, "waterType": "Brackish"}, {"lat": 10.07, "lng": 73.62, "id": "218669", "name": "Red Sea goatfish", "thumb": "tn_Pafor_u8.jpg", "sprite": "sp-anchoviella_juruasanga.png", "group": "other", "rarity": 1, "waterType": "Brackish"}, {"lat": 6.0, "lng": 78.0, "id": "103752", "name": "Octacnemus ingolfi", "sprite": "sp-anchoviella_juruasanga.png", "group": "other", "rarity": 1}, {"lat": 10.07, "lng": 73.62, "id": "219058", "name": "Bluelined wrasse", "thumb": "tn_Stalb_m0.jpg", "sprite": "sp-cleaner_wrasse.png", "group": "wrasse", "rarity": 1, "waterType": "Saltwater"}, {"lat": 7.9892, "lng": 77.3552, "id": "121035", "name": "Leptonemella aphanothecae", "sprite": "sp-anchoviella_juruasanga.png", "group": "other", "rarity": 1}, {"lat": 8.8667, "lng": 78.6333, "id": "244133", "name": "Ophiothrix variegata", "sprite": "sp-sea_cucumber.png", "group": "starfish", "rarity": 1}, {"lat": 9.6917, "lng": 76.3583, "id": "358328", "name": "Ditrichocorycaeus asiaticus", "sprite": "sp-anchoviella_juruasanga.png", "group": "other", "rarity": 1}, {"lat": 11.1306, "lng": 75.8325, "id": "163473", "name": "Coscinodiscus subtilis", "sprite": "sp-anchoviella_juruasanga.png", "group": "other", "rarity": 1}, {"lat": 7.7833, "lng": 77.2167, "id": "220001", "name": "Emperor angelfish", "thumb": "tn_Poimp_u0.jpg", "sprite": "sp-holacanthus.png", "group": "angelfish", "rarity": 1, "waterType": "Saltwater"}, {"lat": 8.1167, "lng": 73.3, "id": "113624", "name": "Heterostegina depressa", "sprite": "sp-anchoviella_juruasanga.png", "group": "other", "rarity": 1}, {"lat": 8.29, "lng": 76.59, "id": "149092", "name": "Thalassionema", "sprite": "sp-anchoviella_juruasanga.png", "group": "other", "rarity": 1}, {"lat": 10.9167, "lng": 75.7833, "id": "275388", "name": "Brown numbfish", "thumb": "tn_Nabru_u0.jpg", "sprite": "sp-himantura_australis.png", "group": "ray", "rarity": 1, "waterType": "Saltwater"}, {"lat": 9.9383, "lng": 76.24, "id": "248088", "name": "Pleurosigma directum", "sprite": "sp-anchoviella_juruasanga.png", "group": "other", "rarity": 1}, {"lat": 8.8, "lng": 78.15, "id": "207403", "name": "Hydnophora exesa", "sprite": "sp-actiniidae.png", "group": "coral", "rarity": 1}, {"lat": 10.07, "lng": 73.62, "id": "208062", "name": "Terebra babylonia", "sprite": "sp-cowrie_shell.png", "group": "sea_snail", "rarity": 1}, {"lat": 7.2181, "lng": 74.4192, "id": "105835", "name": "Bigeye thresher", "thumb": "tn_Alsup_u0.jpg", "sprite": "sp-great_white_shark.png", "group": "shark", "rarity": 1, "waterType": "Saltwater"}, {"lat": 8.3683, "lng": 76.9567, "id": "232209", "name": "Dinophysis miles", "sprite": "sp-anchoviella_juruasanga.png", "group": "other", "rarity": 1}, {"lat": 8.81, "lng": 78.1897, "id": "212237", "name": "Spotted seahorse", "thumb": "tn_Hikud_ua.jpg", "sprite": "sp-cosmocampus_coccineus.png", "group": "seahorse", "rarity": 1, "waterType": "Brackish"}, {"lat": 7.2917, "lng": 76.9083, "id": "171872", "name": "Regadrella decora", "sprite": "sp-barrel_sponge.png", "group": "sponge", "rarity": 1}, {"lat": 7.7942, "lng": 77.4451, "id": "209885", "name": "Armandia intermedia", "sprite": "sp-anchoviella_juruasanga.png", "group": "other", "rarity": 1}, {"lat": 7.4186, "lng": 76.9837, "id": "129619", "name": "Polydora", "sprite": "sp-anchoviella_juruasanga.png", "group": "other", "rarity": 1}, {"lat": 9.6514, "lng": 75.0055, "id": "450886", "name": "Cypridina dentata", "sprite": "sp-anchoviella_juruasanga.png", "group": "other", "rarity": 1}, {"lat": 8.29, "lng": 76.59, "id": "157081", "name": "Thalassiothrix", "sprite": "sp-anchoviella_juruasanga.png", "group": "other", "rarity": 1}, {"lat": 10.07, "lng": 73.62, "id": "210914", "name": "Stichopus horrens", "sprite": "sp-sea_cucumber.png", "group": "starfish", "rarity": 1}, {"lat": 8.2167, "lng": 76.2333, "id": "272557", "name": "Diceratias trilobus", "sprite": "sp-deep_sea_anglerfish.png", "group": "anglerfish", "rarity": 1, "waterType": "Saltwater"}, {"lat": 7.7478, "lng": 77.2552, "id": "330767", "name": "Pista indica", "sprite": "sp-anchoviella_juruasanga.png", "group": "other", "rarity": 1}, {"lat": 11.0, "lng": 76.0, "id": "218570", "name": "Silver grunt", "thumb": "tn_Poarg_u0.jpg", "sprite": "sp-anchoviella_juruasanga.png", "group": "other", "rarity": 1, "waterType": "Brackish"}, {"lat": 8.29, "lng": 78.52, "id": "587984", "name": "Ancylocaris brevicarpalis", "sprite": "sp-american_lobster.png", "group": "crab_lobster", "rarity": 1}, {"lat": 10.07, "lng": 73.62, "id": "1063207", "name": "Nebularia ferruginea", "sprite": "sp-cowrie_shell.png", "group": "sea_snail", "rarity": 1}, {"lat": 10.07, "lng": 73.62, "id": "510448", "name": "Bulla vernicosa", "sprite": "sp-cowrie_shell.png", "group": "sea_snail", "rarity": 1}, {"lat": 10.0098, "lng": 76.8692, "id": "269909", "name": "Monopterus", "sprite": "sp-anchoviella_juruasanga.png", "group": "other", "rarity": 1}, {"lat": 6.0, "lng": 78.0, "id": "514268", "name": "Acanthephyra sanguinea", "sprite": "sp-american_lobster.png", "group": "crab_lobster", "rarity": 1}, {"lat": 8.9088, "lng": 76.031, "id": "229116", "name": "Sabatieria paracupida", "sprite": "sp-anchoviella_juruasanga.png", "group": "other", "rarity": 1}, {"lat": 9.5741, "lng": 76.532, "id": "279649", "name": "Green panchax", "thumb": "tn_Apblo_u1.jpg", "sprite": "sp-anchoviella_juruasanga.png", "group": "other", "rarity": 1, "waterType": "Brackish"}, {"lat": 7.2531, "lng": 77.5131, "id": "883", "name": "Polychaeta", "sprite": "sp-anchoviella_juruasanga.png", "group": "other", "rarity": 1}, {"lat": 8.0833, "lng": 77.5667, "id": "211699", "name": "Ceramium maryae", "sprite": "sp-anchoviella_juruasanga.png", "group": "other", "rarity": 1}, {"lat": 11.0, "lng": 76.0, "id": "218174", "name": "Peacock hind", "thumb": "tn_Cearg_u6.jpg", "sprite": "sp-chelidoperca_santosi.png", "group": "grouper", "rarity": 1, "waterType": "Saltwater"}, {"lat": 9.9331, "lng": 76.2331, "id": "280639", "name": "Fourfinger threadfin", "thumb": "tn_Eltet_u2.jpg", "sprite": "sp-anchoviella_juruasanga.png", "group": "other", "rarity": 1, "waterType": "Brackish"}, {"lat": 9.1639, "lng": 76.2222, "id": "116116", "name": "Microsetella rosea", "sprite": "sp-anchoviella_juruasanga.png", "group": "other", "rarity": 1}, {"lat": 10.0748, "lng": 76.7298, "id": "218690", "name": "Sulphur goatfish", "thumb": "tn_Upsul_u5.jpg", "sprite": "sp-anchoviella_juruasanga.png", "group": "other", "rarity": 1, "waterType": "Brackish"}, {"lat": 10.07, "lng": 73.62, "id": "218726", "name": "Blackwedged butterflyfish", "thumb": "tn_Chfal_u5.jpg", "sprite": "sp-chaetodon.png", "group": "butterflyfish", "rarity": 1, "waterType": "Saltwater"}, {"lat": 9.5608, "lng": 76.1495, "id": "106923", "name": "Charybdis", "sprite": "sp-american_lobster.png", "group": "crab_lobster", "rarity": 1}, {"lat": 11.1306, "lng": 75.8325, "id": "149122", "name": "Chaetoceros didymus", "sprite": "sp-anchoviella_juruasanga.png", "group": "other", "rarity": 1}, {"lat": 8.7667, "lng": 78.1667, "id": "145861", "name": "Hydroclathrus clathratus", "sprite": "sp-anchoviella_juruasanga.png", "group": "other", "rarity": 1}, {"lat": 10.1839, "lng": 76.1561, "id": "962871", "name": "Navicula marina", "sprite": "sp-anchoviella_juruasanga.png", "group": "other", "rarity": 1}, {"lat": 9.4929, "lng": 76.4268, "id": "126422", "name": "Round sardinella", "thumb": "tn_Saaur_u4.jpg", "sprite": "sp-anchoviella_juruasanga.png", "group": "other", "rarity": 1, "waterType": "Brackish"}, {"lat": 8.5004, "lng": 76.7911, "id": "240635", "name": "Glycinde capensis", "sprite": "sp-anchoviella_juruasanga.png", "group": "other", "rarity": 1}, {"lat": 7.6512, "lng": 77.3502, "id": "337479", "name": "Aricidea (Aricidea) capensis", "sprite": "sp-anchoviella_juruasanga.png", "group": "other", "rarity": 1}, {"lat": 8.786, "lng": 78.126, "id": "283161", "name": "Wallago", "thumb": "tn_Waatt_u1.jpg", "sprite": "sp-blue_catfish.png", "group": "catfish", "rarity": 1, "waterType": "Brackish"}, {"lat": 7.834, "lng": 76.6317, "id": "129955", "name": "Chaetozone setosa", "sprite": "sp-anchoviella_juruasanga.png", "group": "other", "rarity": 1}, {"lat": 9.6664, "lng": 75.035, "id": "22990", "name": "Atlantidae", "sprite": "sp-cowrie_shell.png", "group": "sea_snail", "rarity": 1}, {"lat": 9.0, "lng": 76.2033, "id": "105435", "name": "Flaccisagitta hexaptera", "sprite": "sp-anchoviella_juruasanga.png", "group": "other", "rarity": 1}, {"lat": 9.9468, "lng": 75.5762, "id": "137098", "name": "Grampus griseus", "sprite": "sp-bottlenose_dolphin.png", "group": "dolphin", "rarity": 1}, {"lat": 10.917, "lng": 76.433, "id": "272805", "name": "Monomitopus conjugator", "sprite": "sp-anchoviella_juruasanga.png", "group": "other", "rarity": 1, "waterType": "Saltwater"}, {"lat": 8.6333, "lng": 78.125, "id": "145634", "name": "Hypnea musciformis", "sprite": "sp-anchoviella_juruasanga.png", "group": "other", "rarity": 1}, {"lat": 10.0908, "lng": 75.4283, "id": "129337", "name": "Lumbrineris", "sprite": "sp-anchoviella_juruasanga.png", "group": "other", "rarity": 1}, {"lat": 8.6333, "lng": 76.2333, "id": "1059953", "name": "Carcinoplax fasciata", "sprite": "sp-american_lobster.png", "group": "crab_lobster", "rarity": 1}, {"lat": 9.08, "lng": 78.418, "id": "217274", "name": "Pachycheles natalensis", "sprite": "sp-american_lobster.png", "group": "crab_lobster", "rarity": 1}, {"lat": 8.7833, "lng": 78.1333, "id": "712907", "name": "Striped marlin", "thumb": "tn_Teaud_u3.jpg", "sprite": "sp-blue_marlin.png", "group": "swordfish", "rarity": 1, "waterType": "Saltwater"}, {"lat": 8.7731, "lng": 76.365, "id": "206924", "name": "Stolephorus", "sprite": "sp-anchoviella_juruasanga.png", "group": "anchovy", "rarity": 1}, {"lat": 9.6798, "lng": 74.998, "id": "1762", "name": "Nudibranchia", "sprite": "sp-cowrie_shell.png", "group": "sea_snail", "rarity": 1}]}