{"zoom": 6, "x": 46, "y": 26, "points": [{"lat": 27.5749, "lng": 84.1433, "id": "269631", "name": "Lepidocephalichthys", "sprite": "sp-anchoviella_juruasanga.png", "group": "other", "rarity": 1}, {"lat": 28.6332, "lng": 81.2751, "id": "270823", "name": "Schistura", "sprite": "sp-anchoviella_juruasanga.png", "group": "other", "rarity": 1}, {"lat": 27.7695, "lng": 80.5057, "id": "126983", "name": "Flathead grey mullet", "thumb": "tn_Mucep_u4.jpg", "sprite": "sp-anchoviella_juruasanga.png", "group": "other", "rarity": 1, "waterType": "Brackish"}, {"lat": 28.5683, "lng": 82.8793, "id": "159220", "name": "Rough silverside", "thumb": "tn_Memar_u1.jpg", "sprite": "sp-anchoviella_juruasanga.png", "group": "other", "rarity": 1, "waterType": "Saltwater"}, {"lat": 31.325, "lng": 81.1306, "id": "266219", "name": "Branchiostoma virginiae", "sprite": "sp-anchoviella_juruasanga.png", "group": "other", "rarity": 1}, {"lat": 27.63, "lng": 82.6646, "id": "158517", "name": "Bonnethead", "thumb": "tn_Sptib_u4.jpg", "sprite": "sp-great_white_shark.png", "group": "shark", "rarity": 1, "waterType": "Brackish"}, {"lat": 28.6442, "lng": 81.029, "id": "1605291", "name": "Tariqilabeo latius", "sprite": "sp-enteromius.png", "group": "carp_minnow", "rarity": 1}, {"lat": 27.7425, "lng": 83.601, "id": "1605291", "name": "Tariqilabeo latius", "sprite": "sp-enteromius.png", "group": "carp_minnow", "rarity": 1}, {"lat": 28.29, "lng": 81.11, "id": "321753", "name": "Olive barb", "thumb": "tn_Pusar_f0.jpg", "sprite": "sp-enteromius.png", "group": "carp_minnow", "rarity": 1, "waterType": "Brackish"}, {"lat": 28.5417, "lng": 80.1333, "id": "105734", "name": "Hydrolagus", "sprite": "sp-anchoviella_juruasanga.png", "group": "other", "rarity": 1}, {"lat": 27.7288, "lng": 82.953, "id": "158815", "name": "Slippery dick", "thumb": "tn_Habiv_u2.jpg", "sprite": "sp-cleaner_wrasse.png", "group": "wrasse", "rarity": 1, "waterType": "Saltwater"}, {"lat": 28.7, "lng": 80.9, "id": "279652", "name": "Blue panchax", "thumb": "tn_Appan_m0.jpg", "sprite": "sp-anchoviella_juruasanga.png", "group": "other", "rarity": 1, "waterType": "Brackish"}, {"lat": 28.036, "lng": 82.6817, "id": "158699", "name": "Bay anchovy", "thumb": "tn_Anmit_u1.jpg", "sprite": "sp-anchoviella_juruasanga.png", "group": "anchovy", "rarity": 1, "waterType": "Brackish"}, {"lat": 28.0333, "lng": 84.0667, "id": "217456", "name": "Indian mottled eel", "thumb": "tn_Anben_u3.jpg", "sprite": "sp-electric_eel.png", "group": "eel", "rarity": 1, "waterType": "Brackish"}, {"lat": 29.1007, "lng": 83.0769, "id": "275645", "name": "Gulf toadfish", "thumb": "tn_Opbet_u0.jpg", "sprite": "sp-anchoviella_juruasanga.png", "group": "other", "rarity": 1, "waterType": "Saltwater"}, {"lat": 27.5513, "lng": 84.174, "id": "515349", "name": "Thor spinosus", "sprite": "sp-american_lobster.png", "group": "crab_lobster", "rarity": 1}, {"lat": 28.5683, "lng": 82.8793, "id": "159732", "name": "Silver mojarra", "thumb": "tn_Euarg_u2.jpg", "sprite": "sp-anchoviella_juruasanga.png", "group": "other", "rarity": 1, "waterType": "Brackish"}, {"lat": 28.7364, "lng": 80.2895, "id": "281633", "name": "Gangetic leaffish", "thumb": "tn_Nanan_u1.jpg", "sprite": "sp-anchoviella_juruasanga.png", "group": "other", "rarity": 1, "waterType": "Brackish"}, {"lat": 29.1007, "lng": 83.0769, "id": "307126", "name": "Planehead filefish", "thumb": "tn_Sthis_u2.jpg", "sprite": "sp-anchoviella_juruasanga.png", "group": "other", "rarity": 1, "waterType": "Saltwater"}, {"lat": 28.9918, "lng": 83.1086, "id": "159678", "name": "Whitefin sharksucker", "thumb": "tn_Ecneu_u2.jpg", "sprite": "sp-anchoviella_juruasanga.png", "group": "other", "rarity": 1, "waterType": "Saltwater"}, {"lat": 28.6838, "lng": 80.9333, "id": "298263", "name": "Flying barb", "thumb": "tn_Esdan_u0.jpg", "sprite": "sp-enteromius.png", "group": "carp_minnow", "rarity": 1, "waterType": "Brackish"}, {"lat": 28.5245, "lng": 81.2245, "id": "277036", "name": "Elongate glass-perchlet", "thumb": "tn_Chnam_u3.jpg", "sprite": "sp-anchoviella_juruasanga.png", "group": "other", "rarity": 1, "waterType": "Brackish"}, {"lat": 29.1007, "lng": 83.0769, "id": "276309", "name": "Florida blenny", "thumb": "tn_Chsab_u0.jpg", "sprite": "sp-helcogramma_ascensionis.png", "group": "blenny", "rarity": 1, "waterType": "Brackish"}, {"lat": 28.9892, "lng": 80.0136, "id": "269631", "name": "Lepidocephalichthys", "sprite": "sp-anchoviella_juruasanga.png", "group": "other", "rarity": 1}, {"lat": 27.7695, "lng": 80.5057, "id": "159700", "name": "Fat sleeper", "thumb": "tn_Domac_u1.jpg", "sprite": "sp-anchoviella_juruasanga.png", "group": "other", "rarity": 1, "waterType": "Brackish"}, {"lat": 28.05, "lng": 80.283, "id": "835976", "name": "Conasprella delessertii", "sprite": "sp-cowrie_shell.png", "group": "sea_snail", "rarity": 1}, {"lat": 27.7695, "lng": 80.5057, "id": "277805", "name": "Spinycheek sleeper", "thumb": "tn_Elpis_u0.jpg", "sprite": "sp-anchoviella_juruasanga.png", "group": "other", "rarity": 1, "waterType": "Brackish"}, {"lat": 28.0, "lng": 84.0, "id": "158884", "name": "Snakefish", "thumb": "tn_Trmyo_ua.jpg", "sprite": "sp-anchoviella_juruasanga.png", "group": "other", "rarity": 1, "waterType": "Saltwater"}, {"lat": 28.5163, "lng": 80.8819, "id": "1021907", "name": "Ticto barb", "thumb": "tn_Putic_u0.jpg", "sprite": "sp-enteromius.png", "group": "carp_minnow", "rarity": 1, "waterType": "Brackish"}, {"lat": 31.7931, "lng": 82.9801, "id": "567537", "name": "Spottail shiner", "thumb": "tn_Nohud_u0.jpg", "sprite": "sp-enteromius.png", "group": "carp_minnow", "rarity": 1, "waterType": "Brackish"}, {"lat": 27.5104, "lng": 84.022, "id": "282072", "name": "Indian glassy fish", "thumb": "tn_Paran_ua.jpg", "sprite": "sp-anchoviella_juruasanga.png", "group": "other", "rarity": 1, "waterType": "Brackish"}, {"lat": 27.7288, "lng": 82.953, "id": "282226", "name": "Freckled cardinalfish", "thumb": "tn_Phcon_u1.jpg", "sprite": "sp-anchoviella_juruasanga.png", "group": "other", "rarity": 1, "waterType": "Saltwater"}, {"lat": 28.5209, "lng": 81.3075, "id": "219471", "name": "Tank goby", "thumb": "tn_Glgiu_u4.jpg", "sprite": "sp-eviota_bipunctata.png", "group": "goby", "rarity": 1, "waterType": "Brackish"}, {"lat": 27.4171, "lng": 83.8596, "id": "282655", "name": "Large razorbelly minnow", "thumb": "tn_Sabac_u0.jpg", "sprite": "sp-enteromius.png", "group": "carp_minnow", "rarity": 1, "waterType": "Brackish"}, {"lat": 27.7695, "lng": 80.5057, "id": "276420", "name": "Tidewater mojarra", "thumb": "tn_Euhar_u0.jpg", "sprite": "sp-anchoviella_juruasanga.png", "group": "other", "rarity": 1, "waterType": "Brackish"}, {"lat": 28.29, "lng": 81.11, "id": "281072", "name": "Stinging catfish", "thumb": "tn_Hefos_u5.jpg", "sprite": "sp-blue_catfish.png", "group": "catfish", "rarity": 1, "waterType": "Brackish"}, {"lat": 29.1007, "lng": 83.0769, "id": "159333", "name": "Black drum", "thumb": "tn_Pocro_u2.jpg", "sprite": "sp-anchoviella_juruasanga.png", "group": "other", "rarity": 1, "waterType": "Brackish"}, {"lat": 27.7695, "lng": 80.5057, "id": "158804", "name": "Clown goby", "thumb": "tn_Migul_u0.jpg", "sprite": "sp-eviota_bipunctata.png", "group": "goby", "rarity": 1, "waterType": "Brackish"}, {"lat": 27.7017, "lng": 84.3397, "id": "269232", "name": "Glyptothorax", "sprite": "sp-blue_catfish.png", "group": "catfish", "rarity": 1}, {"lat": 27.512, "lng": 80.3701, "id": "158709", "name": "Hardhead sea catfish", "thumb": "tn_Arfel_u3.jpg", "sprite": "sp-blue_catfish.png", "group": "catfish", "rarity": 1, "waterType": "Brackish"}, {"lat": 27.8187, "lng": 80.5091, "id": "157875", "name": "Ladyfish", "thumb": "tn_Elsau_u3.jpg", "sprite": "sp-anchoviella_juruasanga.png", "group": "other", "rarity": 1, "waterType": "Brackish"}, {"lat": 28.0, "lng": 80.0, "id": "475100", "name": "Warsaw grouper", "thumb": "tn_Epnig_u2.jpg", "sprite": "sp-chelidoperca_santosi.png", "group": "grouper", "rarity": 1, "waterType": "Saltwater"}, {"lat": 28.3333, "lng": 80.5, "id": "158782", "name": "Oyster toadfish", "thumb": "tn_Optau_u0.jpg", "sprite": "sp-anchoviella_juruasanga.png", "group": "other", "rarity": 1, "waterType": "Brackish"}, {"lat": 27.466, "lng": 82.7, "id": "129566", "name": "Hydroides", "sprite": "sp-anchoviella_juruasanga.png", "group": "other", "rarity": 1}, {"lat": 31.0, "lng": 81.0, "id": "276134", "name": "Eastern mosquitofish", "thumb": "tn_Gahol_f0.jpg", "sprite": "sp-anchoviella_juruasanga.png", "group": "other", "rarity": 1, "waterType": "Brackish"}, {"lat": 27.9469, "lng": 82.4583, "id": "231886", "name": "Pyrodinium bahamense", "sprite": "sp-anchoviella_juruasanga.png", "group": "other", "rarity": 1}, {"lat": 27.7288, "lng": 82.953, "id": "276688", "name": "Cocoa damselfish", "thumb": "tn_Stvar_u2.jpg", "sprite": "sp-chrysiptera_caesifrons.png", "group": "clownfish", "rarity": 1, "waterType": "Saltwater"}, {"lat": 27.8187, "lng": 80.5091, "id": "1042864", "name": "Atlantic stingray", "thumb": "tn_Dasab_u2.jpg", "sprite": "sp-himantura_australis.png", "group": "ray", "rarity": 1, "waterType": "Brackish"}, {"lat": 28.6332, "lng": 81.2751, "id": "269232", "name": "Glyptothorax", "sprite": "sp-blue_catfish.png", "group": "catfish", "rarity": 1}, {"lat": 28.0, "lng": 80.0, "id": "158784", "name": "Atlantic midshipman", "thumb": "tn_Pople_u6.jpg", "sprite": "sp-anchoviella_juruasanga.png", "group": "other", "rarity": 1, "waterType": "Saltwater"}, {"lat": 31.695, "lng": 79.2863, "id": "139045", "name": "Diacria trispinosa", "sprite": "sp-cowrie_shell.png", "group": "sea_snail", "rarity": 1}, {"lat": 30.0, "lng": 79.0, "id": "126336", "name": "Shortnose greeneye", "thumb": "tn_Chaga_u0.jpg", "sprite": "sp-anchoviella_juruasanga.png", "group": "other", "rarity": 1, "waterType": "Brackish"}, {"lat": 28.29, "lng": 81.11, "id": "1011905", "name": "Indian glass barb", "thumb": "tn_Chlau_u0.jpg", "sprite": "sp-laubuka_laubuca.png", "group": "carp_minnow", "rarity": 1, "waterType": "Brackish"}, {"lat": 27.367, "lng": 83.4155, "id": "281072", "name": "Stinging catfish", "thumb": "tn_Hefos_u5.jpg", "sprite": "sp-blue_catfish.png", "group": "catfish", "rarity": 1, "waterType": "Brackish"}, {"lat": 28.0, "lng": 80.0, "id": "159563", "name": "Smooth-head scorpionfish", "thumb": "tn_Sccal_u0.jpg", "sprite": "sp-parascorpaena_moultoni.png", "group": "scorpionfish", "rarity": 1, "waterType": "Saltwater"}, {"lat": 31.3637, "lng": 83.7495, "id": "276134", "name": "Eastern mosquitofish", "thumb": "tn_Gahol_f0.jpg", "sprite": "sp-anchoviella_juruasanga.png", "group": "other", "rarity": 1, "waterType": "Brackish"}, {"lat": 28.0, "lng": 80.0, "id": "272824", "name": "Band cusk-eel", "thumb": "tn_Ophol_u1.jpg", "sprite": "sp-anchoviella_juruasanga.png", "group": "other", "rarity": 1, "waterType": "Saltwater"}, {"lat": 29.1007, "lng": 83.0769, "id": "158808", "name": "White grunt", "thumb": "tn_Haplu_u4.jpg", "sprite": "sp-anchoviella_juruasanga.png", "group": "other", "rarity": 1, "waterType": "Saltwater"}, {"lat": 29.5791, "lng": 81.6836, "id": "159335", "name": "Red drum", "thumb": "tn_Scoce_u0.jpg", "sprite": "sp-anchoviella_juruasanga.png", "group": "other", "rarity": 1, "waterType": "Brackish"}, {"lat": 27.6384, "lng": 83.4494, "id": "298263", "name": "Flying barb", "thumb": "tn_Esdan_u0.jpg", "sprite": "sp-enteromius.png", "group": "carp_minnow", "rarity": 1, "waterType": "Brackish"}, {"lat": 29.9458, "lng": 84.3372, "id": "158825", "name": "Gulf flounder", "thumb": "tn_Paalb_u9.jpg", "sprite": "sp-atlantic_halibut.png", "group": "flatfish", "rarity": 1, "waterType": "Saltwater"}, {"lat": 28.9067, "lng": 82.617, "id": "1023048", "name": "White catfish", "thumb": "tn_Amcat_u2.jpg", "sprite": "sp-blue_catfish.png", "group": "catfish", "rarity": 1, "waterType": "Brackish"}, {"lat": 29.1007, "lng": 83.0769, "id": "159312", "name": "Spotted weakfish", "thumb": "tn_Cyneb_u0.jpg", "sprite": "sp-anchoviella_juruasanga.png", "group": "other", "rarity": 1, "waterType": "Brackish"}, {"lat": 29.1007, "lng": 83.0769, "id": "159256", "name": "Atlantic needlefish", "thumb": "tn_Stmar_u5.jpg", "sprite": "sp-anchoviella_juruasanga.png", "group": "other", "rarity": 1, "waterType": "Brackish"}, {"lat": 27.7695, "lng": 80.5057, "id": "159753", "name": "Highfin goby", "thumb": "tn_Gooce_u0.jpg", "sprite": "sp-eviota_bipunctata.png", "group": "goby", "rarity": 1, "waterType": "Brackish"}, {"lat": 29.1007, "lng": 83.0769, "id": "159645", "name": "Leatherjacket", "thumb": "tn_Olsau_u2.jpg", "sprite": "sp-anchoviella_juruasanga.png", "group": "other", "rarity": 1, "waterType": "Brackish"}, {"lat": 29.0, "lng": 79.0, "id": "126473", "name": "Common Atlantic grenadier", "thumb": "tn_Neaeq_u0.jpg", "sprite": "sp-anchoviella_juruasanga.png", "group": "other", "rarity": 1, "waterType": "Saltwater"}, {"lat": 27.7695, "lng": 80.5057, "id": "159743", "name": "Lyre goby", "thumb": "tn_Evlyr_u0.jpg", "sprite": "sp-eviota_bipunctata.png", "group": "goby", "rarity": 1, "waterType": "Brackish"}, {"lat": 27.7941, "lng": 80.5074, "id": "280068", "name": "Common snook", "thumb": "tn_Ceund_u1.jpg", "sprite": "sp-anchoviella_juruasanga.png", "group": "other", "rarity": 1, "waterType": "Brackish"}, {"lat": 28.4888, "lng": 82.8345, "id": "159488", "name": "Striped burrfish", "thumb": "tn_Chsch_u8.jpg", "sprite": "sp-fahaka_pufferfish.png", "group": "pufferfish", "rarity": 1, "waterType": "Saltwater"}, {"lat": 27.7084, "lng": 84.0456, "id": "283170", "name": "Freshwater garfish", "thumb": "tn_Xecan_u3.jpg", "sprite": "sp-anchoviella_juruasanga.png", "group": "other", "rarity": 1, "waterType": "Brackish"}, {"lat": 28.29, "lng": 81.11, "id": "319960", "name": "Indian potasi", "thumb": "tn_Psath_u2.jpg", "sprite": "sp-blue_catfish.png", "group": "catfish", "rarity": 1, "waterType": "Brackish"}, {"lat": 28.891, "lng": 82.8637, "id": "159813", "name": "Northern sennet", "thumb": "tn_Spbor_u2.jpg", "sprite": "sp-sphyraena.png", "group": "barracuda", "rarity": 1, "waterType": "Saltwater"}, {"lat": 27.63, "lng": 82.6646, "id": "158713", "name": "Gafftopsail sea catfish", "thumb": "tn_Bamar_u7.jpg", "sprite": "sp-blue_catfish.png", "group": "catfish", "rarity": 1, "waterType": "Brackish"}, {"lat": 27.7288, "lng": 82.953, "id": "159350", "name": "Sand perch", "thumb": "tn_Difor_u2.jpg", "sprite": "sp-chelidoperca_santosi.png", "group": "grouper", "rarity": 1, "waterType": "Saltwater"}, {"lat": 29.1007, "lng": 83.0769, "id": "275213", "name": "Dwarf seahorse", "thumb": "tn_Hizos_f0.jpg", "sprite": "sp-cosmocampus_coccineus.png", "group": "seahorse", "rarity": 1, "waterType": "Saltwater"}, {"lat": 28.7547, "lng": 80.829, "id": "281291", "name": "Guntea loach", "thumb": "tn_Leann_u0.jpg", "sprite": "sp-anchoviella_juruasanga.png", "group": "other", "rarity": 1, "waterType": "Brackish"}, {"lat": 28.4888, "lng": 82.8345, "id": "158758", "name": "Inshore lizardfish", "thumb": "tn_Syfoe_u3.jpg", "sprite": "sp-anchoviella_juruasanga.png", "group": "other", "rarity": 1, "waterType": "Brackish"}, {"lat": 27.5031, "lng": 84.0028, "id": "282550", "name": "Slender rasbora", "thumb": "tn_Radan_u1.jpg", "sprite": "sp-enteromius.png", "group": "carp_minnow", "rarity": 1, "waterType": "Brackish"}, {"lat": 28.5683, "lng": 82.8793, "id": "159322", "name": "Spot croaker", "thumb": "tn_Lexan_u7.jpg", "sprite": "sp-anchoviella_juruasanga.png", "group": "other", "rarity": 1, "waterType": "Brackish"}, {"lat": 28.6486, "lng": 80.63, "id": "280129", "name": "Spotted snakehead", "thumb": "tn_Chpun_ul.jpg", "sprite": "sp-anchoviella_juruasanga.png", "group": "other", "rarity": 1, "waterType": "Brackish"}, {"lat": 27.7695, "lng": 80.5057, "id": "275348", "name": "Sailfin molly", "thumb": "tn_Polat_f1.jpg", "sprite": "sp-anchoviella_juruasanga.png", "group": "other", "rarity": 1, "waterType": "Brackish"}, {"lat": 28.6332, "lng": 81.2751, "id": "269582", "name": "Labeo", "sprite": "sp-enteromius.png", "group": "carp_minnow", "rarity": 1}, {"lat": 29.1007, "lng": 83.0769, "id": "159575", "name": "Leopard searobin", "thumb": "tn_Prsci_u3.jpg", "sprite": "sp-anchoviella_juruasanga.png", "group": "other", "rarity": 1, "waterType": "Saltwater"}, {"lat": 28.036, "lng": 82.6817, "id": "159308", "name": "Striped killifish", "thumb": "tn_Fumaj_f0.jpg", "sprite": "sp-anchoviella_juruasanga.png", "group": "other", "rarity": 1, "waterType": "Brackish"}, {"lat": 27.7695, "lng": 80.5057, "id": "280896", "name": "Bigmouth sleeper", "thumb": "tn_Godor_u6.jpg", "sprite": "sp-anchoviella_juruasanga.png", "group": "other", "rarity": 1, "waterType": "Brackish"}, {"lat": 31.1167, "lng": 81.4, "id": "158767", "name": "Striped cusk-eel", "thumb": "tn_Opmar_u0.jpg", "sprite": "sp-anchoviella_juruasanga.png", "group": "other", "rarity": 1, "waterType": "Saltwater"}, {"lat": 27.08, "lng": 79.32, "id": "123081", "name": "Crinoidea", "sprite": "sp-sea_cucumber.png", "group": "starfish", "rarity": 1}, {"lat": 28.0778, "lng": 83.945, "id": "269185", "name": "Garra", "sprite": "sp-enteromius.png", "group": "carp_minnow", "rarity": 1}, {"lat": 29.1007, "lng": 83.0769, "id": "159490", "name": "Orange filefish", "thumb": "tn_Alsch_u1.jpg", "sprite": "sp-anchoviella_juruasanga.png", "group": "other", "rarity": 1, "waterType": "Saltwater"}, {"lat": 27.7695, "lng": 80.5057, "id": "281204", "name": "Flagfish", "thumb": "tn_Joflo_u2.jpg", "sprite": "sp-anchoviella_juruasanga.png", "group": "other", "rarity": 1, "waterType": "Brackish"}, {"lat": 29.9185, "lng": 81.6073, "id": "158670", "name": "American shad", "thumb": "tn_Alsap_u0.jpg", "sprite": "sp-anchoviella_juruasanga.png", "group": "other", "rarity": 1, "waterType": "Brackish"}, {"lat": 28.4888, "lng": 82.8345, "id": "159249", "name": "Pinfish", "thumb": "tn_Larho_u1.jpg", "sprite": "sp-anchoviella_juruasanga.png", "group": "other", "rarity": 1, "waterType": "Brackish"}, {"lat": 27.9469, "lng": 82.4583, "id": "149151", "name": "Pseudo-nitzschia", "sprite": "sp-anchoviella_juruasanga.png", "group": "other", "rarity": 1}, {"lat": 27.7702, "lng": 83.2451, "id": "281481", "name": "Barred spiny eel", "thumb": "tn_Mapan_u0.jpg", "sprite": "sp-anchoviella_juruasanga.png", "group": "other", "rarity": 1, "waterType": "Brackish"}, {"lat": 28.0, "lng": 80.0, "id": "159348", "name": "Black seabass", "thumb": "tn_Cestr_u4.jpg", "sprite": "sp-chelidoperca_santosi.png", "group": "grouper", "rarity": 1, "waterType": "Saltwater"}, {"lat": 31.695, "lng": 79.2863, "id": "138167", "name": "Volvarina", "sprite": "sp-cowrie_shell.png", "group": "sea_snail", "rarity": 1}, {"lat": 27.5521, "lng": 84.1493, "id": "270668", "name": "Puntius", "sprite": "sp-enteromius.png", "group": "carp_minnow", "rarity": 1}, {"lat": 28.0, "lng": 80.0, "id": "159575", "name": "Leopard searobin", "thumb": "tn_Prsci_u3.jpg", "sprite": "sp-anchoviella_juruasanga.png", "group": "other", "rarity": 1, "waterType": "Saltwater"}, {"lat": 28.5727, "lng": 82.1553, "id": "281204", "name": "Flagfish", "thumb": "tn_Joflo_u2.jpg", "sprite": "sp-anchoviella_juruasanga.png", "group": "other", "rarity": 1, "waterType": "Brackish"}, {"lat": 27.8187, "lng": 80.5091, "id": "151158", "name": "Atlantic croaker", "thumb": "tn_Miund_u0.jpg", "sprite": "sp-anchoviella_juruasanga.png", "group": "other", "rarity": 1, "waterType": "Brackish"}, {"lat": 27.8218, "lng": 83.9207, "id": "280128", "name": "Walking snakehead", "thumb": "tn_Chori_u2.jpg", "sprite": "sp-anchoviella_juruasanga.png", "group": "other", "rarity": 1, "waterType": "Brackish"}, {"lat": 27.4641, "lng": 83.9584, "id": "219471", "name": "Tank goby", "thumb": "tn_Glgiu_u4.jpg", "sprite": "sp-eviota_bipunctata.png", "group": "goby", "rarity": 1, "waterType": "Brackish"}, {"lat": 27.4403, "lng": 83.9154, "id": "280139", "name": "Chela cachius", "thumb": "tn_Chcac_u0.jpg", "sprite": "sp-enteromius.png", "group": "carp_minnow", "rarity": 1, "waterType": "Brackish"}, {"lat": 29.1007, "lng": 83.0769, "id": "159577", "name": "Bighead searobin", "thumb": "tn_Prtri_u1.jpg", "sprite": "sp-anchoviella_juruasanga.png", "group": "other", "rarity": 1, "waterType": "Saltwater"}, {"lat": 27.7288, "lng": 82.953, "id": "282143", "name": "Cubbyu", "thumb": "tn_Paumb_u0.jpg", "sprite": "sp-anchoviella_juruasanga.png", "group": "other", "rarity": 1, "waterType": "Saltwater"}, {"lat": 27.8187, "lng": 80.5091, "id": "159335", "name": "Red drum", "thumb": "tn_Scoce_u0.jpg", "sprite": "sp-anchoviella_juruasanga.png", "group": "other", "rarity": 1, "waterType": "Brackish"}, {"lat": 27.4467, "lng": 80.3256, "id": "281260", "name": "Hairy blenny", "thumb": "tn_Lanuc_u0.jpg", "sprite": "sp-helcogramma_ascensionis.png", "group": "blenny", "rarity": 1, "waterType": "Saltwater"}, {"lat": 28.7574, "lng": 82.1036, "id": "281052", "name": "Least killifish", "thumb": "tn_Hefor_u3.jpg", "sprite": "sp-anchoviella_juruasanga.png", "group": "other", "rarity": 1, "waterType": "Brackish"}, {"lat": 31.7931, "lng": 82.9801, "id": "125715", "name": "Alosa", "sprite": "sp-anchoviella_juruasanga.png", "group": "other", "rarity": 1}, {"lat": 28.9918, "lng": 83.1086, "id": "273972", "name": "Spottail seabream", "thumb": "tn_Dihol_ug.jpg", "sprite": "sp-anchoviella_juruasanga.png", "group": "other", "rarity": 1, "waterType": "Brackish"}, {"lat": 28.368, "lng": 79.409, "id": "1605292", "name": "Labeo catla", "sprite": "sp-enteromius.png", "group": "carp_minnow", "rarity": 1}, {"lat": 27.7288, "lng": 82.953, "id": "158784", "name": "Atlantic midshipman", "thumb": "tn_Pople_u6.jpg", "sprite": "sp-anchoviella_juruasanga.png", "group": "other", "rarity": 1, "waterType": "Saltwater"}, {"lat": 28.9918, "lng": 83.1086, "id": "158510", "name": "Atlantic sharpnose shark", "thumb": "tn_Rhter_u0.jpg", "sprite": "sp-great_white_shark.png", "group": "shark", "rarity": 1, "waterType": "Brackish"}, {"lat": 28.4888, "lng": 82.8345, "id": "279493", "name": "Lined sole", "thumb": "tn_Aclin_u8.jpg", "sprite": "sp-atlantic_halibut.png", "group": "flatfish", "rarity": 1, "waterType": "Brackish"}, {"lat": 29.1007, "lng": 83.0769, "id": "158643", "name": "Speckled worm-eel", "thumb": "tn_Mypun_u4.jpg", "sprite": "sp-electric_eel.png", "group": "eel", "rarity": 1, "waterType": "Brackish"}, {"lat": 29.1007, "lng": 83.0769, "id": "159497", "name": "Fringed filefish", "thumb": "tn_Mocil_u2.jpg", "sprite": "sp-anchoviella_juruasanga.png", "group": "other", "rarity": 1, "waterType": "Saltwater"}, {"lat": 27.7288, "lng": 82.953, "id": "159298", "name": "Emerald parrotfish", "thumb": "tn_Niust_u2.jpg", "sprite": "sp-rainbow_parrotfish.png", "group": "parrotfish", "rarity": 1, "waterType": "Saltwater"}, {"lat": 28.29, "lng": 81.11, "id": "282514", "name": "Scarlet-banded barb", "thumb": "tn_Puamp_u0.jpg", "sprite": "sp-enteromius.png", "group": "carp_minnow", "rarity": 1, "waterType": "Brackish"}, {"lat": 27.4424, "lng": 83.8998, "id": "321753", "name": "Olive barb", "thumb": "tn_Pusar_f0.jpg", "sprite": "sp-enteromius.png", "group": "carp_minnow", "rarity": 1, "waterType": "Brackish"}]}