{"zoom": 6, "x": 46, "y": 34, "points": [{"lat": -11.8692, "lng": 79.4925, "id": "22626", "name": "Thaliacea", "sprite": "sp-anchoviella_juruasanga.png", "group": "other", "rarity": 1}, {"lat": -11.47, "lng": 80.0, "id": "104208", "name": "Labidocera", "sprite": "sp-anchoviella_juruasanga.png", "group": "other", "rarity": 1}, {"lat": -15.1, "lng": 82.93, "id": "5", "name": "Protozoa", "sprite": "sp-anchoviella_juruasanga.png", "group": "other", "rarity": 1}, {"lat": -15.1, "lng": 82.93, "id": "1806", "name": "Echinodermata", "sprite": "sp-sea_cucumber.png", "group": "starfish", "rarity": 1}, {"lat": -15.1, "lng": 82.93, "id": "104902", "name": "Branchiostoma", "sprite": "sp-anchoviella_juruasanga.png", "group": "other", "rarity": 1}, {"lat": -11.7767, "lng": 79.6267, "id": "1806", "name": "Echinodermata", "sprite": "sp-sea_cucumber.png", "group": "starfish", "rarity": 1}, {"lat": -11.7725, "lng": 79.6325, "id": "958", "name": "Tomopteridae", "sprite": "sp-anchoviella_juruasanga.png", "group": "other", "rarity": 1}, {"lat": -11.76, "lng": 79.65, "id": "1789", "name": "Phoronida", "sprite": "sp-anchoviella_juruasanga.png", "group": "other", "rarity": 1}, {"lat": -11.785, "lng": 79.615, "id": "799", "name": "Nematoda", "sprite": "sp-anchoviella_juruasanga.png", "group": "other", "rarity": 1}, {"lat": -14.73, "lng": 79.73, "id": "104211", "name": "Pontellopsis", "sprite": "sp-anchoviella_juruasanga.png", "group": "other", "rarity": 1}, {"lat": -11.785, "lng": 79.615, "id": "106794", "name": "Palinuridae", "sprite": "sp-american_lobster.png", "group": "crab_lobster", "rarity": 1}, {"lat": -12.73, "lng": 82.97, "id": "1648", "name": "Sipunculidae", "sprite": "sp-anchoviella_juruasanga.png", "group": "other", "rarity": 1}, {"lat": -14.73, "lng": 79.73, "id": "196874", "name": "Paraeuchaeta", "sprite": "sp-anchoviella_juruasanga.png", "group": "other", "rarity": 1}, {"lat": -12.73, "lng": 82.97, "id": "1371", "name": "Siphonophorae", "sprite": "sp-anchoviella_juruasanga.png", "group": "other", "rarity": 1}, {"lat": -15.1, "lng": 82.93, "id": "117200", "name": "Velella", "sprite": "sp-anchoviella_juruasanga.png", "group": "other", "rarity": 1}, {"lat": -15.1, "lng": 82.93, "id": "387338", "name": "Pterotracheoidea", "sprite": "sp-cowrie_shell.png", "group": "sea_snail", "rarity": 1}, {"lat": -12.73, "lng": 82.97, "id": "958", "name": "Tomopteridae", "sprite": "sp-anchoviella_juruasanga.png", "group": "other", "rarity": 1}, {"lat": -15.1, "lng": 82.93, "id": "196151", "name": "Eryonidae", "sprite": "sp-american_lobster.png", "group": "crab_lobster", "rarity": 1}, {"lat": -11.76, "lng": 79.65, "id": "391906", "name": "Tornaria", "sprite": "sp-anchoviella_juruasanga.png", "group": "other", "rarity": 1}, {"lat": -15.1, "lng": 82.93, "id": "164", "name": "Gymnosomata", "sprite": "sp-cowrie_shell.png", "group": "sea_snail", "rarity": 1}, {"lat": -11.47, "lng": 80.0, "id": "106422", "name": "Oithonidae", "sprite": "sp-anchoviella_juruasanga.png", "group": "other", "rarity": 1}, {"lat": -12.73, "lng": 82.97, "id": "558", "name": "Porifera", "sprite": "sp-barrel_sponge.png", "group": "sponge", "rarity": 1}, {"lat": -15.1, "lng": 82.93, "id": "135220", "name": "Scyphozoa", "sprite": "sp-box_jellyfish.png", "group": "jellyfish", "rarity": 1}, {"lat": -12.0, "lng": 79.0, "id": "128533", "name": "Umbellula thomsoni", "sprite": "sp-actiniidae.png", "group": "coral", "rarity": 1}, {"lat": -11.6633, "lng": 79.7667, "id": "266712", "name": "Aidanosagitta regularis", "sprite": "sp-anchoviella_juruasanga.png", "group": "other", "rarity": 1}, {"lat": -12.73, "lng": 82.97, "id": "2081", "name": "Chaetognatha", "sprite": "sp-anchoviella_juruasanga.png", "group": "other", "rarity": 1}, {"lat": -15.1, "lng": 82.93, "id": "137216", "name": "Pyrosomatidae", "sprite": "sp-anchoviella_juruasanga.png", "group": "other", "rarity": 1}, {"lat": -11.6633, "lng": 79.7667, "id": "105448", "name": "Sagitta bipunctata", "sprite": "sp-anchoviella_juruasanga.png", "group": "other", "rarity": 1}, {"lat": -11.785, "lng": 79.615, "id": "135382", "name": "Physalia", "sprite": "sp-anchoviella_juruasanga.png", "group": "other", "rarity": 1}, {"lat": -14.73, "lng": 79.73, "id": "104081", "name": "Centropagidae", "sprite": "sp-anchoviella_juruasanga.png", "group": "other", "rarity": 1}, {"lat": -11.47, "lng": 80.0, "id": "104087", "name": "Heterorhabdidae", "sprite": "sp-anchoviella_juruasanga.png", "group": "other", "rarity": 1}, {"lat": -14.73, "lng": 79.73, "id": "104187", "name": "Megacalanus", "sprite": "sp-anchoviella_juruasanga.png", "group": "other", "rarity": 1}, {"lat": -11.785, "lng": 79.615, "id": "1051", "name": "Cestoda", "sprite": "sp-anchoviella_juruasanga.png", "group": "other", "rarity": 1}, {"lat": -15.1, "lng": 82.93, "id": "146142", "name": "Bryozoa", "sprite": "sp-anchoviella_juruasanga.png", "group": "other", "rarity": 1}, {"lat": -11.6633, "lng": 79.7667, "id": "266247", "name": "Ferosagitta ferox", "sprite": "sp-anchoviella_juruasanga.png", "group": "other", "rarity": 1}, {"lat": -11.7725, "lng": 79.6325, "id": "14355", "name": "Stomatopoda", "sprite": "sp-american_lobster.png", "group": "crab_lobster", "rarity": 1}, {"lat": -11.7725, "lng": 79.6325, "id": "135220", "name": "Scyphozoa", "sprite": "sp-box_jellyfish.png", "group": "jellyfish", "rarity": 1}, {"lat": -12.73, "lng": 82.97, "id": "103353", "name": "Copelata", "sprite": "sp-anchoviella_juruasanga.png", "group": "other", "rarity": 1}, {"lat": -14.73, "lng": 79.73, "id": "11707", "name": "Cephalopoda", "sprite": "sp-giant_pacific_octopus.png", "group": "octopus_squid", "rarity": 1}, {"lat": -11.47, "lng": 80.0, "id": "104190", "name": "Metridia", "sprite": "sp-anchoviella_juruasanga.png", "group": "other", "rarity": 1}, {"lat": -11.785, "lng": 79.615, "id": "558", "name": "Porifera", "sprite": "sp-barrel_sponge.png", "group": "sponge", "rarity": 1}, {"lat": -15.1, "lng": 82.93, "id": "13703", "name": "Thecosomata", "sprite": "sp-cowrie_shell.png", "group": "sea_snail", "rarity": 1}, {"lat": -14.73, "lng": 79.73, "id": "146996", "name": "Leptostraca", "sprite": "sp-american_lobster.png", "group": "crab_lobster", "rarity": 1}, {"lat": -12.73, "lng": 82.97, "id": "2", "name": "Animalia", "sprite": "sp-anchoviella_juruasanga.png", "group": "other", "rarity": 1}, {"lat": -12.0, "lng": 79.0, "id": "183071", "name": "Columnella delicatissima", "sprite": "sp-anchoviella_juruasanga.png", "group": "other", "rarity": 1}, {"lat": -11.7725, "lng": 79.6325, "id": "106731", "name": "Sergestidae", "sprite": "sp-american_lobster.png", "group": "crab_lobster", "rarity": 1}, {"lat": -11.47, "lng": 80.0, "id": "104183", "name": "Lucicutia", "sprite": "sp-anchoviella_juruasanga.png", "group": "other", "rarity": 1}, {"lat": -11.76, "lng": 79.65, "id": "266888", "name": "Zonosagitta pulchra", "sprite": "sp-anchoviella_juruasanga.png", "group": "other", "rarity": 1}, {"lat": -14.73, "lng": 79.73, "id": "1137", "name": "Cumacea", "sprite": "sp-american_lobster.png", "group": "crab_lobster", "rarity": 1}, {"lat": -15.1, "lng": 82.93, "id": "562626", "name": "Ellobiopsidae", "sprite": "sp-anchoviella_juruasanga.png", "group": "other", "rarity": 1}, {"lat": -14.73, "lng": 79.73, "id": "266708", "name": "Aidanosagitta neglecta", "sprite": "sp-anchoviella_juruasanga.png", "group": "other", "rarity": 1}, {"lat": -14.73, "lng": 79.73, "id": "104207", "name": "Calanopia", "sprite": "sp-anchoviella_juruasanga.png", "group": "other", "rarity": 1}, {"lat": -12.73, "lng": 82.97, "id": "135382", "name": "Physalia", "sprite": "sp-anchoviella_juruasanga.png", "group": "other", "rarity": 1}, {"lat": -11.7725, "lng": 79.6325, "id": "104902", "name": "Branchiostoma", "sprite": "sp-anchoviella_juruasanga.png", "group": "other", "rarity": 1}, {"lat": -11.7767, "lng": 79.6267, "id": "5", "name": "Protozoa", "sprite": "sp-anchoviella_juruasanga.png", "group": "other", "rarity": 1}, {"lat": -14.73, "lng": 79.73, "id": "22990", "name": "Atlantidae", "sprite": "sp-cowrie_shell.png", "group": "sea_snail", "rarity": 1}, {"lat": -11.865, "lng": 79.4983, "id": "1337", "name": "Hydrozoa", "sprite": "sp-anchoviella_juruasanga.png", "group": "other", "rarity": 1}, {"lat": -11.7725, "lng": 79.6325, "id": "1248", "name": "Ctenophora", "sprite": "sp-anchoviella_juruasanga.png", "group": "other", "rarity": 1}, {"lat": -14.73, "lng": 79.73, "id": "1268", "name": "Sipuncula", "sprite": "sp-anchoviella_juruasanga.png", "group": "other", "rarity": 1}, {"lat": -12.73, "lng": 82.97, "id": "204105", "name": "Halobates", "sprite": "sp-anchoviella_juruasanga.png", "group": "other", "rarity": 1}, {"lat": -12.73, "lng": 82.97, "id": "1803", "name": "Brachiopoda", "sprite": "sp-anchoviella_juruasanga.png", "group": "other", "rarity": 1}, {"lat": -15.1, "lng": 82.93, "id": "1051", "name": "Cestoda", "sprite": "sp-anchoviella_juruasanga.png", "group": "other", "rarity": 1}, {"lat": -11.47, "lng": 80.0, "id": "128586", "name": "Oncaeidae", "sprite": "sp-anchoviella_juruasanga.png", "group": "other", "rarity": 1}, {"lat": -14.73, "lng": 79.73, "id": "105429", "name": "Krohnitta subtilis", "sprite": "sp-anchoviella_juruasanga.png", "group": "other", "rarity": 1}, {"lat": -11.76, "lng": 79.65, "id": "266249", "name": "Ferosagitta robusta", "sprite": "sp-anchoviella_juruasanga.png", "group": "other", "rarity": 1}, {"lat": -15.1, "lng": 82.93, "id": "152391", "name": "Nemertea", "sprite": "sp-anchoviella_juruasanga.png", "group": "other", "rarity": 1}, {"lat": -15.1, "lng": 82.93, "id": "1080", "name": "Copepoda", "sprite": "sp-anchoviella_juruasanga.png", "group": "other", "rarity": 1}, {"lat": -14.73, "lng": 79.73, "id": "106673", "name": "Brachyura", "sprite": "sp-american_lobster.png", "group": "crab_lobster", "rarity": 1}, {"lat": -11.7725, "lng": 79.6325, "id": "793", "name": "Platyhelminthes", "sprite": "sp-anchoviella_juruasanga.png", "group": "other", "rarity": 1}, {"lat": -14.73, "lng": 79.73, "id": "128569", "name": "Corycaeidae", "sprite": "sp-anchoviella_juruasanga.png", "group": "other", "rarity": 1}, {"lat": -11.76, "lng": 79.65, "id": "110671", "name": "Euphausiidae", "sprite": "sp-antarctic_krill.png", "group": "shrimp", "rarity": 1}, {"lat": -12.73, "lng": 82.97, "id": "11676", "name": "Pisces", "sprite": "sp-anchoviella_juruasanga.png", "group": "other", "rarity": 1}, {"lat": -14.73, "lng": 79.73, "id": "105", "name": "Bivalvia", "sprite": "sp-blue_mussel.png", "group": "clam_mussel", "rarity": 1}, {"lat": -15.1, "lng": 82.93, "id": "148378", "name": "Phoronidae", "sprite": "sp-anchoviella_juruasanga.png", "group": "other", "rarity": 1}, {"lat": -14.73, "lng": 79.73, "id": "152391", "name": "Nemertea", "sprite": "sp-anchoviella_juruasanga.png", "group": "other", "rarity": 1}, {"lat": -11.7725, "lng": 79.6325, "id": "204105", "name": "Halobates", "sprite": "sp-anchoviella_juruasanga.png", "group": "other", "rarity": 1}, {"lat": -14.73, "lng": 79.73, "id": "14355", "name": "Stomatopoda", "sprite": "sp-american_lobster.png", "group": "crab_lobster", "rarity": 1}, {"lat": -15.1, "lng": 82.93, "id": "1082", "name": "Cirripedia", "sprite": "sp-anchoviella_juruasanga.png", "group": "other", "rarity": 1}, {"lat": -12.73, "lng": 82.97, "id": "1078", "name": "Ostracoda", "sprite": "sp-anchoviella_juruasanga.png", "group": "other", "rarity": 1}, {"lat": -15.1, "lng": 82.93, "id": "1292", "name": "Anthozoa", "sprite": "sp-actiniidae.png", "group": "coral", "rarity": 1}, {"lat": -15.1, "lng": 82.93, "id": "106731", "name": "Sergestidae", "sprite": "sp-american_lobster.png", "group": "crab_lobster", "rarity": 1}, {"lat": -14.73, "lng": 79.73, "id": "117200", "name": "Velella", "sprite": "sp-anchoviella_juruasanga.png", "group": "other", "rarity": 1}, {"lat": -11.7725, "lng": 79.6325, "id": "1082", "name": "Cirripedia", "sprite": "sp-anchoviella_juruasanga.png", "group": "other", "rarity": 1}, {"lat": -12.73, "lng": 82.97, "id": "178738", "name": "[unassigned] Enteropneusta", "sprite": "sp-anchoviella_juruasanga.png", "group": "other", "rarity": 1}, {"lat": -14.7333, "lng": 79.7333, "id": "104347", "name": "Arietellus aculeatus", "sprite": "sp-anchoviella_juruasanga.png", "group": "other", "rarity": 1}, {"lat": -14.73, "lng": 79.73, "id": "105434", "name": "Flaccisagitta enflata", "sprite": "sp-anchoviella_juruasanga.png", "group": "other", "rarity": 1}, {"lat": -15.1, "lng": 82.93, "id": "106673", "name": "Brachyura", "sprite": "sp-american_lobster.png", "group": "crab_lobster", "rarity": 1}, {"lat": -14.73, "lng": 79.73, "id": "14260", "name": "Rotifera", "sprite": "sp-anchoviella_juruasanga.png", "group": "other", "rarity": 1}, {"lat": -11.6633, "lng": 79.7667, "id": "105430", "name": "Pterosagitta draco", "sprite": "sp-anchoviella_juruasanga.png", "group": "other", "rarity": 1}, {"lat": -11.47, "lng": 80.0, "id": "104080", "name": "Candaciidae", "sprite": "sp-anchoviella_juruasanga.png", "group": "other", "rarity": 1}, {"lat": -12.73, "lng": 82.97, "id": "1128", "name": "Euphausiacea", "sprite": "sp-antarctic_krill.png", "group": "shrimp", "rarity": 1}, {"lat": -11.7725, "lng": 79.6325, "id": "146420", "name": "Tunicata", "sprite": "sp-anchoviella_juruasanga.png", "group": "other", "rarity": 1}, {"lat": -14.73, "lng": 79.73, "id": "104193", "name": "Calocalanus", "sprite": "sp-anchoviella_juruasanga.png", "group": "other", "rarity": 1}, {"lat": -11.785, "lng": 79.615, "id": "1109", "name": "Rhizocephala", "sprite": "sp-anchoviella_juruasanga.png", "group": "other", "rarity": 1}, {"lat": -14.73, "lng": 79.73, "id": "137216", "name": "Pyrosomatidae", "sprite": "sp-anchoviella_juruasanga.png", "group": "other", "rarity": 1}, {"lat": -15.1, "lng": 82.93, "id": "883", "name": "Polychaeta", "sprite": "sp-anchoviella_juruasanga.png", "group": "other", "rarity": 1}, {"lat": -11.7725, "lng": 79.6325, "id": "106671", "name": "Anomura", "sprite": "sp-american_lobster.png", "group": "crab_lobster", "rarity": 1}, {"lat": -11.47, "lng": 80.0, "id": "104151", "name": "Calanoides", "sprite": "sp-anchoviella_juruasanga.png", "group": "other", "rarity": 1}, {"lat": -12.73, "lng": 82.97, "id": "146996", "name": "Leptostraca", "sprite": "sp-american_lobster.png", "group": "crab_lobster", "rarity": 1}, {"lat": -11.76, "lng": 79.65, "id": "105428", "name": "Krohnitta pacifica", "sprite": "sp-anchoviella_juruasanga.png", "group": "other", "rarity": 1}, {"lat": -11.7725, "lng": 79.6325, "id": "1133", "name": "Tanaidacea", "sprite": "sp-american_lobster.png", "group": "crab_lobster", "rarity": 1}, {"lat": -11.47, "lng": 80.0, "id": "1104", "name": "Siphonostomatoida", "sprite": "sp-anchoviella_juruasanga.png", "group": "other", "rarity": 1}, {"lat": -11.89, "lng": 79.4867, "id": "1128", "name": "Euphausiacea", "sprite": "sp-antarctic_krill.png", "group": "shrimp", "rarity": 1}, {"lat": -14.73, "lng": 79.73, "id": "104100", "name": "Pseudodiaptomidae", "sprite": "sp-anchoviella_juruasanga.png", "group": "other", "rarity": 1}, {"lat": -14.73, "lng": 79.73, "id": "266884", "name": "Zonosagitta bedoti", "sprite": "sp-anchoviella_juruasanga.png", "group": "other", "rarity": 1}, {"lat": -11.47, "lng": 80.0, "id": "104140", "name": "Haloptilus", "sprite": "sp-anchoviella_juruasanga.png", "group": "other", "rarity": 1}, {"lat": -15.1, "lng": 82.93, "id": "106671", "name": "Anomura", "sprite": "sp-american_lobster.png", "group": "crab_lobster", "rarity": 1}, {"lat": -14.73, "lng": 79.73, "id": "1648", "name": "Sipunculidae", "sprite": "sp-anchoviella_juruasanga.png", "group": "other", "rarity": 1}, {"lat": -14.73, "lng": 79.73, "id": "1100", "name": "Calanoida", "sprite": "sp-anchoviella_juruasanga.png", "group": "other", "rarity": 1}, {"lat": -11.47, "lng": 80.0, "id": "104074", "name": "Acartiidae", "sprite": "sp-anchoviella_juruasanga.png", "group": "other", "rarity": 1}, {"lat": -14.73, "lng": 79.73, "id": "325345", "name": "Pteropoda", "sprite": "sp-cowrie_shell.png", "group": "sea_snail", "rarity": 1}, {"lat": -15.1, "lng": 82.93, "id": "1109", "name": "Rhizocephala", "sprite": "sp-anchoviella_juruasanga.png", "group": "other", "rarity": 1}, {"lat": -14.73, "lng": 79.73, "id": "104077", "name": "Augaptilidae", "sprite": "sp-anchoviella_juruasanga.png", "group": "other", "rarity": 1}, {"lat": -14.73, "lng": 79.73, "id": "157683", "name": "Tortanus", "sprite": "sp-anchoviella_juruasanga.png", "group": "other", "rarity": 1}, {"lat": -12.73, "lng": 82.97, "id": "128595", "name": "Sapphirinidae", "sprite": "sp-anchoviella_juruasanga.png", "group": "other", "rarity": 1}, {"lat": -14.73, "lng": 79.73, "id": "196151", "name": "Eryonidae", "sprite": "sp-american_lobster.png", "group": "crab_lobster", "rarity": 1}, {"lat": -14.73, "lng": 79.73, "id": "1102", "name": "Harpacticoida", "sprite": "sp-anchoviella_juruasanga.png", "group": "other", "rarity": 1}, {"lat": -14.73, "lng": 79.73, "id": "105437", "name": "Mesosagitta minima", "sprite": "sp-anchoviella_juruasanga.png", "group": "other", "rarity": 1}, {"lat": -12.0, "lng": 79.0, "id": "158347", "name": "Acanthephyra acutifrons", "sprite": "sp-american_lobster.png", "group": "crab_lobster", "rarity": 1}, {"lat": -11.9425, "lng": 79.4225, "id": "101", "name": "Gastropoda", "sprite": "sp-cowrie_shell.png", "group": "sea_snail", "rarity": 1}]}