{"zoom": 6, "x": 50, "y": 29, "points": [{"lat": 12.6253, "lng": 101.7584, "id": "218520", "name": "Notchedfin threadfin bream", "thumb": "tn_Neper_u0.jpg", "sprite": "sp-anchoviella_juruasanga.png", "group": "other", "rarity": 1, "waterType": "Brackish"}, {"lat": 12.5787, "lng": 101.4545, "id": "204038", "name": "Gobiodon", "sprite": "sp-eviota_bipunctata.png", "group": "goby", "rarity": 1}, {"lat": 14.8862, "lng": 105.2659, "id": "269631", "name": "Lepidocephalichthys", "sprite": "sp-anchoviella_juruasanga.png", "group": "other", "rarity": 1}, {"lat": 16.0, "lng": 106.0, "id": "220948", "name": "Patelloida saccharina", "sprite": "sp-cowrie_shell.png", "group": "sea_snail", "rarity": 1}, {"lat": 12.6798, "lng": 101.2757, "id": "212050", "name": "Sawtooth barracuda", "thumb": "tn_Spput_u0.jpg", "sprite": "sp-sphyraena.png", "group": "barracuda", "rarity": 1, "waterType": "Saltwater"}, {"lat": 12.7395, "lng": 105.4877, "id": "268880", "name": "Crossocheilus", "sprite": "sp-enteromius.png", "group": "carp_minnow", "rarity": 1}, {"lat": 12.5648, "lng": 101.5758, "id": "712683", "name": "Rib-bar cardinalfish", "thumb": "tn_Apple_u2.jpg", "sprite": "sp-anchoviella_juruasanga.png", "group": "other", "rarity": 1, "waterType": "Saltwater"}, {"lat": 12.4176, "lng": 105.2837, "id": "271227", "name": "Xenentodon", "sprite": "sp-anchoviella_juruasanga.png", "group": "other", "rarity": 1}, {"lat": 15.1794, "lng": 104.7624, "id": "281912", "name": "Bengal eel", "thumb": "tn_Opben_u0.gif", "sprite": "sp-anchoviella_juruasanga.png", "group": "other", "rarity": 1, "waterType": "Brackish"}, {"lat": 12.43, "lng": 102.19, "id": "215141", "name": "Cerithidea obtusa", "sprite": "sp-cowrie_shell.png", "group": "sea_snail", "rarity": 1}, {"lat": 12.3652, "lng": 101.8865, "id": "275776", "name": "Tail-spot wrasse", "thumb": "tn_Hamel_m9.jpg", "sprite": "sp-cleaner_wrasse.png", "group": "wrasse", "rarity": 1, "waterType": "Saltwater"}, {"lat": 12.6017, "lng": 101.4672, "id": "283035", "name": "Silver tripodfish", "thumb": "tn_Trnie_u0.jpg", "sprite": "sp-anchoviella_juruasanga.png", "group": "other", "rarity": 1, "waterType": "Saltwater"}, {"lat": 12.6798, "lng": 101.2757, "id": "278122", "name": "Fork-tailed threadfin bream", "thumb": "tn_Nefur_u3.jpg", "sprite": "sp-anchoviella_juruasanga.png", "group": "other", "rarity": 1, "waterType": "Brackish"}, {"lat": 15.4817, "lng": 106.2255, "id": "154918", "name": "Fabriciidae", "sprite": "sp-anchoviella_juruasanga.png", "group": "other", "rarity": 1}, {"lat": 12.47, "lng": 101.45, "id": "284589", "name": "Eirene palkensis", "sprite": "sp-anchoviella_juruasanga.png", "group": "other", "rarity": 1}, {"lat": 12.3284, "lng": 101.2701, "id": "196127", "name": "Gonodactylidae", "sprite": "sp-american_lobster.png", "group": "crab_lobster", "rarity": 1}, {"lat": 12.0667, "lng": 104.6, "id": "441656", "name": "Phalangipus longipes", "sprite": "sp-american_lobster.png", "group": "crab_lobster", "rarity": 1}, {"lat": 12.6798, "lng": 101.2757, "id": "218396", "name": "Longnose trevally", "thumb": "tn_Cachr_u0.jpg", "sprite": "sp-anchoviella_juruasanga.png", "group": "other", "rarity": 1, "waterType": "Brackish"}, {"lat": 12.5897, "lng": 101.4175, "id": "219257", "name": "Filamentous blenny", "thumb": "tn_Cifil_u4.jpg", "sprite": "sp-helcogramma_ascensionis.png", "group": "blenny", "rarity": 1, "waterType": "Saltwater"}, {"lat": 12.4519, "lng": 101.7734, "id": "125185", "name": "Holothuria (Thymiosycia) impatiens", "sprite": "sp-sea_cucumber.png", "group": "starfish", "rarity": 1}, {"lat": 12.5131, "lng": 101.6604, "id": "212971", "name": "Whitetail damsel", "thumb": "tn_Pochr_u7.jpg", "sprite": "sp-chrysiptera_caesifrons.png", "group": "clownfish", "rarity": 1, "waterType": "Saltwater"}, {"lat": 12.6798, "lng": 101.2757, "id": "277829", "name": "Grey bambooshark", "thumb": "tn_Chgri_u0.jpg", "sprite": "sp-great_white_shark.png", "group": "shark", "rarity": 1, "waterType": "Brackish"}, {"lat": 13.3882, "lng": 103.797, "id": "279597", "name": "Climbing perch", "thumb": "tn_Antes_u5.jpg", "sprite": "sp-anchoviella_juruasanga.png", "group": "other", "rarity": 1, "waterType": "Brackish"}, {"lat": 11.76, "lng": 102.48, "id": "273922", "name": "Goldspotted spinefoot", "thumb": "tn_Sipun_ua.jpg", "sprite": "sp-anchoviella_juruasanga.png", "group": "other", "rarity": 1, "waterType": "Saltwater"}, {"lat": 11.9, "lng": 102.4, "id": "210812", "name": "Holothuria (Metriatyla) martensii", "sprite": "sp-sea_cucumber.png", "group": "starfish", "rarity": 1}, {"lat": 11.76, "lng": 102.48, "id": "218985", "name": "Checkerboard wrasse", "thumb": "tn_Hahor_u0.jpg", "sprite": "sp-cleaner_wrasse.png", "group": "wrasse", "rarity": 1, "waterType": "Saltwater"}, {"lat": 12.5072, "lng": 103.0691, "id": "269801", "name": "Mastacembelus", "sprite": "sp-anchoviella_juruasanga.png", "group": "other", "rarity": 1}, {"lat": 15.207, "lng": 105.4555, "id": "269801", "name": "Mastacembelus", "sprite": "sp-anchoviella_juruasanga.png", "group": "other", "rarity": 1}, {"lat": 15.3667, "lng": 106.1917, "id": "405191", "name": "Monotrete", "sprite": "sp-fahaka_pufferfish.png", "group": "pufferfish", "rarity": 1}, {"lat": 12.5272, "lng": 101.4461, "id": "205701", "name": "Salarias", "sprite": "sp-helcogramma_ascensionis.png", "group": "blenny", "rarity": 1}, {"lat": 11.76, "lng": 102.48, "id": "273927", "name": "Vermiculated spinefoot", "thumb": "tn_Siver_u7.jpg", "sprite": "sp-anchoviella_juruasanga.png", "group": "other", "rarity": 1, "waterType": "Brackish"}, {"lat": 12.3667, "lng": 101.25, "id": "344048", "name": "Hydrophis atriceps", "sprite": "sp-banded_sea_krait.png", "group": "sea_snake", "rarity": 1}, {"lat": 13.2997, "lng": 103.7531, "id": "270668", "name": "Puntius", "sprite": "sp-enteromius.png", "group": "carp_minnow", "rarity": 1}, {"lat": 11.3333, "lng": 103.0, "id": "205008", "name": "Otolithes", "sprite": "sp-anchoviella_juruasanga.png", "group": "other", "rarity": 1}, {"lat": 12.075, "lng": 102.37, "id": "297603", "name": "Pseudogobiopsis", "sprite": "sp-eviota_bipunctata.png", "group": "goby", "rarity": 1}, {"lat": 16.0, "lng": 106.0, "id": "437217", "name": "Scutus antipodes", "sprite": "sp-cowrie_shell.png", "group": "sea_snail", "rarity": 1}, {"lat": 12.0, "lng": 102.383, "id": "391040", "name": "Coralichlamys madreporarum", "sprite": "sp-blue_mussel.png", "group": "clam_mussel", "rarity": 1}, {"lat": 12.575, "lng": 101.904, "id": "208528", "name": "Gafrarium tumidum", "sprite": "sp-blue_mussel.png", "group": "clam_mussel", "rarity": 1}, {"lat": 12.5519, "lng": 101.4485, "id": "126044", "name": "Abudefduf", "sprite": "sp-chrysiptera_caesifrons.png", "group": "clownfish", "rarity": 1}, {"lat": 12.4981, "lng": 101.6862, "id": "218350", "name": "Jarbua terapon", "thumb": "tn_Tejar_u0.jpg", "sprite": "sp-anchoviella_juruasanga.png", "group": "other", "rarity": 1, "waterType": "Brackish"}, {"lat": 13.1453, "lng": 103.4004, "id": "154813", "name": "Acantopsis", "sprite": "sp-anchoviella_juruasanga.png", "group": "other", "rarity": 1}, {"lat": 12.2665, "lng": 104.7165, "id": "283020", "name": "Spotted archerfish", "thumb": "tn_Tocha_u2.jpg", "sprite": "sp-anchoviella_juruasanga.png", "group": "other", "rarity": 1, "waterType": "Brackish"}, {"lat": 15.5694, "lng": 102.4667, "id": "154175", "name": "Cobitinae", "sprite": "sp-anchoviella_juruasanga.png", "group": "other", "rarity": 1}, {"lat": 11.6164, "lng": 104.8954, "id": "125649", "name": "Pisodonophis", "sprite": "sp-electric_eel.png", "group": "eel", "rarity": 1}, {"lat": 12.1858, "lng": 102.0847, "id": "219377", "name": "Nocturn goby", "thumb": "tn_Amnoc_u5.jpg", "sprite": "sp-eviota_bipunctata.png", "group": "goby", "rarity": 1, "waterType": "Saltwater"}, {"lat": 11.8816, "lng": 102.4048, "id": "210772", "name": "Pearsonothuria graeffei", "sprite": "sp-sea_cucumber.png", "group": "starfish", "rarity": 1}, {"lat": 14.1113, "lng": 105.8167, "id": "327292", "name": "Brandtika asiatica", "sprite": "sp-anchoviella_juruasanga.png", "group": "other", "rarity": 1}, {"lat": 15.0965, "lng": 105.1456, "id": "270668", "name": "Puntius", "sprite": "sp-enteromius.png", "group": "carp_minnow", "rarity": 1}, {"lat": 12.5574, "lng": 101.4299, "id": "125553", "name": "Pomacentridae", "sprite": "sp-chrysiptera_caesifrons.png", "group": "clownfish", "rarity": 1}, {"lat": 12.5, "lng": 104.0, "id": "154163", "name": "Cyprinidae", "sprite": "sp-enteromius.png", "group": "carp_minnow", "rarity": 1}, {"lat": 12.7905, "lng": 105.5421, "id": "270697", "name": "Rasbora", "sprite": "sp-enteromius.png", "group": "carp_minnow", "rarity": 1}, {"lat": 12.4064, "lng": 101.7053, "id": "219014", "name": "Bluestreak cleaner wrasse", "thumb": "tn_Ladim_u2.jpg", "sprite": "sp-cleaner_wrasse.png", "group": "wrasse", "rarity": 1, "waterType": "Saltwater"}, {"lat": 12.2772, "lng": 102.027, "id": "218912", "name": "Blackspot threadfin", "thumb": "tn_Posex_u6.jpg", "sprite": "sp-anchoviella_juruasanga.png", "group": "other", "rarity": 1, "waterType": "Brackish"}, {"lat": 13.3125, "lng": 103.5542, "id": "270558", "name": "Pseudambassis", "sprite": "sp-anchoviella_juruasanga.png", "group": "other", "rarity": 1}, {"lat": 11.7277, "lng": 102.2613, "id": "135652", "name": "Pseudocycnus", "sprite": "sp-anchoviella_juruasanga.png", "group": "other", "rarity": 1}, {"lat": 12.4226, "lng": 102.1661, "id": "219528", "name": "Maned goby", "thumb": "tn_Oxmic_u3.jpg", "sprite": "sp-eviota_bipunctata.png", "group": "goby", "rarity": 1, "waterType": "Brackish"}, {"lat": 12.5736, "lng": 101.4628, "id": "212042", "name": "Unicolor snake moray", "thumb": "tn_Urcon_u1.jpg", "sprite": "sp-anarchias.png", "group": "moray", "rarity": 1, "waterType": "Brackish"}, {"lat": 11.8042, "lng": 102.4856, "id": "713750", "name": "Eugnathogobius illotus", "thumb": "tn_Caill_u0.jpg", "sprite": "sp-eviota_bipunctata.png", "group": "goby", "rarity": 1, "waterType": "Brackish"}, {"lat": 13.0119, "lng": 105.3235, "id": "268682", "name": "Cephalocassis", "sprite": "sp-blue_catfish.png", "group": "catfish", "rarity": 1}, {"lat": 11.9375, "lng": 104.789, "id": "126112", "name": "Cynoglossus", "sprite": "sp-atlantic_halibut.png", "group": "flatfish", "rarity": 1}, {"lat": 11.3333, "lng": 103.0, "id": "126166", "name": "Platycephalus", "sprite": "sp-anchoviella_juruasanga.png", "group": "other", "rarity": 1}, {"lat": 12.1793, "lng": 101.9994, "id": "212812", "name": "Black-axil chromis", "thumb": "tn_Chatr_uh.jpg", "sprite": "sp-chrysiptera_caesifrons.png", "group": "clownfish", "rarity": 1, "waterType": "Saltwater"}, {"lat": 15.397, "lng": 102.6091, "id": "269935", "name": "Mystus", "sprite": "sp-blue_catfish.png", "group": "catfish", "rarity": 1}, {"lat": 12.5982, "lng": 101.349, "id": "218533", "name": "Deep-bodied mojarra", "thumb": "tn_Geery_u2.jpg", "sprite": "sp-anchoviella_juruasanga.png", "group": "other", "rarity": 1, "waterType": "Brackish"}, {"lat": 15.5768, "lng": 102.6876, "id": "1433068", "name": "Leiocanthus", "sprite": "sp-anchoviella_juruasanga.png", "group": "other", "rarity": 1}, {"lat": 16.0, "lng": 106.0, "id": "139067", "name": "Clypeomorus bifasciata", "sprite": "sp-cowrie_shell.png", "group": "sea_snail", "rarity": 1}, {"lat": 12.6167, "lng": 101.7, "id": "289206", "name": "Platygyra ryukyuensis", "sprite": "sp-actiniidae.png", "group": "coral", "rarity": 1}, {"lat": 11.3917, "lng": 102.3167, "id": "280757", "name": "Winghead shark", "thumb": "tn_Eublo_f0.jpg", "sprite": "sp-great_white_shark.png", "group": "shark", "rarity": 1, "waterType": "Brackish"}, {"lat": 12.434, "lng": 101.903, "id": "275758", "name": "Pastel-green wrasse", "thumb": "tn_Hachl_u7.jpg", "sprite": "sp-cleaner_wrasse.png", "group": "wrasse", "rarity": 1, "waterType": "Saltwater"}, {"lat": 15.225, "lng": 104.8533, "id": "1605292", "name": "Labeo catla", "sprite": "sp-enteromius.png", "group": "carp_minnow", "rarity": 1}, {"lat": 14.1083, "lng": 105.8583, "id": "279922", "name": "Boeseman croaker", "thumb": "tn_Bomic_u1.jpg", "sprite": "sp-anchoviella_juruasanga.png", "group": "other", "rarity": 1, "waterType": "Brackish"}, {"lat": 13.2497, "lng": 103.8204, "id": "279922", "name": "Boeseman croaker", "thumb": "tn_Bomic_u1.jpg", "sprite": "sp-anchoviella_juruasanga.png", "group": "other", "rarity": 1, "waterType": "Brackish"}, {"lat": 12.0667, "lng": 104.6, "id": "210730", "name": "Millepora platyphylla", "sprite": "sp-anchoviella_juruasanga.png", "group": "other", "rarity": 1}, {"lat": 15.6055, "lng": 102.7272, "id": "269768", "name": "Macrognathus", "sprite": "sp-anchoviella_juruasanga.png", "group": "other", "rarity": 1}, {"lat": 12.6222, "lng": 101.5013, "id": "212277", "name": "Goldstripe sardinella", "thumb": "tn_Sagib_u2.jpg", "sprite": "sp-anchoviella_juruasanga.png", "group": "other", "rarity": 1, "waterType": "Saltwater"}, {"lat": 12.2528, "lng": 102.1744, "id": "125538", "name": "Haemulidae", "sprite": "sp-anchoviella_juruasanga.png", "group": "other", "rarity": 1}, {"lat": 12.7222, "lng": 105.1998, "id": "269579", "name": "Kryptopterus", "sprite": "sp-blue_catfish.png", "group": "catfish", "rarity": 1}, {"lat": 15.408, "lng": 105.4556, "id": "405154", "name": "Pseudolais", "sprite": "sp-blue_catfish.png", "group": "catfish", "rarity": 1}, {"lat": 12.1771, "lng": 104.8028, "id": "154199", "name": "Siluridae", "sprite": "sp-blue_catfish.png", "group": "catfish", "rarity": 1}, {"lat": 13.1948, "lng": 105.8988, "id": "268476", "name": "Bagarius", "sprite": "sp-blue_catfish.png", "group": "catfish", "rarity": 1}, {"lat": 12.594, "lng": 101.3457, "id": "217970", "name": "Grooved razor-fish", "thumb": "tn_Cescu_u4.jpg", "sprite": "sp-anchoviella_juruasanga.png", "group": "other", "rarity": 1, "waterType": "Brackish"}, {"lat": 11.76, "lng": 102.48, "id": "278334", "name": "Pink-speckled shrimpgoby", "thumb": "tn_Crlep_u3.jpg", "sprite": "sp-eviota_bipunctata.png", "group": "goby", "rarity": 1, "waterType": "Saltwater"}, {"lat": 12.5665, "lng": 101.4609, "id": "206732", "name": "Cephalopholis", "sprite": "sp-chelidoperca_santosi.png", "group": "grouper", "rarity": 1}, {"lat": 12.5313, "lng": 102.0518, "id": "274311", "name": "Ovate sole", "thumb": "tn_Soova_u1.jpg", "sprite": "sp-atlantic_halibut.png", "group": "flatfish", "rarity": 1, "waterType": "Saltwater"}, {"lat": 12.25, "lng": 102.1167, "id": "278822", "name": "Japanese sleeper ray", "thumb": "tn_Najap_u0.jpg", "sprite": "sp-himantura_australis.png", "group": "ray", "rarity": 1, "waterType": "Saltwater"}, {"lat": 12.6017, "lng": 101.4672, "id": "398533", "name": "Nuchequula longicornis", "sprite": "sp-anchoviella_juruasanga.png", "group": "other", "rarity": 1, "waterType": "Saltwater"}, {"lat": 16.0, "lng": 106.0, "id": "397022", "name": "Batillaria zonalis", "sprite": "sp-cowrie_shell.png", "group": "sea_snail", "rarity": 1}, {"lat": 11.844, "lng": 102.4306, "id": "345843", "name": "Great barracuda", "thumb": "tn_Spbar_ud.jpg", "sprite": "sp-sphyraena.png", "group": "barracuda", "rarity": 1, "waterType": "Brackish"}, {"lat": 12.6222, "lng": 101.4338, "id": "159496", "name": "Monacanthus", "sprite": "sp-anchoviella_juruasanga.png", "group": "other", "rarity": 1}, {"lat": 14.0522, "lng": 101.3728, "id": "205060", "name": "Zenarchopterus", "sprite": "sp-anchoviella_juruasanga.png", "group": "other", "rarity": 1}, {"lat": 12.416, "lng": 102.083, "id": "243538", "name": "Ophiocentrus verticillatus", "sprite": "sp-sea_cucumber.png", "group": "starfish", "rarity": 1}, {"lat": 12.2876, "lng": 101.9568, "id": "210914", "name": "Stichopus horrens", "sprite": "sp-sea_cucumber.png", "group": "starfish", "rarity": 1}, {"lat": 12.0667, "lng": 104.6, "id": "514807", "name": "Alpheus acutocarinatus", "sprite": "sp-american_lobster.png", "group": "crab_lobster", "rarity": 1}, {"lat": 12.8403, "lng": 102.934, "id": "281017", "name": "Asian redtail catfish", "thumb": "tn_Mynem_u0.jpg", "sprite": "sp-blue_catfish.png", "group": "catfish", "rarity": 1, "waterType": "Brackish"}, {"lat": 13.5167, "lng": 105.9667, "id": "268299", "name": "Anabas", "sprite": "sp-anchoviella_juruasanga.png", "group": "other", "rarity": 1}, {"lat": 12.1643, "lng": 101.927, "id": "206059", "name": "Lethrinus", "sprite": "sp-anchoviella_juruasanga.png", "group": "other", "rarity": 1}, {"lat": 12.6798, "lng": 101.2757, "id": "278347", "name": "Cryptocentrus wehrlei", "sprite": "sp-eviota_bipunctata.png", "group": "goby", "rarity": 1, "waterType": "Brackish"}, {"lat": 12.8275, "lng": 104.1157, "id": "268956", "name": "Datnioides", "sprite": "sp-anchoviella_juruasanga.png", "group": "other", "rarity": 1}, {"lat": 13.5551, "lng": 106.2229, "id": "281942", "name": "Giant gourami", "thumb": "tn_Osgor_u9.jpg", "sprite": "sp-anchoviella_juruasanga.png", "group": "other", "rarity": 1, "waterType": "Brackish"}, {"lat": 12.5889, "lng": 101.5128, "id": "277717", "name": "Allenbatrachus reticulatus", "thumb": "tn_Alret_u0.gif", "sprite": "sp-anchoviella_juruasanga.png", "group": "other", "rarity": 1, "waterType": "Brackish"}, {"lat": 14.7833, "lng": 102.2, "id": "281014", "name": "Hemibagrus filamentus", "thumb": "tn_Hefil_u0.gif", "sprite": "sp-blue_catfish.png", "group": "catfish", "rarity": 1, "waterType": "Brackish"}, {"lat": 12.6224, "lng": 101.6627, "id": "203910", "name": "Glossogobius", "sprite": "sp-eviota_bipunctata.png", "group": "goby", "rarity": 1}, {"lat": 12.5656, "lng": 101.4486, "id": "125915", "name": "Blennius", "sprite": "sp-helcogramma_ascensionis.png", "group": "blenny", "rarity": 1}, {"lat": 12.6211, "lng": 101.3975, "id": "272192", "name": "Quoy's garfish", "thumb": "tn_Hyquo_u0.jpg", "sprite": "sp-anchoviella_juruasanga.png", "group": "other", "rarity": 1, "waterType": "Brackish"}, {"lat": 12.6412, "lng": 101.4317, "id": "282210", "name": "Butterfly whiptail", "thumb": "tn_Peset_u1.jpg", "sprite": "sp-anchoviella_juruasanga.png", "group": "other", "rarity": 1, "waterType": "Saltwater"}, {"lat": 12.0137, "lng": 101.5213, "id": "218159", "name": "Dactyloptena gilberti", "thumb": "tn_Dagil_u4.jpg", "sprite": "sp-anchoviella_juruasanga.png", "group": "other", "rarity": 1, "waterType": "Saltwater"}, {"lat": 12.528, "lng": 101.6295, "id": "276241", "name": "Coastal trevally", "thumb": "tn_Cacoe_u0.jpg", "sprite": "sp-anchoviella_juruasanga.png", "group": "other", "rarity": 1, "waterType": "Saltwater"}, {"lat": 16.1779, "lng": 102.4018, "id": "281881", "name": "Butter catfish", "thumb": "tn_Ombim_u5.jpg", "sprite": "sp-blue_catfish.png", "group": "catfish", "rarity": 1, "waterType": "Brackish"}, {"lat": 12.6269, "lng": 101.3419, "id": "218218", "name": "Brown-marbled grouper", "thumb": "tn_Epfus_u0.jpg", "sprite": "sp-chelidoperca_santosi.png", "group": "grouper", "rarity": 1, "waterType": "Saltwater"}, {"lat": 15.2137, "lng": 104.8141, "id": "283161", "name": "Wallago", "thumb": "tn_Waatt_u1.jpg", "sprite": "sp-blue_catfish.png", "group": "catfish", "rarity": 1, "waterType": "Brackish"}, {"lat": 14.9059, "lng": 101.9945, "id": "268714", "name": "Channa", "sprite": "sp-anchoviella_juruasanga.png", "group": "other", "rarity": 1}, {"lat": 12.0667, "lng": 104.6, "id": "442390", "name": "Zebrida adamsii", "sprite": "sp-american_lobster.png", "group": "crab_lobster", "rarity": 1}, {"lat": 16.0, "lng": 106.0, "id": "448487", "name": "Peristernia ustulata", "sprite": "sp-cowrie_shell.png", "group": "sea_snail", "rarity": 1}, {"lat": 12.5373, "lng": 101.3473, "id": "126240", "name": "Lagocephalus", "sprite": "sp-fahaka_pufferfish.png", "group": "pufferfish", "rarity": 1}, {"lat": 12.283, "lng": 104.683, "id": "125465", "name": "Engraulidae", "sprite": "sp-anchoviella_juruasanga.png", "group": "anchovy", "rarity": 1}, {"lat": 12.6556, "lng": 101.26, "id": "278240", "name": "Tuberculated flathead", "thumb": "tn_Rotub_u2.jpg", "sprite": "sp-anchoviella_juruasanga.png", "group": "other", "rarity": 1, "waterType": "Saltwater"}, {"lat": 12.6282, "lng": 101.4376, "id": "208396", "name": "Oliva oliva", "sprite": "sp-cowrie_shell.png", "group": "sea_snail", "rarity": 1}, {"lat": 12.0333, "lng": 103.0833, "id": "141694", "name": "Tremoctopus violaceus", "sprite": "sp-giant_pacific_octopus.png", "group": "octopus_squid", "rarity": 1}, {"lat": 12.314, "lng": 102.0135, "id": "125685", "name": "Saurida", "sprite": "sp-anchoviella_juruasanga.png", "group": "other", "rarity": 1}, {"lat": 12.1793, "lng": 101.9994, "id": "280136", "name": "Big-lip damsel", "thumb": "tn_Chlab_u0.jpg", "sprite": "sp-chrysiptera_caesifrons.png", "group": "clownfish", "rarity": 1, "waterType": "Saltwater"}]}