{"zoom": 6, "x": 51, "y": 33, "points": [{"lat": -10.1926, "lng": 110.3113, "id": "1648", "name": "Sipunculidae", "sprite": "sp-anchoviella_juruasanga.png", "group": "other", "rarity": 1}, {"lat": -5.875, "lng": 110.4278, "id": "209326", "name": "Ruby cardinalfish", "thumb": "tn_Apcoc_u1.jpg", "sprite": "sp-anchoviella_juruasanga.png", "group": "other", "rarity": 1, "waterType": "Saltwater"}, {"lat": -10.0, "lng": 107.5, "id": "273536", "name": "Splitlevel hogfish", "thumb": "tn_Bomes_u5.jpg", "sprite": "sp-cleaner_wrasse.png", "group": "wrasse", "rarity": 1, "waterType": "Saltwater"}, {"lat": -10.0, "lng": 107.5, "id": "212209", "name": "Moon wrasse", "thumb": "tn_Thlun_m0.jpg", "sprite": "sp-cleaner_wrasse.png", "group": "wrasse", "rarity": 1, "waterType": "Saltwater"}, {"lat": -7.5, "lng": 110.0, "id": "437429", "name": "Nodilittorina pyramidalis", "sprite": "sp-cowrie_shell.png", "group": "sea_snail", "rarity": 1}, {"lat": -5.8898, "lng": 110.4037, "id": "210873", "name": "Holothuria (Stauropora) fuscocinerea", "sprite": "sp-sea_cucumber.png", "group": "starfish", "rarity": 1}, {"lat": -6.967, "lng": 110.483, "id": "281755", "name": "Soldier croaker", "thumb": "tn_Nisol_u2.jpg", "sprite": "sp-anchoviella_juruasanga.png", "group": "other", "rarity": 1, "waterType": "Brackish"}, {"lat": -10.1787, "lng": 110.407, "id": "106794", "name": "Palinuridae", "sprite": "sp-american_lobster.png", "group": "crab_lobster", "rarity": 1}, {"lat": -5.8564, "lng": 110.4382, "id": "218217", "name": "White-streaked grouper", "thumb": "tn_Epong_u0.jpg", "sprite": "sp-chelidoperca_santosi.png", "group": "grouper", "rarity": 1, "waterType": "Brackish"}, {"lat": -8.667, "lng": 110.35, "id": "104580", "name": "Heterorhabdus papilliger", "sprite": "sp-anchoviella_juruasanga.png", "group": "other", "rarity": 1}, {"lat": -8.667, "lng": 110.35, "id": "847452", "name": "Eucalanus elongatus elongatus", "sprite": "sp-anchoviella_juruasanga.png", "group": "other", "rarity": 1}, {"lat": -10.0, "lng": 107.5, "id": "275182", "name": "Big-belly seahorse", "thumb": "tn_Hiabd_f0.jpg", "sprite": "sp-cosmocampus_coccineus.png", "group": "seahorse", "rarity": 1, "waterType": "Brackish"}, {"lat": -8.667, "lng": 110.35, "id": "346476", "name": "Farranula concinna", "sprite": "sp-anchoviella_juruasanga.png", "group": "other", "rarity": 1}, {"lat": -5.8167, "lng": 110.4, "id": "1048073", "name": "Fimbriaphyllia ancora", "sprite": "sp-actiniidae.png", "group": "coral", "rarity": 1}, {"lat": -8.667, "lng": 110.35, "id": "104466", "name": "Calanus helgolandicus", "sprite": "sp-anchoviella_juruasanga.png", "group": "other", "rarity": 1}, {"lat": -8.0083, "lng": 109.0, "id": "1026410", "name": "Globoconella inflata", "sprite": "sp-anchoviella_juruasanga.png", "group": "other", "rarity": 1}, {"lat": -9.3, "lng": 108.11, "id": "231799", "name": "Lingulodinium", "sprite": "sp-anchoviella_juruasanga.png", "group": "other", "rarity": 1}, {"lat": -10.0, "lng": 107.5, "id": "218972", "name": "Sling-jaw wrasse", "thumb": "tn_Epins_u6.jpg", "sprite": "sp-cleaner_wrasse.png", "group": "wrasse", "rarity": 1, "waterType": "Saltwater"}, {"lat": -5.875, "lng": 110.4278, "id": "277513", "name": "Dotted cardinalfish", "thumb": "tn_Foiso_u0.jpg", "sprite": "sp-anchoviella_juruasanga.png", "group": "other", "rarity": 1, "waterType": "Saltwater"}, {"lat": -10.75, "lng": 109.9013, "id": "103367", "name": "Oikopleura", "sprite": "sp-anchoviella_juruasanga.png", "group": "other", "rarity": 1}, {"lat": -5.8806, "lng": 110.4111, "id": "206069", "name": "Amblygobius", "sprite": "sp-eviota_bipunctata.png", "group": "goby", "rarity": 1}, {"lat": -10.1124, "lng": 110.2673, "id": "1292", "name": "Anthozoa", "sprite": "sp-actiniidae.png", "group": "coral", "rarity": 1}, {"lat": -10.2914, "lng": 108.7129, "id": "1789", "name": "Phoronida", "sprite": "sp-anchoviella_juruasanga.png", "group": "other", "rarity": 1}, {"lat": -7.667, "lng": 109.0, "id": "105792", "name": "Bull shark", "thumb": "tn_Caleu_u1.jpg", "sprite": "sp-great_white_shark.png", "group": "shark", "rarity": 1, "waterType": "Brackish"}, {"lat": -5.8806, "lng": 110.4111, "id": "283229", "name": "Pearly cardinalfish", "thumb": "tn_Zoper_u0.jpg", "sprite": "sp-anchoviella_juruasanga.png", "group": "other", "rarity": 1, "waterType": "Saltwater"}, {"lat": -8.3111, "lng": 111.7047, "id": "955319", "name": "Tubuca paradussumieri", "sprite": "sp-american_lobster.png", "group": "crab_lobster", "rarity": 1}, {"lat": -5.8192, "lng": 110.459, "id": "218193", "name": "Humpback grouper", "thumb": "tn_Cralt_u1.jpg", "sprite": "sp-chelidoperca_santosi.png", "group": "grouper", "rarity": 1, "waterType": "Saltwater"}, {"lat": -5.8708, "lng": 110.4305, "id": "1577313", "name": "Amblyglyphidodon batunaorum", "sprite": "sp-chrysiptera_caesifrons.png", "group": "clownfish", "rarity": 1}, {"lat": -8.667, "lng": 110.35, "id": "104669", "name": "Calocalanus pavo", "sprite": "sp-anchoviella_juruasanga.png", "group": "other", "rarity": 1}, {"lat": -7.7799, "lng": 107.3956, "id": "387762", "name": "Euthria javanica", "sprite": "sp-cowrie_shell.png", "group": "sea_snail", "rarity": 1}, {"lat": -5.875, "lng": 110.4278, "id": "712687", "name": "Seale's cardinalfish", "thumb": "tn_Ossea_u0.jpg", "sprite": "sp-anchoviella_juruasanga.png", "group": "other", "rarity": 1, "waterType": "Saltwater"}, {"lat": -8.2167, "lng": 111.0667, "id": "1536400", "name": "Cirrhimuraena indica", "sprite": "sp-electric_eel.png", "group": "eel", "rarity": 1}, {"lat": -10.2078, "lng": 108.6378, "id": "958", "name": "Tomopteridae", "sprite": "sp-anchoviella_juruasanga.png", "group": "other", "rarity": 1}, {"lat": -10.1683, "lng": 110.3057, "id": "106673", "name": "Brachyura", "sprite": "sp-american_lobster.png", "group": "crab_lobster", "rarity": 1}, {"lat": -10.193, "lng": 108.489, "id": "2", "name": "Animalia", "sprite": "sp-anchoviella_juruasanga.png", "group": "other", "rarity": 1}, {"lat": -10.5, "lng": 110.0, "id": "161473", "name": "Siriella gracilis", "sprite": "sp-american_lobster.png", "group": "crab_lobster", "rarity": 1}, {"lat": -10.0, "lng": 107.5, "id": "276851", "name": "Halfmoon triggerfish", "thumb": "tn_Suchr_u5.jpg", "sprite": "sp-balistidae.png", "group": "triggerfish", "rarity": 1, "waterType": "Saltwater"}, {"lat": -10.1403, "lng": 110.335, "id": "101", "name": "Gastropoda", "sprite": "sp-cowrie_shell.png", "group": "sea_snail", "rarity": 1}, {"lat": -7.4917, "lng": 110.0044, "id": "620717", "name": "Isthmia minima", "sprite": "sp-anchoviella_juruasanga.png", "group": "other", "rarity": 1}, {"lat": -10.3333, "lng": 109.9167, "id": "117860", "name": "Pantachogon haeckeli", "sprite": "sp-anchoviella_juruasanga.png", "group": "other", "rarity": 1}, {"lat": -5.8167, "lng": 110.4, "id": "207293", "name": "Pachyseris speciosa", "sprite": "sp-actiniidae.png", "group": "coral", "rarity": 1}, {"lat": -5.875, "lng": 110.4278, "id": "278377", "name": "Segmented blenny", "thumb": "tn_Saseg_u3.jpg", "sprite": "sp-helcogramma_ascensionis.png", "group": "blenny", "rarity": 1, "waterType": "Saltwater"}, {"lat": -5.8769, "lng": 110.4222, "id": "204256", "name": "Pomacentrus", "sprite": "sp-chrysiptera_caesifrons.png", "group": "clownfish", "rarity": 1}, {"lat": -10.0, "lng": 107.5, "id": "220051", "name": "Largetooth flounder", "thumb": "tn_Psars_u1.jpg", "sprite": "sp-atlantic_halibut.png", "group": "flatfish", "rarity": 1, "waterType": "Brackish"}, {"lat": -5.8769, "lng": 110.4222, "id": "277665", "name": "Yellow-eyed comb-tooth", "thumb": "tn_Ecmel_u0.jpg", "sprite": "sp-helcogramma_ascensionis.png", "group": "blenny", "rarity": 1, "waterType": "Saltwater"}, {"lat": -10.1559, "lng": 110.3255, "id": "2", "name": "Animalia", "sprite": "sp-anchoviella_juruasanga.png", "group": "other", "rarity": 1}, {"lat": -5.8221, "lng": 110.5526, "id": "207674", "name": "Tridacna squamosa", "sprite": "sp-blue_mussel.png", "group": "clam_mussel", "rarity": 1}, {"lat": -8.667, "lng": 110.35, "id": "137272", "name": "Salpa fusiformis", "sprite": "sp-anchoviella_juruasanga.png", "group": "other", "rarity": 1}, {"lat": -5.8437, "lng": 110.4398, "id": "212549", "name": "Slender grouper", "thumb": "tn_Anleu_u0.jpg", "sprite": "sp-chelidoperca_santosi.png", "group": "grouper", "rarity": 1, "waterType": "Saltwater"}, {"lat": -8.5833, "lng": 112.2167, "id": "129238", "name": "Paleanotus", "sprite": "sp-anchoviella_juruasanga.png", "group": "other", "rarity": 1}, {"lat": -7.967, "lng": 109.333, "id": "274193", "name": "Largescale tonguesole", "thumb": "tn_Cyare_u1.jpg", "sprite": "sp-atlantic_halibut.png", "group": "flatfish", "rarity": 1, "waterType": "Brackish"}, {"lat": -10.25, "lng": 110.0, "id": "161438", "name": "Pseudanchialina inermis", "sprite": "sp-american_lobster.png", "group": "crab_lobster", "rarity": 1}, {"lat": -6.3833, "lng": 107.5, "id": "108459", "name": "Diplostomidae", "sprite": "sp-anchoviella_juruasanga.png", "group": "other", "rarity": 1}, {"lat": -8.58, "lng": 111.18, "id": "215525", "name": "Conus capitaneus", "sprite": "sp-cowrie_shell.png", "group": "sea_snail", "rarity": 1}, {"lat": -6.0125, "lng": 107.7835, "id": "398527", "name": "Splendid ponyfish", "thumb": "tn_Lespl_u0.jpg", "sprite": "sp-anchoviella_juruasanga.png", "group": "other", "rarity": 1, "waterType": "Brackish"}, {"lat": -10.0, "lng": 107.5, "id": "279310", "name": "Striped poison-fang blenny", "thumb": "tn_Megra_u6.jpg", "sprite": "sp-helcogramma_ascensionis.png", "group": "blenny", "rarity": 1, "waterType": "Saltwater"}, {"lat": -9.2288, "lng": 111.26, "id": "137119", "name": "Physeter macrocephalus", "sprite": "sp-blue_whale.png", "group": "whale", "rarity": 1}, {"lat": -9.2167, "lng": 108.1233, "id": "602101", "name": "Spiniferites", "sprite": "sp-anchoviella_juruasanga.png", "group": "other", "rarity": 1}, {"lat": -10.0, "lng": 107.5, "id": "277079", "name": "Javan flounder", "thumb": "tn_Psjav_u1.jpg", "sprite": "sp-atlantic_halibut.png", "group": "flatfish", "rarity": 1, "waterType": "Saltwater"}, {"lat": -8.2998, "lng": 111.7281, "id": "955174", "name": "Gelasimus vocans", "sprite": "sp-american_lobster.png", "group": "crab_lobster", "rarity": 1}, {"lat": -11.0, "lng": 110.0, "id": "129054", "name": "Sapphirina opalina", "sprite": "sp-anchoviella_juruasanga.png", "group": "other", "rarity": 1}, {"lat": -6.966, "lng": 110.416, "id": "564521", "name": "Doxander vittatus", "sprite": "sp-cowrie_shell.png", "group": "sea_snail", "rarity": 1}, {"lat": -9.3, "lng": 108.11, "id": "1360982", "name": "Echinidinium transparantum", "sprite": "sp-anchoviella_juruasanga.png", "group": "other", "rarity": 1}, {"lat": -7.722, "lng": 108.6768, "id": "445344", "name": "Haliotis ovina volcanius", "sprite": "sp-cowrie_shell.png", "group": "sea_snail", "rarity": 1}, {"lat": -11.0, "lng": 110.0, "id": "1488083", "name": "Rhincalanus cornutus cornutus", "sprite": "sp-anchoviella_juruasanga.png", "group": "other", "rarity": 1}, {"lat": -10.3333, "lng": 107.6333, "id": "850553", "name": "Walvisteuthis rancureli", "sprite": "sp-giant_pacific_octopus.png", "group": "octopus_squid", "rarity": 1}, {"lat": -6.8453, "lng": 107.4725, "id": "269909", "name": "Monopterus", "sprite": "sp-anchoviella_juruasanga.png", "group": "other", "rarity": 1}, {"lat": -8.65, "lng": 111.9167, "id": "1018635", "name": "Scalicus amiscus", "sprite": "sp-anchoviella_juruasanga.png", "group": "other", "rarity": 1, "waterType": "Saltwater"}, {"lat": -7.6611, "lng": 110.0044, "id": "573475", "name": "Hemiaulus indicus", "sprite": "sp-anchoviella_juruasanga.png", "group": "other", "rarity": 1}, {"lat": -9.8833, "lng": 109.65, "id": "1464945", "name": "Paracalanus aculeatus aculeatus", "sprite": "sp-anchoviella_juruasanga.png", "group": "other", "rarity": 1}, {"lat": -6.5833, "lng": 110.65, "id": "205632", "name": "Menella", "sprite": "sp-actiniidae.png", "group": "coral", "rarity": 1}, {"lat": -9.45, "lng": 109.85, "id": "161474", "name": "Siriella aequiremis", "sprite": "sp-american_lobster.png", "group": "crab_lobster", "rarity": 1}, {"lat": -5.8806, "lng": 110.4111, "id": "206538", "name": "Cabillus", "sprite": "sp-eviota_bipunctata.png", "group": "goby", "rarity": 1}, {"lat": -5.875, "lng": 110.4278, "id": "217473", "name": "Bayer's moray", "thumb": "tn_Enbay_u1.jpg", "sprite": "sp-anarchias.png", "group": "moray", "rarity": 1, "waterType": "Saltwater"}, {"lat": -5.875, "lng": 110.4278, "id": "712653", "name": "Ochre-striped cardinalfish", "thumb": "tn_Apcom_u0.jpg", "sprite": "sp-anchoviella_juruasanga.png", "group": "other", "rarity": 1, "waterType": "Saltwater"}, {"lat": -10.1645, "lng": 110.3195, "id": "138092", "name": "Janthina", "sprite": "sp-cowrie_shell.png", "group": "sea_snail", "rarity": 1}, {"lat": -8.05, "lng": 110.083, "id": "278120", "name": "Yellowbelly threadfin bream", "thumb": "tn_Nebat_u0.jpg", "sprite": "sp-anchoviella_juruasanga.png", "group": "other", "rarity": 1, "waterType": "Saltwater"}, {"lat": -5.8167, "lng": 110.4, "id": "207094", "name": "Acropora humilis", "sprite": "sp-actiniidae.png", "group": "coral", "rarity": 1}, {"lat": -5.8778, "lng": 110.4194, "id": "278897", "name": "Truncate cardinalfish", "thumb": "tn_Chsin_u0.jpg", "sprite": "sp-anchoviella_juruasanga.png", "group": "other", "rarity": 1, "waterType": "Saltwater"}, {"lat": -8.71, "lng": 111.39, "id": "601889", "name": "Operculodinium", "sprite": "sp-anchoviella_juruasanga.png", "group": "other", "rarity": 1}, {"lat": -7.7333, "lng": 109.017, "id": "282382", "name": "Blackspotted croaker", "thumb": "tn_Prdia_u3.jpg", "sprite": "sp-anchoviella_juruasanga.png", "group": "other", "rarity": 1, "waterType": "Brackish"}, {"lat": -10.0, "lng": 107.5, "id": "217359", "name": "Grey sharpnose shark", "thumb": "tn_Rholi_u0.jpg", "sprite": "sp-great_white_shark.png", "group": "shark", "rarity": 1, "waterType": "Saltwater"}, {"lat": -5.8806, "lng": 110.4111, "id": "219054", "name": "Cryptic wrasse", "thumb": "tn_Ptcry_u0.jpg", "sprite": "sp-cleaner_wrasse.png", "group": "wrasse", "rarity": 1, "waterType": "Saltwater"}, {"lat": -10.3333, "lng": 109.9165, "id": "464392", "name": "Vesicomya sundaensis", "sprite": "sp-blue_mussel.png", "group": "clam_mussel", "rarity": 1}, {"lat": -8.667, "lng": 110.35, "id": "128800", "name": "Corycaeus speciosus", "sprite": "sp-anchoviella_juruasanga.png", "group": "other", "rarity": 1}, {"lat": -5.9778, "lng": 108.6017, "id": "292752", "name": "Metrodira subulata", "sprite": "sp-sea_cucumber.png", "group": "starfish", "rarity": 1}, {"lat": -7.2, "lng": 109.6, "id": "207320", "name": "Pavona decussata", "sprite": "sp-actiniidae.png", "group": "coral", "rarity": 1}, {"lat": -7.7333, "lng": 109.017, "id": "125567", "name": "Stromateidae", "sprite": "sp-anchoviella_juruasanga.png", "group": "other", "rarity": 1}, {"lat": -8.71, "lng": 111.39, "id": "570552", "name": "Nematosphaeropsis", "sprite": "sp-anchoviella_juruasanga.png", "group": "other", "rarity": 1}, {"lat": -10.0, "lng": 107.5, "id": "212217", "name": "Sixbar wrasse", "thumb": "tn_Thhar_u1.jpg", "sprite": "sp-cleaner_wrasse.png", "group": "wrasse", "rarity": 1, "waterType": "Saltwater"}, {"lat": -10.3333, "lng": 109.6333, "id": "117263", "name": "Aegina citrea", "sprite": "sp-anchoviella_juruasanga.png", "group": "other", "rarity": 1}, {"lat": -10.2258, "lng": 108.52, "id": "13703", "name": "Thecosomata", "sprite": "sp-cowrie_shell.png", "group": "sea_snail", "rarity": 1}, {"lat": -7.4917, "lng": 110.0044, "id": "281951", "name": "Oxuderces dentatus", "thumb": "tn_Oxden_u0.jpg", "sprite": "sp-eviota_bipunctata.png", "group": "goby", "rarity": 1, "waterType": "Brackish"}, {"lat": -10.0, "lng": 107.5, "id": "219296", "name": "Lined rockskipper", "thumb": "tn_Islin_u0.jpg", "sprite": "sp-helcogramma_ascensionis.png", "group": "blenny", "rarity": 1, "waterType": "Saltwater"}, {"lat": -10.0, "lng": 107.5, "id": "278536", "name": "Redbelly yellowtail fusilier", "thumb": "tn_Cacun_u5.jpg", "sprite": "sp-anchoviella_juruasanga.png", "group": "other", "rarity": 1, "waterType": "Saltwater"}, {"lat": -10.4845, "lng": 112.0845, "id": "212601", "name": "Calidris ruficollis", "sprite": "sp-anchoviella_juruasanga.png", "group": "other", "rarity": 1}, {"lat": -10.0, "lng": 107.5, "id": "217572", "name": "Saddled snake-eel", "thumb": "tn_Lesem_u4.jpg", "sprite": "sp-electric_eel.png", "group": "eel", "rarity": 1, "waterType": "Brackish"}, {"lat": -7.1667, "lng": 109.0833, "id": "720587", "name": "Tortanus (Tortanus) forcipatus", "sprite": "sp-anchoviella_juruasanga.png", "group": "other", "rarity": 1}, {"lat": -6.9932, "lng": 110.4203, "id": "212257", "name": "Dorab wolf-herring", "thumb": "tn_Chdor_u1.jpg", "sprite": "sp-anchoviella_juruasanga.png", "group": "other", "rarity": 1, "waterType": "Brackish"}, {"lat": -6.94, "lng": 110.32, "id": "238270", "name": "Tachypleus tridentatus", "sprite": "sp-anchoviella_juruasanga.png", "group": "other", "rarity": 1}, {"lat": -10.0, "lng": 107.5, "id": "277235", "name": "Barred soapfish", "thumb": "tn_Dibif_u3.jpg", "sprite": "sp-chelidoperca_santosi.png", "group": "grouper", "rarity": 1, "waterType": "Saltwater"}, {"lat": -7.6667, "lng": 109.0, "id": "346477", "name": "Farranula gibbula", "sprite": "sp-anchoviella_juruasanga.png", "group": "other", "rarity": 1}, {"lat": -7.5, "lng": 110.0, "id": "216843", "name": "Cypraea tigris", "sprite": "sp-cowrie_shell.png", "group": "sea_snail", "rarity": 1}, {"lat": -5.9778, "lng": 108.6017, "id": "224121", "name": "Astropecten polyacanthus phragmorus", "sprite": "sp-sea_cucumber.png", "group": "starfish", "rarity": 1}, {"lat": -7.5, "lng": 110.0, "id": "138139", "name": "Loligo", "sprite": "sp-giant_pacific_octopus.png", "group": "octopus_squid", "rarity": 1}, {"lat": -7.6667, "lng": 109.0, "id": "273672", "name": "Four-stripe goatfish", "thumb": "tn_Upqua_u0.jpg", "sprite": "sp-anchoviella_juruasanga.png", "group": "other", "rarity": 1, "waterType": "Saltwater"}, {"lat": -6.8333, "lng": 109.0833, "id": "128807", "name": "Ditrichocorycaeus lubbocki", "sprite": "sp-anchoviella_juruasanga.png", "group": "other", "rarity": 1}, {"lat": -6.5833, "lng": 110.65, "id": "205854", "name": "Sinularia", "sprite": "sp-actiniidae.png", "group": "coral", "rarity": 1}, {"lat": -7.75, "lng": 108.6667, "id": "396730", "name": "Jellyella tuberculata", "sprite": "sp-anchoviella_juruasanga.png", "group": "other", "rarity": 1}, {"lat": -8.0125, "lng": 110.677, "id": "1026410", "name": "Globoconella inflata", "sprite": "sp-anchoviella_juruasanga.png", "group": "other", "rarity": 1}, {"lat": -10.1522, "lng": 110.3198, "id": "14355", "name": "Stomatopoda", "sprite": "sp-american_lobster.png", "group": "crab_lobster", "rarity": 1}, {"lat": -6.3833, "lng": 107.5, "id": "108682", "name": "Posthodiplostomum", "sprite": "sp-anchoviella_juruasanga.png", "group": "other", "rarity": 1}, {"lat": -10.7847, "lng": 111.0036, "id": "106485", "name": "Oithona", "sprite": "sp-anchoviella_juruasanga.png", "group": "other", "rarity": 1}, {"lat": -7.6667, "lng": 109.0, "id": "278052", "name": "Longnose houndshark", "thumb": "tn_Iagar_u0.gif", "sprite": "sp-great_white_shark.png", "group": "shark", "rarity": 1, "waterType": "Saltwater"}, {"lat": -6.333, "lng": 109.167, "id": "1526390", "name": "Pugnose ponyfish", "thumb": "tn_Seins_u1.jpg", "sprite": "sp-anchoviella_juruasanga.png", "group": "other", "rarity": 1, "waterType": "Brackish"}, {"lat": -7.668, "lng": 109.0, "id": "105752", "name": "Himantura", "sprite": "sp-himantura_australis.png", "group": "ray", "rarity": 1}, {"lat": -8.667, "lng": 110.35, "id": "128954", "name": "Oncaea venusta", "sprite": "sp-anchoviella_juruasanga.png", "group": "other", "rarity": 1}, {"lat": -10.1879, "lng": 110.2411, "id": "266268", "name": "Serratosagitta pacifica", "sprite": "sp-anchoviella_juruasanga.png", "group": "other", "rarity": 1}, {"lat": -5.875, "lng": 110.4278, "id": "280520", "name": "Allen's coralbrotula", "thumb": "tn_Diall_u0.jpg", "sprite": "sp-anchoviella_juruasanga.png", "group": "other", "rarity": 1, "waterType": "Saltwater"}, {"lat": -10.2914, "lng": 108.7129, "id": "266708", "name": "Aidanosagitta neglecta", "sprite": "sp-anchoviella_juruasanga.png", "group": "other", "rarity": 1}]}