{"zoom": 6, "x": 51, "y": 44, "points": [{"lat": -56.5758, "lng": 108.0702, "id": "196874", "name": "Paraeuchaeta", "sprite": "sp-anchoviella_juruasanga.png", "group": "other", "rarity": 1}, {"lat": -57.9546, "lng": 108.1257, "id": "231413", "name": "Mirounga leonina", "sprite": "sp-elephant_seal.png", "group": "seal", "rarity": 1}, {"lat": -58.0209, "lng": 108.8114, "id": "105416", "name": "Eukrohnia hamata", "sprite": "sp-anchoviella_juruasanga.png", "group": "other", "rarity": 1}, {"lat": -57.6925, "lng": 108.6119, "id": "341658", "name": "Codonellopsis gaussi", "sprite": "sp-anchoviella_juruasanga.png", "group": "other", "rarity": 1}, {"lat": -58.4296, "lng": 111.6924, "id": "341660", "name": "Codonellopsis pusilla", "sprite": "sp-anchoviella_juruasanga.png", "group": "other", "rarity": 1}, {"lat": -56.8175, "lng": 109.3223, "id": "149150", "name": "Nitzschia longissima", "sprite": "sp-anchoviella_juruasanga.png", "group": "other", "rarity": 1}, {"lat": -56.3625, "lng": 109.0183, "id": "212631", "name": "Phoebetria palpebrata", "sprite": "sp-anchoviella_juruasanga.png", "group": "other", "rarity": 1}, {"lat": -58.5148, "lng": 108.9147, "id": "138122", "name": "Limacina", "sprite": "sp-cowrie_shell.png", "group": "sea_snail", "rarity": 1}, {"lat": -56.459, "lng": 110.7016, "id": "138122", "name": "Limacina", "sprite": "sp-cowrie_shell.png", "group": "sea_snail", "rarity": 1}, {"lat": -58.6146, "lng": 111.8791, "id": "212631", "name": "Phoebetria palpebrata", "sprite": "sp-anchoviella_juruasanga.png", "group": "other", "rarity": 1}, {"lat": -58.0335, "lng": 108.4796, "id": "196874", "name": "Paraeuchaeta", "sprite": "sp-anchoviella_juruasanga.png", "group": "other", "rarity": 1}, {"lat": -56.4159, "lng": 109.2243, "id": "231413", "name": "Mirounga leonina", "sprite": "sp-elephant_seal.png", "group": "seal", "rarity": 1}, {"lat": -56.1614, "lng": 108.3412, "id": "105416", "name": "Eukrohnia hamata", "sprite": "sp-anchoviella_juruasanga.png", "group": "other", "rarity": 1}, {"lat": -56.8579, "lng": 109.1864, "id": "341658", "name": "Codonellopsis gaussi", "sprite": "sp-anchoviella_juruasanga.png", "group": "other", "rarity": 1}, {"lat": -56.4022, "lng": 110.112, "id": "735159", "name": "Catapsydrax dissimilis", "sprite": "sp-anchoviella_juruasanga.png", "group": "other", "rarity": 1}, {"lat": -55.9215, "lng": 109.2711, "id": "113434", "name": "Globigerina bulloides", "sprite": "sp-anchoviella_juruasanga.png", "group": "other", "rarity": 1}, {"lat": -56.8172, "lng": 111.3906, "id": "341660", "name": "Codonellopsis pusilla", "sprite": "sp-anchoviella_juruasanga.png", "group": "other", "rarity": 1}, {"lat": -57.9161, "lng": 108.6343, "id": "101417", "name": "Hyperiidae", "sprite": "sp-american_lobster.png", "group": "crab_lobster", "rarity": 1}, {"lat": -58.3584, "lng": 109.9829, "id": "325408", "name": "Vibilia antarctica", "sprite": "sp-american_lobster.png", "group": "crab_lobster", "rarity": 1}, {"lat": -58.0515, "lng": 110.1903, "id": "236218", "name": "Euphausia frigida", "sprite": "sp-antarctic_krill.png", "group": "shrimp", "rarity": 1}, {"lat": -56.6739, "lng": 110.4793, "id": "178185", "name": "Chaetoceros peruvianus", "sprite": "sp-anchoviella_juruasanga.png", "group": "other", "rarity": 1}, {"lat": -57.4, "lng": 109.1833, "id": "137190", "name": "Oceanites oceanicus", "sprite": "sp-anchoviella_juruasanga.png", "group": "other", "rarity": 1}, {"lat": -58.0711, "lng": 110.8085, "id": "343995", "name": "Thalassarche melanophris", "sprite": "sp-anchoviella_juruasanga.png", "group": "other", "rarity": 1}, {"lat": -57.1394, "lng": 108.2482, "id": "1310442", "name": "Octactis speculum", "sprite": "sp-anchoviella_juruasanga.png", "group": "other", "rarity": 1}, {"lat": -56.694, "lng": 111.294, "id": "137065", "name": "Puffinus", "sprite": "sp-anchoviella_juruasanga.png", "group": "other", "rarity": 1}, {"lat": -58.1667, "lng": 110.6454, "id": "236219", "name": "Thysanoessa macrura", "sprite": "sp-antarctic_krill.png", "group": "shrimp", "rarity": 1}, {"lat": -58.0851, "lng": 109.1018, "id": "746007", "name": "Pleuromamma robusta robusta", "sprite": "sp-anchoviella_juruasanga.png", "group": "other", "rarity": 1}, {"lat": -58.1136, "lng": 110.2322, "id": "103358", "name": "Fritillaria", "sprite": "sp-anchoviella_juruasanga.png", "group": "other", "rarity": 1}, {"lat": -56.7913, "lng": 111.4714, "id": "341496", "name": "Corethron pennatum", "sprite": "sp-anchoviella_juruasanga.png", "group": "other", "rarity": 1}, {"lat": -58.1819, "lng": 110.8347, "id": "342443", "name": "Clausocalanus brevipes", "sprite": "sp-anchoviella_juruasanga.png", "group": "other", "rarity": 1}, {"lat": -57.8529, "lng": 108.5892, "id": "342443", "name": "Clausocalanus brevipes", "sprite": "sp-anchoviella_juruasanga.png", "group": "other", "rarity": 1}, {"lat": -58.6579, "lng": 107.4422, "id": "573433", "name": "Coscinodiscus pseudodenticulatus", "sprite": "sp-anchoviella_juruasanga.png", "group": "other", "rarity": 1}, {"lat": -56.4229, "lng": 111.0401, "id": "180759", "name": "Primno macropa", "sprite": "sp-american_lobster.png", "group": "crab_lobster", "rarity": 1}, {"lat": -56.7541, "lng": 108.8661, "id": "136998", "name": "Procellariidae", "sprite": "sp-anchoviella_juruasanga.png", "group": "other", "rarity": 1}, {"lat": -56.4022, "lng": 110.112, "id": "1027274", "name": "Globoturborotalita woodi", "sprite": "sp-anchoviella_juruasanga.png", "group": "other", "rarity": 1}, {"lat": -57.8302, "lng": 111.4163, "id": "212583", "name": "Diomedea exulans", "sprite": "sp-anchoviella_juruasanga.png", "group": "other", "rarity": 1}, {"lat": -58.0465, "lng": 110.8194, "id": "105416", "name": "Eukrohnia hamata", "sprite": "sp-anchoviella_juruasanga.png", "group": "other", "rarity": 1}, {"lat": -55.9935, "lng": 111.3224, "id": "104434", "name": "Haloptilus oxycephalus", "sprite": "sp-anchoviella_juruasanga.png", "group": "other", "rarity": 1}, {"lat": -58.6517, "lng": 110.9277, "id": "341383", "name": "Eucampia antarctica var. antarctica", "sprite": "sp-anchoviella_juruasanga.png", "group": "other", "rarity": 1}, {"lat": -58.3847, "lng": 108.0917, "id": "341540", "name": "Thalassiothrix antarctica", "sprite": "sp-anchoviella_juruasanga.png", "group": "other", "rarity": 1}, {"lat": -57.8819, "lng": 109.999, "id": "342438", "name": "Candacia maxima", "sprite": "sp-anchoviella_juruasanga.png", "group": "other", "rarity": 1}, {"lat": -56.5954, "lng": 110.9112, "id": "212642", "name": "Pterodroma lessonii", "sprite": "sp-anchoviella_juruasanga.png", "group": "other", "rarity": 1}, {"lat": -57.3176, "lng": 112.4963, "id": "212648", "name": "Pachyptila turtur", "sprite": "sp-anchoviella_juruasanga.png", "group": "other", "rarity": 1}, {"lat": -57.7543, "lng": 110.0025, "id": "1248", "name": "Ctenophora", "sprite": "sp-anchoviella_juruasanga.png", "group": "other", "rarity": 1}, {"lat": -56.1905, "lng": 111.8311, "id": "603038", "name": "Heterorhabdus", "sprite": "sp-anchoviella_juruasanga.png", "group": "other", "rarity": 1}, {"lat": -58.28, "lng": 111.5405, "id": "344974", "name": "Paraeuchaeta antarctica", "sprite": "sp-anchoviella_juruasanga.png", "group": "other", "rarity": 1}, {"lat": -57.9971, "lng": 108.8499, "id": "110671", "name": "Euphausiidae", "sprite": "sp-antarctic_krill.png", "group": "shrimp", "rarity": 1}, {"lat": -58.125, "lng": 110.6834, "id": "137064", "name": "Pterodroma", "sprite": "sp-anchoviella_juruasanga.png", "group": "other", "rarity": 1}, {"lat": -57.0075, "lng": 108.6909, "id": "341540", "name": "Thalassiothrix antarctica", "sprite": "sp-anchoviella_juruasanga.png", "group": "other", "rarity": 1}, {"lat": -56.3826, "lng": 109.9918, "id": "342438", "name": "Candacia maxima", "sprite": "sp-anchoviella_juruasanga.png", "group": "other", "rarity": 1}, {"lat": -58.4484, "lng": 111.5056, "id": "341558", "name": "Fragilariopsis pseudonana", "sprite": "sp-anchoviella_juruasanga.png", "group": "other", "rarity": 1}, {"lat": -57.505, "lng": 111.7873, "id": "212648", "name": "Pachyptila turtur", "sprite": "sp-anchoviella_juruasanga.png", "group": "other", "rarity": 1}, {"lat": -57.9621, "lng": 111.139, "id": "212642", "name": "Pterodroma lessonii", "sprite": "sp-anchoviella_juruasanga.png", "group": "other", "rarity": 1}, {"lat": -58.5538, "lng": 108.1349, "id": "163242", "name": "Rhizosolenia cylindrus", "sprite": "sp-anchoviella_juruasanga.png", "group": "other", "rarity": 1}, {"lat": -57.3461, "lng": 112.036, "id": "603038", "name": "Heterorhabdus", "sprite": "sp-anchoviella_juruasanga.png", "group": "other", "rarity": 1}, {"lat": -58.1514, "lng": 110.3509, "id": "129715", "name": "Tomopteris", "sprite": "sp-anchoviella_juruasanga.png", "group": "other", "rarity": 1}, {"lat": -58.7609, "lng": 109.307, "id": "582421", "name": "Radiozoa", "sprite": "sp-anchoviella_juruasanga.png", "group": "other", "rarity": 1}, {"lat": -58.1067, "lng": 110.1107, "id": "104162", "name": "Ctenocalanus", "sprite": "sp-anchoviella_juruasanga.png", "group": "other", "rarity": 1}, {"lat": -57.9814, "lng": 109.1128, "id": "342449", "name": "Ctenocalanus citer", "sprite": "sp-anchoviella_juruasanga.png", "group": "other", "rarity": 1}, {"lat": -57.7441, "lng": 108.4879, "id": "341660", "name": "Codonellopsis pusilla", "sprite": "sp-anchoviella_juruasanga.png", "group": "other", "rarity": 1}, {"lat": -56.5078, "lng": 110.3107, "id": "1410", "name": "Foraminifera", "sprite": "sp-anchoviella_juruasanga.png", "group": "other", "rarity": 1}, {"lat": -58.2506, "lng": 111.2327, "id": "573621", "name": "Terebraria kerguelensis", "sprite": "sp-anchoviella_juruasanga.png", "group": "other", "rarity": 1}, {"lat": -56.4083, "lng": 108.5122, "id": "225760", "name": "Thalassarche chrysostoma", "sprite": "sp-anchoviella_juruasanga.png", "group": "other", "rarity": 1}, {"lat": -58.4937, "lng": 107.9027, "id": "465389", "name": "Chaetoceros criophilus", "sprite": "sp-anchoviella_juruasanga.png", "group": "other", "rarity": 1}, {"lat": -58.311, "lng": 111.3058, "id": "341675", "name": "Cymatocylis calyciformis", "sprite": "sp-anchoviella_juruasanga.png", "group": "other", "rarity": 1}, {"lat": -57.9783, "lng": 107.8314, "id": "341496", "name": "Corethron pennatum", "sprite": "sp-anchoviella_juruasanga.png", "group": "other", "rarity": 1}, {"lat": -56.5581, "lng": 107.6211, "id": "236220", "name": "Euphausia triacantha", "sprite": "sp-antarctic_krill.png", "group": "shrimp", "rarity": 1}, {"lat": -57.7108, "lng": 110.0019, "id": "343728", "name": "Heterorhabdus austrinus", "sprite": "sp-anchoviella_juruasanga.png", "group": "other", "rarity": 1}, {"lat": -56.654, "lng": 107.6287, "id": "104157", "name": "Candacia", "sprite": "sp-anchoviella_juruasanga.png", "group": "other", "rarity": 1}, {"lat": -57.73, "lng": 108.443, "id": "137065", "name": "Puffinus", "sprite": "sp-anchoviella_juruasanga.png", "group": "other", "rarity": 1}, {"lat": -56.5392, "lng": 110.4862, "id": "129715", "name": "Tomopteris", "sprite": "sp-anchoviella_juruasanga.png", "group": "other", "rarity": 1}, {"lat": -56.338, "lng": 108.0166, "id": "582421", "name": "Radiozoa", "sprite": "sp-anchoviella_juruasanga.png", "group": "other", "rarity": 1}, {"lat": -56.1514, "lng": 111.9361, "id": "221054", "name": "Euphausia vallentini", "sprite": "sp-antarctic_krill.png", "group": "shrimp", "rarity": 1}, {"lat": -56.5428, "lng": 110.0101, "id": "104162", "name": "Ctenocalanus", "sprite": "sp-anchoviella_juruasanga.png", "group": "other", "rarity": 1}, {"lat": -56.4931, "lng": 108.6516, "id": "342449", "name": "Ctenocalanus citer", "sprite": "sp-anchoviella_juruasanga.png", "group": "other", "rarity": 1}, {"lat": -58.0818, "lng": 110.2091, "id": "1410", "name": "Foraminifera", "sprite": "sp-anchoviella_juruasanga.png", "group": "other", "rarity": 1}, {"lat": -57.66, "lng": 111.9953, "id": "266258", "name": "Pseudosagitta gazellae", "sprite": "sp-anchoviella_juruasanga.png", "group": "other", "rarity": 1}, {"lat": -56.6167, "lng": 111.1016, "id": "573621", "name": "Terebraria kerguelensis", "sprite": "sp-anchoviella_juruasanga.png", "group": "other", "rarity": 1}, {"lat": -56.6, "lng": 111.7833, "id": "137087", "name": "Balaenoptera acutorostrata", "sprite": "sp-blue_whale.png", "group": "whale", "rarity": 1}, {"lat": -56.4022, "lng": 110.112, "id": "1034970", "name": "Turborotalia ampliapertura", "sprite": "sp-anchoviella_juruasanga.png", "group": "other", "rarity": 1}, {"lat": -57.1436, "lng": 109.9904, "id": "716449", "name": "Calanus australis australis", "sprite": "sp-anchoviella_juruasanga.png", "group": "other", "rarity": 1}, {"lat": -58.0556, "lng": 110.5077, "id": "850801", "name": "Metridia lucens lucens", "sprite": "sp-anchoviella_juruasanga.png", "group": "other", "rarity": 1}, {"lat": -57.18, "lng": 108.1151, "id": "341472", "name": "Chaetoceros bulbosus", "sprite": "sp-anchoviella_juruasanga.png", "group": "other", "rarity": 1}, {"lat": -56.4999, "lng": 110.1502, "id": "1080", "name": "Copepoda", "sprite": "sp-anchoviella_juruasanga.png", "group": "other", "rarity": 1}, {"lat": -57.75, "lng": 110.95, "id": "212647", "name": "Pachyptila vittata", "sprite": "sp-anchoviella_juruasanga.png", "group": "other", "rarity": 1}, {"lat": -58.3294, "lng": 108.7655, "id": "236217", "name": "Euphausia superba", "sprite": "sp-antarctic_krill.png", "group": "shrimp", "rarity": 1}, {"lat": -57.7431, "lng": 109.9989, "id": "103256", "name": "Hyperoche medusarum", "sprite": "sp-american_lobster.png", "group": "crab_lobster", "rarity": 1}, {"lat": -56.68, "lng": 110.5804, "id": "850801", "name": "Metridia lucens lucens", "sprite": "sp-anchoviella_juruasanga.png", "group": "other", "rarity": 1}, {"lat": -57.8938, "lng": 108.0835, "id": "341472", "name": "Chaetoceros bulbosus", "sprite": "sp-anchoviella_juruasanga.png", "group": "other", "rarity": 1}, {"lat": -56.5009, "lng": 110.5156, "id": "236219", "name": "Thysanoessa macrura", "sprite": "sp-antarctic_krill.png", "group": "shrimp", "rarity": 1}, {"lat": -56.3124, "lng": 107.7541, "id": "746007", "name": "Pleuromamma robusta robusta", "sprite": "sp-anchoviella_juruasanga.png", "group": "other", "rarity": 1}, {"lat": -56.5215, "lng": 110.2045, "id": "103358", "name": "Fritillaria", "sprite": "sp-anchoviella_juruasanga.png", "group": "other", "rarity": 1}, {"lat": -56.4815, "lng": 110.674, "id": "342443", "name": "Clausocalanus brevipes", "sprite": "sp-anchoviella_juruasanga.png", "group": "other", "rarity": 1}, {"lat": -56.3989, "lng": 108.3446, "id": "342443", "name": "Clausocalanus brevipes", "sprite": "sp-anchoviella_juruasanga.png", "group": "other", "rarity": 1}, {"lat": -57.5769, "lng": 110.8738, "id": "137065", "name": "Puffinus", "sprite": "sp-anchoviella_juruasanga.png", "group": "other", "rarity": 1}, {"lat": -57.8266, "lng": 107.5636, "id": "136998", "name": "Procellariidae", "sprite": "sp-anchoviella_juruasanga.png", "group": "other", "rarity": 1}, {"lat": -58.6283, "lng": 110.0172, "id": "180759", "name": "Primno macropa", "sprite": "sp-american_lobster.png", "group": "crab_lobster", "rarity": 1}, {"lat": -58.1158, "lng": 110.1562, "id": "1080", "name": "Copepoda", "sprite": "sp-anchoviella_juruasanga.png", "group": "other", "rarity": 1}, {"lat": -56.846, "lng": 111.2941, "id": "341658", "name": "Codonellopsis gaussi", "sprite": "sp-anchoviella_juruasanga.png", "group": "other", "rarity": 1}, {"lat": -58.0948, "lng": 111.1837, "id": "149168", "name": "Proboscia alata", "sprite": "sp-anchoviella_juruasanga.png", "group": "other", "rarity": 1}, {"lat": -58.0782, "lng": 108.7827, "id": "1100", "name": "Calanoida", "sprite": "sp-anchoviella_juruasanga.png", "group": "other", "rarity": 1}, {"lat": -57.7733, "lng": 108.87, "id": "104190", "name": "Metridia", "sprite": "sp-anchoviella_juruasanga.png", "group": "other", "rarity": 1}, {"lat": -56.1867, "lng": 110.2417, "id": "225761", "name": "Pterodroma inexpectata", "sprite": "sp-anchoviella_juruasanga.png", "group": "other", "rarity": 1}, {"lat": -56.4133, "lng": 110.6951, "id": "103367", "name": "Oikopleura", "sprite": "sp-anchoviella_juruasanga.png", "group": "other", "rarity": 1}, {"lat": -56.6168, "lng": 108.6812, "id": "212696", "name": "Fregetta tropica", "sprite": "sp-anchoviella_juruasanga.png", "group": "other", "rarity": 1}, {"lat": -56.4869, "lng": 108.5908, "id": "103367", "name": "Oikopleura", "sprite": "sp-anchoviella_juruasanga.png", "group": "other", "rarity": 1}, {"lat": -58.0921, "lng": 110.3188, "id": "1100", "name": "Calanoida", "sprite": "sp-anchoviella_juruasanga.png", "group": "other", "rarity": 1}, {"lat": -58.3236, "lng": 110.9701, "id": "582421", "name": "Radiozoa", "sprite": "sp-anchoviella_juruasanga.png", "group": "other", "rarity": 1}, {"lat": -58.3152, "lng": 110.3693, "id": "1102", "name": "Harpacticoida", "sprite": "sp-anchoviella_juruasanga.png", "group": "other", "rarity": 1}, {"lat": -56.7359, "lng": 111.3407, "id": "212645", "name": "Halobaena caerulea", "sprite": "sp-anchoviella_juruasanga.png", "group": "other", "rarity": 1}, {"lat": -56.3826, "lng": 109.0746, "id": "212583", "name": "Diomedea exulans", "sprite": "sp-anchoviella_juruasanga.png", "group": "other", "rarity": 1}, {"lat": -58.0819, "lng": 108.1389, "id": "573621", "name": "Terebraria kerguelensis", "sprite": "sp-anchoviella_juruasanga.png", "group": "other", "rarity": 1}, {"lat": -58.2074, "lng": 110.5094, "id": "975030", "name": "Coscinodiscus tabularis var. tabularis", "sprite": "sp-anchoviella_juruasanga.png", "group": "other", "rarity": 1}, {"lat": -58.2472, "lng": 110.2022, "id": "341472", "name": "Chaetoceros bulbosus", "sprite": "sp-anchoviella_juruasanga.png", "group": "other", "rarity": 1}, {"lat": -58.0577, "lng": 109.015, "id": "103367", "name": "Oikopleura", "sprite": "sp-anchoviella_juruasanga.png", "group": "other", "rarity": 1}, {"lat": -56.5192, "lng": 110.2963, "id": "1100", "name": "Calanoida", "sprite": "sp-anchoviella_juruasanga.png", "group": "other", "rarity": 1}, {"lat": -56.2928, "lng": 110.7947, "id": "582421", "name": "Radiozoa", "sprite": "sp-anchoviella_juruasanga.png", "group": "other", "rarity": 1}, {"lat": -57.675, "lng": 111.25, "id": "212645", "name": "Halobaena caerulea", "sprite": "sp-anchoviella_juruasanga.png", "group": "other", "rarity": 1}, {"lat": -57.544, "lng": 108.0988, "id": "212583", "name": "Diomedea exulans", "sprite": "sp-anchoviella_juruasanga.png", "group": "other", "rarity": 1}, {"lat": -56.5108, "lng": 109.9381, "id": "1102", "name": "Harpacticoida", "sprite": "sp-anchoviella_juruasanga.png", "group": "other", "rarity": 1}]}