{"zoom": 6, "x": 54, "y": 27, "points": [{"lat": 26.5314, "lng": 128.0507, "id": "196177", "name": "Clypeasteridae", "sprite": "sp-sea_cucumber.png", "group": "starfish", "rarity": 1}, {"lat": 26.7246, "lng": 127.8316, "id": "505431", "name": "Ctenoides ales", "sprite": "sp-blue_mussel.png", "group": "clam_mussel", "rarity": 1}, {"lat": 22.7983, "lng": 127.4771, "id": "1525960", "name": "Spiny lantern fish", "thumb": "tn_Myspi_u1.gif", "sprite": "sp-anchoviella_juruasanga.png", "group": "other", "rarity": 1, "waterType": "Saltwater"}, {"lat": 26.5712, "lng": 126.2118, "id": "113444", "name": "Globigerinoides ruber", "sprite": "sp-anchoviella_juruasanga.png", "group": "other", "rarity": 1}, {"lat": 24.3885, "lng": 124.0875, "id": "219558", "name": "Speckled goby", "thumb": "tn_Retam_u0.jpg", "sprite": "sp-eviota_bipunctata.png", "group": "goby", "rarity": 1, "waterType": "Brackish"}, {"lat": 26.2764, "lng": 127.7471, "id": "303762", "name": "Common ponyfish", "thumb": "tn_Leequ_u6.jpg", "sprite": "sp-anchoviella_juruasanga.png", "group": "other", "rarity": 1, "waterType": "Brackish"}, {"lat": 25.1933, "lng": 126.4761, "id": "125685", "name": "Saurida", "sprite": "sp-anchoviella_juruasanga.png", "group": "other", "rarity": 1}, {"lat": 26.4263, "lng": 127.9203, "id": "214662", "name": "Schizaster lacunosus", "sprite": "sp-sea_cucumber.png", "group": "starfish", "rarity": 1}, {"lat": 22.2592, "lng": 125.5829, "id": "125435", "name": "Serrivomeridae", "sprite": "sp-electric_eel.png", "group": "eel", "rarity": 1}, {"lat": 26.4408, "lng": 127.7175, "id": "734368", "name": "Leucothoe zanpa", "sprite": "sp-american_lobster.png", "group": "crab_lobster", "rarity": 1}, {"lat": 24.8925, "lng": 124.9585, "id": "272292", "name": "Japanese codlet", "thumb": "tn_Brjap_u6.jpg", "sprite": "sp-anchoviella_juruasanga.png", "group": "other", "rarity": 1, "waterType": "Saltwater"}, {"lat": 24.4183, "lng": 123.8019, "id": "389331", "name": "Korechika's dwarfoby", "thumb": "tn_Evkor_u1.jpg", "sprite": "sp-eviota_bipunctata.png", "group": "goby", "rarity": 1, "waterType": "Saltwater"}, {"lat": 26.4409, "lng": 127.8784, "id": "219331", "name": "Striped poison-fang blenny mimic", "thumb": "tn_Pebre_u6.jpg", "sprite": "sp-helcogramma_ascensionis.png", "group": "blenny", "rarity": 1, "waterType": "Brackish"}, {"lat": 26.9298, "lng": 128.1616, "id": "219266", "name": "Chestnut eyelash-blenny", "thumb": "tn_Cicas_ua.jpg", "sprite": "sp-helcogramma_ascensionis.png", "group": "blenny", "rarity": 1, "waterType": "Brackish"}, {"lat": 26.5849, "lng": 127.7695, "id": "367446", "name": "Calcinus lineapropodus", "sprite": "sp-american_lobster.png", "group": "crab_lobster", "rarity": 1}, {"lat": 23.965, "lng": 124.4883, "id": "217622", "name": "Triplethread snaggletooth", "thumb": "tn_Astri_u0.gif", "sprite": "sp-anchoviella_juruasanga.png", "group": "other", "rarity": 1, "waterType": "Saltwater"}, {"lat": 26.4867, "lng": 127.84, "id": "215302", "name": "Asteronotus cespitosus", "sprite": "sp-cowrie_shell.png", "group": "sea_snail", "rarity": 1}, {"lat": 26.9343, "lng": 128.1069, "id": "212824", "name": "Stout chromis", "thumb": "tn_Chchr_uf.jpg", "sprite": "sp-chrysiptera_caesifrons.png", "group": "clownfish", "rarity": 1, "waterType": "Saltwater"}, {"lat": 24.7113, "lng": 125.7921, "id": "123082", "name": "Echinoidea", "sprite": "sp-sea_cucumber.png", "group": "starfish", "rarity": 1}, {"lat": 26.5066, "lng": 127.8767, "id": "205320", "name": "Halgerda", "sprite": "sp-cowrie_shell.png", "group": "sea_snail", "rarity": 1}, {"lat": 26.5222, "lng": 127.7678, "id": "205342", "name": "Melithaea", "sprite": "sp-actiniidae.png", "group": "coral", "rarity": 1}, {"lat": 26.0221, "lng": 128.1723, "id": "138122", "name": "Limacina", "sprite": "sp-cowrie_shell.png", "group": "sea_snail", "rarity": 1}, {"lat": 24.333, "lng": 124.0, "id": "564247", "name": "Oxymeris dimidiata", "sprite": "sp-cowrie_shell.png", "group": "sea_snail", "rarity": 1}, {"lat": 26.4083, "lng": 127.7067, "id": "215487", "name": "Conus moluccensis", "sprite": "sp-cowrie_shell.png", "group": "sea_snail", "rarity": 1}, {"lat": 26.3382, "lng": 128.9932, "id": "842517", "name": "Tripos trichoceros", "sprite": "sp-anchoviella_juruasanga.png", "group": "other", "rarity": 1}, {"lat": 26.5457, "lng": 127.8367, "id": "110418", "name": "Nannastacus", "sprite": "sp-american_lobster.png", "group": "crab_lobster", "rarity": 1}, {"lat": 24.319, "lng": 124.0918, "id": "207249", "name": "Porites australiensis", "sprite": "sp-actiniidae.png", "group": "coral", "rarity": 1}, {"lat": 27.0324, "lng": 128.4145, "id": "217505", "name": "Blotch-necked moray", "thumb": "tn_Gymar_u4.jpg", "sprite": "sp-anarchias.png", "group": "moray", "rarity": 1, "waterType": "Saltwater"}, {"lat": 26.2955, "lng": 127.9062, "id": "131636", "name": "Chalinidae", "sprite": "sp-barrel_sponge.png", "group": "sponge", "rarity": 1}, {"lat": 26.7567, "lng": 128.0981, "id": "212888", "name": "Blackspot sergeant", "thumb": "tn_Absor_u0.jpg", "sprite": "sp-chrysiptera_caesifrons.png", "group": "clownfish", "rarity": 1, "waterType": "Brackish"}, {"lat": 24.3313, "lng": 124.17, "id": "278394", "name": "Tomato clownfish", "thumb": "tn_Amfre_ud.jpg", "sprite": "sp-chrysiptera_caesifrons.png", "group": "clownfish", "rarity": 1, "waterType": "Saltwater"}, {"lat": 25.4, "lng": 126.5832, "id": "163250", "name": "Hemiaulus sinensis", "sprite": "sp-anchoviella_juruasanga.png", "group": "other", "rarity": 1}, {"lat": 26.433, "lng": 127.717, "id": "204522", "name": "Gnatholepis", "sprite": "sp-eviota_bipunctata.png", "group": "goby", "rarity": 1}, {"lat": 26.1883, "lng": 124.9044, "id": "234573", "name": "Lycodapus", "sprite": "sp-anchoviella_juruasanga.png", "group": "other", "rarity": 1}, {"lat": 26.4811, "lng": 127.8828, "id": "213117", "name": "Luidia savignyi", "sprite": "sp-sea_cucumber.png", "group": "starfish", "rarity": 1}, {"lat": 24.3848, "lng": 124.1697, "id": "205082", "name": "Goniastrea", "sprite": "sp-actiniidae.png", "group": "coral", "rarity": 1}, {"lat": 26.6333, "lng": 127.8667, "id": "714213", "name": "Reishia luteostoma", "sprite": "sp-cowrie_shell.png", "group": "sea_snail", "rarity": 1}, {"lat": 24.3554, "lng": 123.9776, "id": "106969", "name": "Macrophthalmus", "sprite": "sp-american_lobster.png", "group": "crab_lobster", "rarity": 1}, {"lat": 24.395, "lng": 124.1495, "id": "278561", "name": "Biliton blenniella", "thumb": "tn_Blbil_u3.jpg", "sprite": "sp-helcogramma_ascensionis.png", "group": "blenny", "rarity": 1, "waterType": "Saltwater"}, {"lat": 26.4756, "lng": 127.7847, "id": "210916", "name": "Thelenota ananas", "sprite": "sp-sea_cucumber.png", "group": "starfish", "rarity": 1}, {"lat": 25.235, "lng": 126.6218, "id": "248070", "name": "Asterolampra marylandica", "sprite": "sp-anchoviella_juruasanga.png", "group": "other", "rarity": 1}, {"lat": 26.5067, "lng": 127.8767, "id": "520671", "name": "Annella reticulata", "sprite": "sp-actiniidae.png", "group": "coral", "rarity": 1}, {"lat": 24.3201, "lng": 124.0835, "id": "205469", "name": "Acropora", "sprite": "sp-actiniidae.png", "group": "coral", "rarity": 1}, {"lat": 24.732, "lng": 125.4577, "id": "289208", "name": "Platygyra yaeyamaensis", "sprite": "sp-actiniidae.png", "group": "coral", "rarity": 1}, {"lat": 26.4394, "lng": 127.9171, "id": "212378", "name": "Ophiocoma scolopendrina", "sprite": "sp-sea_cucumber.png", "group": "starfish", "rarity": 1}, {"lat": 26.2122, "lng": 127.6642, "id": "138297", "name": "Crassostrea", "sprite": "sp-blue_mussel.png", "group": "clam_mussel", "rarity": 1}, {"lat": 25.1667, "lng": 127.75, "id": "221243", "name": "Solmissus marshalli", "sprite": "sp-anchoviella_juruasanga.png", "group": "other", "rarity": 1}, {"lat": 24.4123, "lng": 124.1379, "id": "1048079", "name": "Fimbriaphyllia yaeyamensis", "sprite": "sp-actiniidae.png", "group": "coral", "rarity": 1}, {"lat": 23.6824, "lng": 124.4332, "id": "131692", "name": "Euplectellidae", "sprite": "sp-barrel_sponge.png", "group": "sponge", "rarity": 1}, {"lat": 24.3074, "lng": 124.0928, "id": "288886", "name": "Porites annae", "sprite": "sp-actiniidae.png", "group": "coral", "rarity": 1}, {"lat": 24.455, "lng": 124.2061, "id": "277516", "name": "Spotcheek cardinalfish", "thumb": "tn_Fopun_u0.jpg", "sprite": "sp-anchoviella_juruasanga.png", "group": "other", "rarity": 1, "waterType": "Brackish"}, {"lat": 26.433, "lng": 127.716, "id": "370551", "name": "Notocochlis gualteriana", "sprite": "sp-cowrie_shell.png", "group": "sea_snail", "rarity": 1}, {"lat": 26.6346, "lng": 127.934, "id": "367448", "name": "Calcinus minutus", "sprite": "sp-american_lobster.png", "group": "crab_lobster", "rarity": 1}, {"lat": 26.5067, "lng": 127.8767, "id": "22549", "name": "Antipatharia", "sprite": "sp-actiniidae.png", "group": "coral", "rarity": 1}, {"lat": 24.2739, "lng": 124.0265, "id": "207139", "name": "Montipora venosa", "sprite": "sp-actiniidae.png", "group": "coral", "rarity": 1}, {"lat": 24.357, "lng": 124.096, "id": "207167", "name": "Montipora undata", "sprite": "sp-actiniidae.png", "group": "coral", "rarity": 1}, {"lat": 26.484, "lng": 127.8525, "id": "367951", "name": "Echinaster luzonicus", "sprite": "sp-sea_cucumber.png", "group": "starfish", "rarity": 1}, {"lat": 26.2611, "lng": 127.8834, "id": "207409", "name": "Tubipora musica", "sprite": "sp-actiniidae.png", "group": "coral", "rarity": 1}, {"lat": 24.8094, "lng": 125.1477, "id": "107014", "name": "Glyphocrangon", "sprite": "sp-american_lobster.png", "group": "crab_lobster", "rarity": 1}, {"lat": 22.5905, "lng": 126.1135, "id": "137851", "name": "Liocranchia", "sprite": "sp-giant_pacific_octopus.png", "group": "octopus_squid", "rarity": 1}, {"lat": 24.8026, "lng": 124.9856, "id": "207127", "name": "Astreopora randalli", "sprite": "sp-actiniidae.png", "group": "coral", "rarity": 1}, {"lat": 24.875, "lng": 127.4317, "id": "835153", "name": "Small-eyed abyssal eel", "sprite": "sp-electric_eel.png", "group": "eel", "rarity": 1, "waterType": "Saltwater"}, {"lat": 22.5996, "lng": 128.1235, "id": "1649790", "name": "Hansarsia microps", "sprite": "sp-antarctic_krill.png", "group": "shrimp", "rarity": 1}, {"lat": 23.5671, "lng": 128.9724, "id": "1078", "name": "Ostracoda", "sprite": "sp-anchoviella_juruasanga.png", "group": "other", "rarity": 1}, {"lat": 26.2569, "lng": 127.6781, "id": "23139", "name": "Vermetidae", "sprite": "sp-cowrie_shell.png", "group": "sea_snail", "rarity": 1}, {"lat": 22.5896, "lng": 128.454, "id": "125578", "name": "Cynoglossidae", "sprite": "sp-atlantic_halibut.png", "group": "flatfish", "rarity": 1}, {"lat": 24.3766, "lng": 124.1804, "id": "218733", "name": "Raccoon butterflyfish", "thumb": "tn_Chlun_u0.jpg", "sprite": "sp-chaetodon.png", "group": "butterflyfish", "rarity": 1, "waterType": "Saltwater"}, {"lat": 24.9778, "lng": 125.2828, "id": "207420", "name": "Echinopora hirsutissima", "sprite": "sp-actiniidae.png", "group": "coral", "rarity": 1}, {"lat": 26.4, "lng": 127.5, "id": "217065", "name": "Pollia undosa", "sprite": "sp-cowrie_shell.png", "group": "sea_snail", "rarity": 1}, {"lat": 26.5667, "lng": 127.9411, "id": "744867", "name": "Morula striata", "sprite": "sp-cowrie_shell.png", "group": "sea_snail", "rarity": 1}, {"lat": 24.3766, "lng": 124.1804, "id": "279074", "name": "Okinawa seabream", "thumb": "tn_Acsiv_u0.jpg", "sprite": "sp-anchoviella_juruasanga.png", "group": "other", "rarity": 1, "waterType": "Brackish"}, {"lat": 24.3766, "lng": 124.1804, "id": "125565", "name": "Sphyraenidae", "sprite": "sp-european_barracuda.png", "group": "barracuda", "rarity": 1}, {"lat": 24.8549, "lng": 125.3702, "id": "207283", "name": "Leptoseris mycetoseroides", "sprite": "sp-actiniidae.png", "group": "coral", "rarity": 1}, {"lat": 26.43, "lng": 127.7, "id": "212137", "name": "Drupa clathrata", "sprite": "sp-cowrie_shell.png", "group": "sea_snail", "rarity": 1}, {"lat": 24.7714, "lng": 125.4072, "id": "708748", "name": "Caulerpa cupressoides var. lycopodium f. amicorum", "sprite": "sp-anchoviella_juruasanga.png", "group": "other", "rarity": 1}, {"lat": 26.9046, "lng": 128.3014, "id": "217491", "name": "Paintspotted moray", "thumb": "tn_Gypic_u3.jpg", "sprite": "sp-anarchias.png", "group": "moray", "rarity": 1, "waterType": "Brackish"}, {"lat": 23.5672, "lng": 128.9778, "id": "115059", "name": "Coccosphaerales", "sprite": "sp-anchoviella_juruasanga.png", "group": "other", "rarity": 1}, {"lat": 26.7246, "lng": 127.8316, "id": "415304", "name": "Dimya", "sprite": "sp-blue_mussel.png", "group": "clam_mussel", "rarity": 1}, {"lat": 26.3383, "lng": 128.9933, "id": "418513", "name": "Chaetoceros pseudocurvisetum", "sprite": "sp-anchoviella_juruasanga.png", "group": "other", "rarity": 1}, {"lat": 24.8574, "lng": 123.8359, "id": "137224", "name": "Pyrosoma", "sprite": "sp-anchoviella_juruasanga.png", "group": "other", "rarity": 1}, {"lat": 26.0429, "lng": 128.9508, "id": "137850", "name": "Leachia", "sprite": "sp-giant_pacific_octopus.png", "group": "octopus_squid", "rarity": 1}, {"lat": 26.3517, "lng": 126.7722, "id": "1590972", "name": "Latissistrombus sinuatus", "sprite": "sp-cowrie_shell.png", "group": "sea_snail", "rarity": 1}, {"lat": 26.017, "lng": 125.767, "id": "149232", "name": "Navicula membranacea", "sprite": "sp-anchoviella_juruasanga.png", "group": "other", "rarity": 1}, {"lat": 26.8212, "lng": 128.3314, "id": "159259", "name": "Hound needlefish", "thumb": "tn_Tycro_u1.jpg", "sprite": "sp-anchoviella_juruasanga.png", "group": "other", "rarity": 1, "waterType": "Saltwater"}, {"lat": 26.483, "lng": 127.833, "id": "529730", "name": "Erronea cylindrica", "sprite": "sp-cowrie_shell.png", "group": "sea_snail", "rarity": 1}, {"lat": 24.267, "lng": 123.883, "id": "273911", "name": "Barred spinefoot", "thumb": "tn_Sidol_u2.jpg", "sprite": "sp-anchoviella_juruasanga.png", "group": "other", "rarity": 1, "waterType": "Saltwater"}, {"lat": 26.1883, "lng": 127.2811, "id": "370076", "name": "Polycoelia", "sprite": "sp-anchoviella_juruasanga.png", "group": "other", "rarity": 1}, {"lat": 24.9778, "lng": 125.2828, "id": "289251", "name": "Pocillopora kelleheri", "sprite": "sp-actiniidae.png", "group": "coral", "rarity": 1}, {"lat": 26.481, "lng": 127.8367, "id": "292741", "name": "Euretaster insignis", "sprite": "sp-sea_cucumber.png", "group": "starfish", "rarity": 1}, {"lat": 26.5013, "lng": 127.854, "id": "204277", "name": "Volvatella", "sprite": "sp-cowrie_shell.png", "group": "sea_snail", "rarity": 1}, {"lat": 26.5067, "lng": 127.8767, "id": "558180", "name": "Cerberilla affinis", "sprite": "sp-cowrie_shell.png", "group": "sea_snail", "rarity": 1}, {"lat": 24.6967, "lng": 125.7532, "id": "265008", "name": "Osedax", "sprite": "sp-anchoviella_juruasanga.png", "group": "other", "rarity": 1}, {"lat": 23.5668, "lng": 128.9668, "id": "1101", "name": "Cyclopoida", "sprite": "sp-anchoviella_juruasanga.png", "group": "other", "rarity": 1}, {"lat": 26.7041, "lng": 127.7849, "id": "513515", "name": "Rhynobrissus hemiasteroides", "sprite": "sp-sea_cucumber.png", "group": "starfish", "rarity": 1}, {"lat": 26.5, "lng": 128.5, "id": "428402", "name": "Conus victoriae", "sprite": "sp-cowrie_shell.png", "group": "sea_snail", "rarity": 1}, {"lat": 22.1558, "lng": 125.0458, "id": "125520", "name": "Bramidae", "sprite": "sp-anchoviella_juruasanga.png", "group": "other", "rarity": 1}, {"lat": 22.5258, "lng": 127.4908, "id": "158898", "name": "Slender lanternfish", "thumb": "tn_Laten_u0.jpg", "sprite": "sp-anchoviella_juruasanga.png", "group": "other", "rarity": 1, "waterType": "Saltwater"}, {"lat": 25.0, "lng": 125.0, "id": "217511", "name": "Gymnothorax reticularis", "thumb": "tn_Gyret_u4.jpg", "sprite": "sp-anarchias.png", "group": "moray", "rarity": 1, "waterType": "Saltwater"}, {"lat": 26.2, "lng": 127.6333, "id": "272963", "name": "White-freckled surgeonfish", "thumb": "tn_Acmac_u5.jpg", "sprite": "sp-acanthurus_albimento.png", "group": "surgeonfish", "rarity": 1, "waterType": "Saltwater"}, {"lat": 27.0301, "lng": 128.4147, "id": "278766", "name": "Barenape goby", "thumb": "tn_Coduo_u3.jpg", "sprite": "sp-eviota_bipunctata.png", "group": "goby", "rarity": 1, "waterType": "Saltwater"}, {"lat": 25.383, "lng": 123.996, "id": "104546", "name": "Subeucalanus mucronatus", "sprite": "sp-anchoviella_juruasanga.png", "group": "other", "rarity": 1}, {"lat": 26.4586, "lng": 127.8311, "id": "23123", "name": "Strombidae", "sprite": "sp-cowrie_shell.png", "group": "sea_snail", "rarity": 1}, {"lat": 26.2955, "lng": 127.9062, "id": "220515", "name": "Calliactis polypus", "sprite": "sp-actiniidae.png", "group": "coral", "rarity": 1}, {"lat": 26.504, "lng": 127.8653, "id": "290441", "name": "Myriopathes ulex", "sprite": "sp-actiniidae.png", "group": "coral", "rarity": 1}, {"lat": 26.45, "lng": 127.7833, "id": "279110", "name": "Orange-striped shrimpgoby", "thumb": "tn_Styas_u1.jpg", "sprite": "sp-eviota_bipunctata.png", "group": "goby", "rarity": 1, "waterType": "Saltwater"}, {"lat": 24.5835, "lng": 125.7583, "id": "14712", "name": "Heterobranchia", "sprite": "sp-cowrie_shell.png", "group": "sea_snail", "rarity": 1}, {"lat": 26.5872, "lng": 127.2275, "id": "127403", "name": "Spot-fin porcupinefish", "thumb": "tn_Dihys_ub.jpg", "sprite": "sp-fahaka_pufferfish.png", "group": "pufferfish", "rarity": 1, "waterType": "Saltwater"}, {"lat": 24.3684, "lng": 124.254, "id": "159559", "name": "Red lionfish", "thumb": "tn_Ptvol_ul.jpg", "sprite": "sp-parascorpaena_moultoni.png", "group": "scorpionfish", "rarity": 1, "waterType": "Saltwater"}, {"lat": 26.3503, "lng": 127.8308, "id": "19494", "name": "Hydroidolina", "sprite": "sp-anchoviella_juruasanga.png", "group": "other", "rarity": 1}, {"lat": 24.7714, "lng": 125.4072, "id": "211524", "name": "Halimeda macroloba", "sprite": "sp-anchoviella_juruasanga.png", "group": "other", "rarity": 1}, {"lat": 25.6477, "lng": 125.2785, "id": "125601", "name": "Gonostomatidae", "sprite": "sp-anchoviella_juruasanga.png", "group": "other", "rarity": 1}, {"lat": 25.0, "lng": 125.0, "id": "205630", "name": "Cryptocentrus", "sprite": "sp-eviota_bipunctata.png", "group": "goby", "rarity": 1}, {"lat": 26.3, "lng": 127.8, "id": "232", "name": "Mesodesmatidae", "sprite": "sp-blue_mussel.png", "group": "clam_mussel", "rarity": 1}, {"lat": 26.7639, "lng": 125.2528, "id": "278697", "name": "Blackspotted catshark", "thumb": "tn_Habue_u0.gif", "sprite": "sp-great_white_shark.png", "group": "shark", "rarity": 1, "waterType": "Saltwater"}, {"lat": 26.2968, "lng": 127.9109, "id": "106058", "name": "Pyrgomatidae", "sprite": "sp-anchoviella_juruasanga.png", "group": "other", "rarity": 1}, {"lat": 25.002, "lng": 124.752, "id": "1061345", "name": "Anthiadinae", "sprite": "sp-chelidoperca_santosi.png", "group": "grouper", "rarity": 1}, {"lat": 23.8357, "lng": 126.1347, "id": "106687", "name": "Paguroidea", "sprite": "sp-american_lobster.png", "group": "crab_lobster", "rarity": 1}, {"lat": 26.4401, "lng": 127.5121, "id": "390131", "name": "Perinereis wilsoni", "sprite": "sp-anchoviella_juruasanga.png", "group": "other", "rarity": 1}, {"lat": 25.4, "lng": 126.5833, "id": "104819", "name": "Scolecithricella vittata", "sprite": "sp-anchoviella_juruasanga.png", "group": "other", "rarity": 1}, {"lat": 24.0959, "lng": 124.0817, "id": "138268", "name": "Octopus", "sprite": "sp-giant_pacific_octopus.png", "group": "octopus_squid", "rarity": 1}]}