{"zoom": 6, "x": 56, "y": 37, "points": [{"lat": -28.4805, "lng": 137.2989, "id": "366777", "name": "Recurvirostra novaehollandiae", "sprite": "sp-anchoviella_juruasanga.png", "group": "other", "rarity": 1}, {"lat": -29.55, "lng": 139.95, "id": "125549", "name": "Percichthyidae", "sprite": "sp-anchoviella_juruasanga.png", "group": "other", "rarity": 1}, {"lat": -28.5547, "lng": 138.9458, "id": "567421", "name": "Elseyornis melanops", "sprite": "sp-anchoviella_juruasanga.png", "group": "other", "rarity": 1}, {"lat": -28.12, "lng": 139.5472, "id": "225934", "name": "Numenius madagascariensis", "sprite": "sp-anchoviella_juruasanga.png", "group": "other", "rarity": 1}, {"lat": -30.4757, "lng": 138.482, "id": "137135", "name": "Chlidonias hybrida", "sprite": "sp-anchoviella_juruasanga.png", "group": "other", "rarity": 1}, {"lat": -30.0, "lng": 136.0, "id": "291683", "name": "Petricia vernicina", "sprite": "sp-sea_cucumber.png", "group": "starfish", "rarity": 1}, {"lat": -30.4286, "lng": 138.5653, "id": "343915", "name": "Larus novaehollandiae", "sprite": "sp-anchoviella_juruasanga.png", "group": "other", "rarity": 1}, {"lat": -29.483, "lng": 137.05, "id": "268866", "name": "Craterocephalus", "sprite": "sp-anchoviella_juruasanga.png", "group": "other", "rarity": 1}, {"lat": -31.0, "lng": 135.0, "id": "255001", "name": "Neophoca cinerea", "sprite": "sp-elephant_seal.png", "group": "seal", "rarity": 1}, {"lat": -30.2, "lng": 138.566, "id": "1485183", "name": "Melopsittacus undulatus", "sprite": "sp-anchoviella_juruasanga.png", "group": "other", "rarity": 1}, {"lat": -28.0717, "lng": 135.9067, "id": "2038", "name": "Enchytraeidae", "sprite": "sp-anchoviella_juruasanga.png", "group": "other", "rarity": 1}, {"lat": -29.4167, "lng": 139.3, "id": "127427", "name": "John dory", "thumb": "tn_Zefab_u7.jpg", "sprite": "sp-anchoviella_juruasanga.png", "group": "other", "rarity": 1, "waterType": "Brackish"}, {"lat": -31.82, "lng": 137.68, "id": "281653", "name": "Tarakihi", "thumb": "tn_Nemac_u0.jpg", "sprite": "sp-anchoviella_juruasanga.png", "group": "other", "rarity": 1, "waterType": "Saltwater"}, {"lat": -27.9554, "lng": 139.3733, "id": "137182", "name": "Podiceps cristatus", "sprite": "sp-anchoviella_juruasanga.png", "group": "other", "rarity": 1}, {"lat": -30.5765, "lng": 138.4041, "id": "225940", "name": "Phalacrocorax varius", "sprite": "sp-anchoviella_juruasanga.png", "group": "other", "rarity": 1}, {"lat": -30.4739, "lng": 138.2778, "id": "205500", "name": "Hypseleotris", "sprite": "sp-anchoviella_juruasanga.png", "group": "other", "rarity": 1}, {"lat": -30.48, "lng": 138.38, "id": "154582", "name": "Common carp", "thumb": "tn_Cycar_ua.jpg", "sprite": "sp-enteromius.png", "group": "carp_minnow", "rarity": 1, "waterType": "Brackish"}, {"lat": -30.1654, "lng": 139.2454, "id": "147434", "name": "Charadriidae", "sprite": "sp-anchoviella_juruasanga.png", "group": "other", "rarity": 1}, {"lat": -28.9472, "lng": 136.9302, "id": "343915", "name": "Larus novaehollandiae", "sprite": "sp-anchoviella_juruasanga.png", "group": "other", "rarity": 1}, {"lat": -30.1605, "lng": 138.4921, "id": "276134", "name": "Eastern mosquitofish", "thumb": "tn_Gahol_f0.jpg", "sprite": "sp-anchoviella_juruasanga.png", "group": "other", "rarity": 1, "waterType": "Brackish"}, {"lat": -30.0, "lng": 136.0, "id": "292754", "name": "Plectaster decanus", "sprite": "sp-sea_cucumber.png", "group": "starfish", "rarity": 1}, {"lat": -28.8583, "lng": 136.1636, "id": "1290456", "name": "Branchinella (Branchinella) affinis", "sprite": "sp-anchoviella_juruasanga.png", "group": "other", "rarity": 1}, {"lat": -30.383, "lng": 137.266, "id": "290886", "name": "Pseudoplumarella thetis", "sprite": "sp-actiniidae.png", "group": "coral", "rarity": 1}, {"lat": -28.5011, "lng": 137.3497, "id": "137047", "name": "Sterna", "sprite": "sp-anchoviella_juruasanga.png", "group": "other", "rarity": 1}, {"lat": -30.0, "lng": 136.0, "id": "123311", "name": "Fromia", "sprite": "sp-sea_cucumber.png", "group": "starfish", "rarity": 1}, {"lat": -29.1378, "lng": 136.568, "id": "212603", "name": "Actitis hypoleucos", "sprite": "sp-anchoviella_juruasanga.png", "group": "other", "rarity": 1}, {"lat": -30.6944, "lng": 137.3417, "id": "366847", "name": "Charadrius ruficapillus", "sprite": "sp-anchoviella_juruasanga.png", "group": "other", "rarity": 1}, {"lat": -30.0068, "lng": 137.1775, "id": "280416", "name": "Lake Eyre hardyhead", "sprite": "sp-anchoviella_juruasanga.png", "group": "other", "rarity": 1, "waterType": "Brackish"}, {"lat": -30.0, "lng": 136.0, "id": "381010", "name": "Echinaster arcystatus", "sprite": "sp-sea_cucumber.png", "group": "starfish", "rarity": 1}, {"lat": -27.79, "lng": 139.74, "id": "282569", "name": "Australian smelt", "thumb": "tn_Resem_u0.gif", "sprite": "sp-anchoviella_juruasanga.png", "group": "other", "rarity": 1, "waterType": "Brackish"}, {"lat": -30.433, "lng": 139.283, "id": "196117", "name": "Ceinidae", "sprite": "sp-american_lobster.png", "group": "crab_lobster", "rarity": 1}, {"lat": -30.7063, "lng": 136.7705, "id": "212601", "name": "Calidris ruficollis", "sprite": "sp-anchoviella_juruasanga.png", "group": "other", "rarity": 1}, {"lat": -29.5812, "lng": 137.4465, "id": "2036", "name": "Oligochaeta", "sprite": "sp-anchoviella_juruasanga.png", "group": "other", "rarity": 1}, {"lat": -27.18, "lng": 140.17, "id": "154298", "name": "Goldfish", "thumb": "tn_Caaurau1.jpg", "sprite": "sp-enteromius.png", "group": "carp_minnow", "rarity": 1, "waterType": "Brackish"}, {"lat": -28.7969, "lng": 137.0566, "id": "148798", "name": "Gelochelidon nilotica", "sprite": "sp-anchoviella_juruasanga.png", "group": "other", "rarity": 1}, {"lat": -29.42, "lng": 137.42, "id": "292860", "name": "Uniophora granifera", "sprite": "sp-sea_cucumber.png", "group": "starfish", "rarity": 1}, {"lat": -28.8401, "lng": 136.3887, "id": "1135", "name": "Amphipoda", "sprite": "sp-american_lobster.png", "group": "crab_lobster", "rarity": 1}, {"lat": -29.7722, "lng": 135.3811, "id": "567421", "name": "Elseyornis melanops", "sprite": "sp-anchoviella_juruasanga.png", "group": "other", "rarity": 1}, {"lat": -28.1133, "lng": 136.3419, "id": "343955", "name": "Phalacrocorax sulcirostris", "sprite": "sp-anchoviella_juruasanga.png", "group": "other", "rarity": 1}, {"lat": -30.6165, "lng": 136.4961, "id": "225955", "name": "Calidris acuminata", "sprite": "sp-anchoviella_juruasanga.png", "group": "other", "rarity": 1}, {"lat": -30.0, "lng": 136.0, "id": "178787", "name": "Coscinasterias calamaria", "sprite": "sp-sea_cucumber.png", "group": "starfish", "rarity": 1}, {"lat": -27.18, "lng": 140.17, "id": "154425", "name": "Plotosidae", "sprite": "sp-blue_catfish.png", "group": "catfish", "rarity": 1}, {"lat": -30.3682, "lng": 139.08, "id": "343934", "name": "Pelecanus conspicillatus", "sprite": "sp-anchoviella_juruasanga.png", "group": "other", "rarity": 1}, {"lat": -30.3047, "lng": 136.2148, "id": "159049", "name": "Calidris ferruginea", "sprite": "sp-anchoviella_juruasanga.png", "group": "other", "rarity": 1}, {"lat": -31.7167, "lng": 138.5333, "id": "282603", "name": "Greenback flounder", "thumb": "tn_Rhtap_u0.gif", "sprite": "sp-atlantic_halibut.png", "group": "flatfish", "rarity": 1, "waterType": "Brackish"}, {"lat": -30.0002, "lng": 136.2092, "id": "459553", "name": "Meridiastra oriens", "sprite": "sp-sea_cucumber.png", "group": "starfish", "rarity": 1}, {"lat": -29.6067, "lng": 139.0472, "id": "278454", "name": "Australian river gizzard shad", "thumb": "tn_Neere_j0.jpg", "sprite": "sp-anchoviella_juruasanga.png", "group": "other", "rarity": 1, "waterType": "Brackish"}, {"lat": -29.68, "lng": 136.3, "id": "278454", "name": "Australian river gizzard shad", "thumb": "tn_Neere_j0.jpg", "sprite": "sp-anchoviella_juruasanga.png", "group": "other", "rarity": 1, "waterType": "Brackish"}, {"lat": -29.42, "lng": 139.3, "id": "281653", "name": "Tarakihi", "thumb": "tn_Nemac_u0.jpg", "sprite": "sp-anchoviella_juruasanga.png", "group": "other", "rarity": 1, "waterType": "Saltwater"}, {"lat": -31.95, "lng": 138.15, "id": "225938", "name": "Chenonetta jubata", "sprite": "sp-anchoviella_juruasanga.png", "group": "other", "rarity": 1}, {"lat": -28.823, "lng": 136.881, "id": "212623", "name": "Tringa stagnatilis", "sprite": "sp-anchoviella_juruasanga.png", "group": "other", "rarity": 1}, {"lat": -30.6427, "lng": 138.4541, "id": "343955", "name": "Phalacrocorax sulcirostris", "sprite": "sp-anchoviella_juruasanga.png", "group": "other", "rarity": 1}, {"lat": -30.7425, "lng": 139.5602, "id": "212601", "name": "Calidris ruficollis", "sprite": "sp-anchoviella_juruasanga.png", "group": "other", "rarity": 1}, {"lat": -30.005, "lng": 140.6242, "id": "882", "name": "Annelida", "sprite": "sp-anchoviella_juruasanga.png", "group": "other", "rarity": 1}, {"lat": -29.63, "lng": 137.57, "id": "282428", "name": "Bluespot goby", "thumb": "tn_Psolo_u0.jpg", "sprite": "sp-eviota_bipunctata.png", "group": "goby", "rarity": 1, "waterType": "Brackish"}, {"lat": -28.4683, "lng": 138.9637, "id": "225955", "name": "Calidris acuminata", "sprite": "sp-anchoviella_juruasanga.png", "group": "other", "rarity": 1}, {"lat": -28.1157, "lng": 135.8784, "id": "281283", "name": "Spangled perch", "thumb": "tn_Leuni_u0.jpg", "sprite": "sp-anchoviella_juruasanga.png", "group": "other", "rarity": 1, "waterType": "Brackish"}, {"lat": -28.8917, "lng": 137.3517, "id": "261255", "name": "Micromesus nannoniscoides", "sprite": "sp-american_lobster.png", "group": "crab_lobster", "rarity": 1}, {"lat": -30.41, "lng": 138.3974, "id": "366619", "name": "Poliocephalus poliocephalus", "sprite": "sp-anchoviella_juruasanga.png", "group": "other", "rarity": 1}, {"lat": -30.7849, "lng": 137.5745, "id": "366775", "name": "Cladorhynchus leucocephalus", "sprite": "sp-anchoviella_juruasanga.png", "group": "other", "rarity": 1}, {"lat": -28.7679, "lng": 138.5557, "id": "281283", "name": "Spangled perch", "thumb": "tn_Leuni_u0.jpg", "sprite": "sp-anchoviella_juruasanga.png", "group": "other", "rarity": 1, "waterType": "Brackish"}, {"lat": -29.1002, "lng": 136.5095, "id": "158968", "name": "Tringa nebularia", "sprite": "sp-anchoviella_juruasanga.png", "group": "other", "rarity": 1}, {"lat": -30.0, "lng": 136.0349, "id": "459548", "name": "Meridiastra gunnii", "sprite": "sp-sea_cucumber.png", "group": "starfish", "rarity": 1}, {"lat": -28.9951, "lng": 136.44, "id": "1290506", "name": "Branchinella (Branchinella) simplex", "sprite": "sp-anchoviella_juruasanga.png", "group": "other", "rarity": 1}, {"lat": -28.6158, "lng": 138.8396, "id": "148798", "name": "Gelochelidon nilotica", "sprite": "sp-anchoviella_juruasanga.png", "group": "other", "rarity": 1}, {"lat": -30.0, "lng": 136.0, "id": "254906", "name": "Nectria ocellata", "sprite": "sp-sea_cucumber.png", "group": "starfish", "rarity": 1}, {"lat": -28.8569, "lng": 136.4037, "id": "366619", "name": "Poliocephalus poliocephalus", "sprite": "sp-anchoviella_juruasanga.png", "group": "other", "rarity": 1}, {"lat": -31.1496, "lng": 138.6995, "id": "160343", "name": "Lymnaeidae", "sprite": "sp-cowrie_shell.png", "group": "sea_snail", "rarity": 1}, {"lat": -28.4083, "lng": 137.5497, "id": "212609", "name": "Himantopus himantopus", "sprite": "sp-anchoviella_juruasanga.png", "group": "other", "rarity": 1}, {"lat": -28.568, "lng": 137.301, "id": "137179", "name": "Phalacrocorax carbo", "sprite": "sp-anchoviella_juruasanga.png", "group": "other", "rarity": 1}, {"lat": -29.3807, "lng": 136.7822, "id": "1599511", "name": "Reticypris walbu", "sprite": "sp-anchoviella_juruasanga.png", "group": "other", "rarity": 1}, {"lat": -30.0, "lng": 138.0, "id": "292764", "name": "Anthaster valvulatus", "sprite": "sp-sea_cucumber.png", "group": "starfish", "rarity": 1}, {"lat": -31.27, "lng": 140.38, "id": "160008", "name": "Glossiphoniidae", "sprite": "sp-anchoviella_juruasanga.png", "group": "other", "rarity": 1}, {"lat": -28.3959, "lng": 138.897, "id": "366777", "name": "Recurvirostra novaehollandiae", "sprite": "sp-anchoviella_juruasanga.png", "group": "other", "rarity": 1}, {"lat": -28.2416, "lng": 139.3394, "id": "137047", "name": "Sterna", "sprite": "sp-anchoviella_juruasanga.png", "group": "other", "rarity": 1}, {"lat": -27.9167, "lng": 137.3833, "id": "125549", "name": "Percichthyidae", "sprite": "sp-anchoviella_juruasanga.png", "group": "other", "rarity": 1}, {"lat": -29.3833, "lng": 137.7667, "id": "567416", "name": "Erythrogonys cinctus", "sprite": "sp-anchoviella_juruasanga.png", "group": "other", "rarity": 1}, {"lat": -28.9693, "lng": 136.9307, "id": "137135", "name": "Chlidonias hybrida", "sprite": "sp-anchoviella_juruasanga.png", "group": "other", "rarity": 1}, {"lat": -28.3121, "lng": 139.1096, "id": "137179", "name": "Phalacrocorax carbo", "sprite": "sp-anchoviella_juruasanga.png", "group": "other", "rarity": 1}, {"lat": -28.3683, "lng": 139.1233, "id": "212609", "name": "Himantopus himantopus", "sprite": "sp-anchoviella_juruasanga.png", "group": "other", "rarity": 1}, {"lat": -30.59, "lng": 136.7256, "id": "343934", "name": "Pelecanus conspicillatus", "sprite": "sp-anchoviella_juruasanga.png", "group": "other", "rarity": 1}, {"lat": -28.0, "lng": 136.0, "id": "1494898", "name": "Haliastur sphenurus", "sprite": "sp-anchoviella_juruasanga.png", "group": "other", "rarity": 1}, {"lat": -30.1, "lng": 135.383, "id": "1290463", "name": "Branchinella (Branchinella) australiensis", "sprite": "sp-anchoviella_juruasanga.png", "group": "other", "rarity": 1}, {"lat": -29.6733, "lng": 137.8279, "id": "1135", "name": "Amphipoda", "sprite": "sp-american_lobster.png", "group": "crab_lobster", "rarity": 1}, {"lat": -30.7018, "lng": 136.7622, "id": "148798", "name": "Gelochelidon nilotica", "sprite": "sp-anchoviella_juruasanga.png", "group": "other", "rarity": 1}, {"lat": -30.0, "lng": 136.0, "id": "459547", "name": "Meridiastra calcar", "sprite": "sp-sea_cucumber.png", "group": "starfish", "rarity": 1}, {"lat": -30.383, "lng": 137.266, "id": "267499", "name": "Iciligorgia", "sprite": "sp-actiniidae.png", "group": "coral", "rarity": 1}, {"lat": -30.1723, "lng": 139.8473, "id": "366777", "name": "Recurvirostra novaehollandiae", "sprite": "sp-anchoviella_juruasanga.png", "group": "other", "rarity": 1}, {"lat": -28.0573, "lng": 135.9258, "id": "276134", "name": "Eastern mosquitofish", "thumb": "tn_Gahol_f0.jpg", "sprite": "sp-anchoviella_juruasanga.png", "group": "other", "rarity": 1, "waterType": "Brackish"}, {"lat": -28.3636, "lng": 138.809, "id": "225983", "name": "Phalacrocorax melanoleucos", "sprite": "sp-anchoviella_juruasanga.png", "group": "other", "rarity": 1}, {"lat": -28.8568, "lng": 136.0952, "id": "147434", "name": "Charadriidae", "sprite": "sp-anchoviella_juruasanga.png", "group": "other", "rarity": 1}, {"lat": -29.4504, "lng": 136.8501, "id": "1599502", "name": "Ngarawa dirga", "sprite": "sp-anchoviella_juruasanga.png", "group": "other", "rarity": 1}, {"lat": -30.8185, "lng": 136.715, "id": "225983", "name": "Phalacrocorax melanoleucos", "sprite": "sp-anchoviella_juruasanga.png", "group": "other", "rarity": 1}, {"lat": -27.2167, "lng": 135.317, "id": "137886", "name": "Dentalium", "sprite": "sp-anchoviella_juruasanga.png", "group": "other", "rarity": 1}, {"lat": -29.5963, "lng": 137.4409, "id": "1135", "name": "Amphipoda", "sprite": "sp-american_lobster.png", "group": "crab_lobster", "rarity": 1}, {"lat": -27.5346, "lng": 139.8398, "id": "204831", "name": "Ambassis", "sprite": "sp-anchoviella_juruasanga.png", "group": "other", "rarity": 1}, {"lat": -29.4333, "lng": 136.8317, "id": "120", "name": "Hydrobiidae", "sprite": "sp-cowrie_shell.png", "group": "sea_snail", "rarity": 1}, {"lat": -28.0821, "lng": 139.532, "id": "159049", "name": "Calidris ferruginea", "sprite": "sp-anchoviella_juruasanga.png", "group": "other", "rarity": 1}, {"lat": -30.4617, "lng": 138.6053, "id": "567825", "name": "Hydroprogne caspia", "sprite": "sp-anchoviella_juruasanga.png", "group": "other", "rarity": 1}, {"lat": -28.7637, "lng": 136.4331, "id": "1040936", "name": "Antipodrilus davidis", "sprite": "sp-anchoviella_juruasanga.png", "group": "other", "rarity": 1}, {"lat": -28.6291, "lng": 137.5798, "id": "225940", "name": "Phalacrocorax varius", "sprite": "sp-anchoviella_juruasanga.png", "group": "other", "rarity": 1}, {"lat": -28.6228, "lng": 138.3545, "id": "280416", "name": "Lake Eyre hardyhead", "sprite": "sp-anchoviella_juruasanga.png", "group": "other", "rarity": 1, "waterType": "Brackish"}, {"lat": -30.2235, "lng": 139.7576, "id": "366775", "name": "Cladorhynchus leucocephalus", "sprite": "sp-anchoviella_juruasanga.png", "group": "other", "rarity": 1}, {"lat": -28.4623, "lng": 138.4478, "id": "366847", "name": "Charadrius ruficapillus", "sprite": "sp-anchoviella_juruasanga.png", "group": "other", "rarity": 1}, {"lat": -30.8992, "lng": 138.566, "id": "101", "name": "Gastropoda", "sprite": "sp-cowrie_shell.png", "group": "sea_snail", "rarity": 1}, {"lat": -28.8417, "lng": 140.1667, "id": "226113", "name": "Notomysis", "sprite": "sp-american_lobster.png", "group": "crab_lobster", "rarity": 1}, {"lat": -28.3596, "lng": 137.0377, "id": "567825", "name": "Hydroprogne caspia", "sprite": "sp-anchoviella_juruasanga.png", "group": "other", "rarity": 1}, {"lat": -29.8902, "lng": 140.3563, "id": "567416", "name": "Erythrogonys cinctus", "sprite": "sp-anchoviella_juruasanga.png", "group": "other", "rarity": 1}, {"lat": -28.6556, "lng": 139.1366, "id": "158968", "name": "Tringa nebularia", "sprite": "sp-anchoviella_juruasanga.png", "group": "other", "rarity": 1}, {"lat": -29.4513, "lng": 136.7017, "id": "268756", "name": "Chlamydogobius", "sprite": "sp-eviota_bipunctata.png", "group": "goby", "rarity": 1}, {"lat": -29.666, "lng": 140.016, "id": "505866", "name": "Corbula ovalina", "sprite": "sp-blue_mussel.png", "group": "clam_mussel", "rarity": 1}, {"lat": -28.5577, "lng": 138.939, "id": "147434", "name": "Charadriidae", "sprite": "sp-anchoviella_juruasanga.png", "group": "other", "rarity": 1}, {"lat": -29.4691, "lng": 137.0265, "id": "1601361", "name": "Limnadopsis birchii", "sprite": "sp-anchoviella_juruasanga.png", "group": "other", "rarity": 1}, {"lat": -30.0, "lng": 136.0, "id": "459140", "name": "Tegulaster leptalacantha", "sprite": "sp-sea_cucumber.png", "group": "starfish", "rarity": 1}, {"lat": -28.8917, "lng": 137.3517, "id": "255749", "name": "Eurycope linearis", "sprite": "sp-american_lobster.png", "group": "crab_lobster", "rarity": 1}, {"lat": -31.2656, "lng": 139.5325, "id": "343995", "name": "Thalassarche melanophris", "sprite": "sp-anchoviella_juruasanga.png", "group": "other", "rarity": 1}, {"lat": -29.9915, "lng": 139.1307, "id": "366847", "name": "Charadrius ruficapillus", "sprite": "sp-anchoviella_juruasanga.png", "group": "other", "rarity": 1}, {"lat": -28.4778, "lng": 139.0037, "id": "366775", "name": "Cladorhynchus leucocephalus", "sprite": "sp-anchoviella_juruasanga.png", "group": "other", "rarity": 1}, {"lat": -27.1886, "lng": 140.152, "id": "147433", "name": "Calidris canutus", "sprite": "sp-anchoviella_juruasanga.png", "group": "other", "rarity": 1}, {"lat": -30.9667, "lng": 139.2167, "id": "226113", "name": "Notomysis", "sprite": "sp-american_lobster.png", "group": "crab_lobster", "rarity": 1}]}