{"zoom": 6, "x": 57, "y": 22, "points": [{"lat": 45.1942, "lng": 141.1419, "id": "145310", "name": "Desmarestia viridis", "sprite": "sp-anchoviella_juruasanga.png", "group": "other", "rarity": 1}, {"lat": 45.1583, "lng": 141.775, "id": "154298", "name": "Goldfish", "thumb": "tn_Caaurau1.jpg", "sprite": "sp-enteromius.png", "group": "carp_minnow", "rarity": 1, "waterType": "Brackish"}, {"lat": 46.0778, "lng": 142.4583, "id": "254389", "name": "Dragon poacher", "thumb": "tn_Pejap_u3.jpg", "sprite": "sp-anchoviella_juruasanga.png", "group": "other", "rarity": 1, "waterType": "Saltwater"}, {"lat": 46.4328, "lng": 143.7439, "id": "126152", "name": "Myoxocephalus", "sprite": "sp-anchoviella_juruasanga.png", "group": "other", "rarity": 1}, {"lat": 46.4148, "lng": 141.9706, "id": "124934", "name": "Ophiura sarsii", "sprite": "sp-sea_cucumber.png", "group": "starfish", "rarity": 1}, {"lat": 45.6898, "lng": 142.5232, "id": "320038", "name": "Japanese huchen", "thumb": "tn_Huper_u1.jpg", "sprite": "sp-atlantic_salmon.png", "group": "salmon_trout", "rarity": 1, "waterType": "Brackish"}, {"lat": 45.1333, "lng": 143.8333, "id": "148942", "name": "Thalassiosira rotula", "sprite": "sp-anchoviella_juruasanga.png", "group": "other", "rarity": 1}, {"lat": 47.5, "lng": 144.5, "id": "344104", "name": "Phoebastria immutabilis", "sprite": "sp-anchoviella_juruasanga.png", "group": "other", "rarity": 1}, {"lat": 45.5083, "lng": 141.85, "id": "240731", "name": "Hexagrammos", "sprite": "sp-anchoviella_juruasanga.png", "group": "other", "rarity": 1}, {"lat": 45.5083, "lng": 141.9, "id": "279425", "name": "Porocottus allisi", "sprite": "sp-anchoviella_juruasanga.png", "group": "other", "rarity": 1, "waterType": "Saltwater"}, {"lat": 46.495, "lng": 142.5906, "id": "131119", "name": "Dipolydora giardi", "sprite": "sp-anchoviella_juruasanga.png", "group": "other", "rarity": 1}, {"lat": 45.1945, "lng": 141.1421, "id": "372163", "name": "Pneophyllum zostericola", "sprite": "sp-anchoviella_juruasanga.png", "group": "other", "rarity": 1}, {"lat": 46.6453, "lng": 142.4281, "id": "282581", "name": "Amur goby", "thumb": "tn_Rhbru_u2.jpg", "sprite": "sp-eviota_bipunctata.png", "group": "goby", "rarity": 1, "waterType": "Brackish"}, {"lat": 45.7122, "lng": 141.3462, "id": "274286", "name": "Blackfin flounder", "thumb": "tn_Glste_u0.jpg", "sprite": "sp-atlantic_halibut.png", "group": "flatfish", "rarity": 1, "waterType": "Saltwater"}, {"lat": 46.13, "lng": 146.005, "id": "1292", "name": "Anthozoa", "sprite": "sp-actiniidae.png", "group": "coral", "rarity": 1}, {"lat": 45.2, "lng": 141.1333, "id": "371980", "name": "Alaria paradisea", "sprite": "sp-anchoviella_juruasanga.png", "group": "other", "rarity": 1}, {"lat": 45.8333, "lng": 143.7167, "id": "103105", "name": "Stegocephalus inflatus", "sprite": "sp-american_lobster.png", "group": "crab_lobster", "rarity": 1}, {"lat": 47.6444, "lng": 141.4083, "id": "713967", "name": "Thaumatometra tenuis", "sprite": "sp-sea_cucumber.png", "group": "starfish", "rarity": 1}, {"lat": 45.15, "lng": 144.0722, "id": "274443", "name": "Careproctus marginatus", "thumb": "tn_Camar_ug.jpg", "sprite": "sp-anchoviella_juruasanga.png", "group": "other", "rarity": 1, "waterType": "Saltwater"}, {"lat": 45.15, "lng": 144.0722, "id": "126103", "name": "Lycenchelys", "sprite": "sp-anchoviella_juruasanga.png", "group": "other", "rarity": 1}, {"lat": 45.1945, "lng": 141.1421, "id": "232229", "name": "Lithophyllum yessoense", "sprite": "sp-anchoviella_juruasanga.png", "group": "other", "rarity": 1}, {"lat": 48.5917, "lng": 145.3333, "id": "423140", "name": "Anonyx eous", "sprite": "sp-american_lobster.png", "group": "crab_lobster", "rarity": 1}, {"lat": 45.4488, "lng": 141.6478, "id": "157151", "name": "Melanosiphon intestinalis", "sprite": "sp-anchoviella_juruasanga.png", "group": "other", "rarity": 1}, {"lat": 45.3332, "lng": 144.9917, "id": "160529", "name": "Nitzschia pungens", "sprite": "sp-anchoviella_juruasanga.png", "group": "other", "rarity": 1}, {"lat": 45.1945, "lng": 141.1421, "id": "660661", "name": "Ulva australis", "sprite": "sp-anchoviella_juruasanga.png", "group": "other", "rarity": 1}, {"lat": 47.9944, "lng": 142.4014, "id": "102514", "name": "Anonyx nugax", "sprite": "sp-american_lobster.png", "group": "crab_lobster", "rarity": 1}, {"lat": 45.11, "lng": 144.1294, "id": "254406", "name": "Darkfin sculpin", "thumb": "tn_Mazon_u0.jpg", "sprite": "sp-anchoviella_juruasanga.png", "group": "other", "rarity": 1, "waterType": "Saltwater"}, {"lat": 48.4621, "lng": 144.1749, "id": "242652", "name": "Amphiodia craterodmeta", "sprite": "sp-sea_cucumber.png", "group": "starfish", "rarity": 1}, {"lat": 45.14, "lng": 141.13, "id": "371996", "name": "Syringoderma abyssicola", "sprite": "sp-anchoviella_juruasanga.png", "group": "other", "rarity": 1}, {"lat": 46.8372, "lng": 144.0447, "id": "282581", "name": "Amur goby", "thumb": "tn_Rhbru_u2.jpg", "sprite": "sp-eviota_bipunctata.png", "group": "goby", "rarity": 1, "waterType": "Brackish"}, {"lat": 45.2367, "lng": 143.5767, "id": "254579", "name": "Snake prickleback", "thumb": "tn_Lusag_u0.jpg", "sprite": "sp-anchoviella_juruasanga.png", "group": "other", "rarity": 1, "waterType": "Saltwater"}, {"lat": 48.3623, "lng": 146.0345, "id": "918", "name": "Chaetopteridae", "sprite": "sp-anchoviella_juruasanga.png", "group": "other", "rarity": 1}, {"lat": 45.8377, "lng": 144.5, "id": "196771", "name": "Calanus pacificus", "sprite": "sp-anchoviella_juruasanga.png", "group": "other", "rarity": 1}, {"lat": 45.1947, "lng": 141.1424, "id": "413540", "name": "Cladophora opaca", "sprite": "sp-anchoviella_juruasanga.png", "group": "other", "rarity": 1}, {"lat": 46.4917, "lng": 145.767, "id": "104632", "name": "Metridia longa", "sprite": "sp-anchoviella_juruasanga.png", "group": "other", "rarity": 1}, {"lat": 48.802, "lng": 143.508, "id": "1255499", "name": "Wecomedon kurilicus", "sprite": "sp-american_lobster.png", "group": "crab_lobster", "rarity": 1}, {"lat": 45.1948, "lng": 141.1424, "id": "374118", "name": "Silvetia babingtonii", "sprite": "sp-anchoviella_juruasanga.png", "group": "other", "rarity": 1}, {"lat": 48.3355, "lng": 144.0705, "id": "102722", "name": "Socarnes bidenticulatus", "sprite": "sp-american_lobster.png", "group": "crab_lobster", "rarity": 1}, {"lat": 48.0942, "lng": 144.235, "id": "137741", "name": "Serripes", "sprite": "sp-blue_mussel.png", "group": "clam_mussel", "rarity": 1}, {"lat": 46.6917, "lng": 143.9611, "id": "107006", "name": "Argis", "sprite": "sp-american_lobster.png", "group": "crab_lobster", "rarity": 1}, {"lat": 46.333, "lng": 142.833, "id": "1307579", "name": "Alamprops quadriplicatus", "sprite": "sp-american_lobster.png", "group": "crab_lobster", "rarity": 1}, {"lat": 45.4639, "lng": 140.9, "id": "117692", "name": "Grammaria abietina", "sprite": "sp-anchoviella_juruasanga.png", "group": "other", "rarity": 1}, {"lat": 46.7417, "lng": 143.75, "id": "117870", "name": "Abietinaria abietina", "sprite": "sp-anchoviella_juruasanga.png", "group": "other", "rarity": 1}, {"lat": 47.0514, "lng": 142.0447, "id": "125776", "name": "Pungitius", "sprite": "sp-anchoviella_juruasanga.png", "group": "other", "rarity": 1}, {"lat": 45.1948, "lng": 141.1425, "id": "371890", "name": "Analipus filiformis", "sprite": "sp-anchoviella_juruasanga.png", "group": "other", "rarity": 1}, {"lat": 45.44, "lng": 141.01, "id": "759947", "name": "Megasyllis nipponica", "sprite": "sp-anchoviella_juruasanga.png", "group": "other", "rarity": 1}, {"lat": 48.6028, "lng": 145.2917, "id": "274467", "name": "Round snailfish", "sprite": "sp-anchoviella_juruasanga.png", "group": "other", "rarity": 1, "waterType": "Saltwater"}, {"lat": 45.5083, "lng": 141.9, "id": "279833", "name": "Tubenose", "thumb": "tn_Aujap_u0.jpg", "sprite": "sp-anchoviella_juruasanga.png", "group": "other", "rarity": 1, "waterType": "Saltwater"}, {"lat": 45.4833, "lng": 141.8833, "id": "279946", "name": "Bothragonus occidentalis", "thumb": "tn_Boocc_u0.jpg", "sprite": "sp-anchoviella_juruasanga.png", "group": "other", "rarity": 1, "waterType": "Saltwater"}, {"lat": 45.425, "lng": 140.8832, "id": "117246", "name": "Stylaster", "sprite": "sp-anchoviella_juruasanga.png", "group": "other", "rarity": 1}, {"lat": 45.2733, "lng": 143.1842, "id": "280488", "name": "Spinyhead sculpin", "thumb": "tn_Daset_u0.jpg", "sprite": "sp-anchoviella_juruasanga.png", "group": "other", "rarity": 1, "waterType": "Saltwater"}, {"lat": 45.333, "lng": 145.0, "id": "156607", "name": "Chaetoceros concavicornis", "sprite": "sp-anchoviella_juruasanga.png", "group": "other", "rarity": 1}, {"lat": 45.6017, "lng": 140.9078, "id": "273988", "name": "Anisarchus macrops", "sprite": "sp-anchoviella_juruasanga.png", "group": "other", "rarity": 1, "waterType": "Saltwater"}, {"lat": 46.4917, "lng": 145.767, "id": "344701", "name": "Neocalanus tonsus", "sprite": "sp-anchoviella_juruasanga.png", "group": "other", "rarity": 1}, {"lat": 48.725, "lng": 144.9458, "id": "274292", "name": "Sakhalin sole", "thumb": "tn_Lisak_u0.jpg", "sprite": "sp-atlantic_halibut.png", "group": "flatfish", "rarity": 1, "waterType": "Saltwater"}, {"lat": 48.0389, "lng": 145.5603, "id": "254974", "name": "Eubalaena japonica", "sprite": "sp-blue_whale.png", "group": "whale", "rarity": 1}, {"lat": 46.6092, "lng": 142.9308, "id": "744418", "name": "Megamoera falsomikulitschae", "sprite": "sp-american_lobster.png", "group": "crab_lobster", "rarity": 1}, {"lat": 46.1147, "lng": 146.0058, "id": "1517163", "name": "Oedicerina claudei", "sprite": "sp-american_lobster.png", "group": "crab_lobster", "rarity": 1}, {"lat": 46.4917, "lng": 145.767, "id": "104546", "name": "Subeucalanus mucronatus", "sprite": "sp-anchoviella_juruasanga.png", "group": "other", "rarity": 1}, {"lat": 46.1503, "lng": 145.9987, "id": "138673", "name": "Yoldiella", "sprite": "sp-blue_mussel.png", "group": "clam_mussel", "rarity": 1}, {"lat": 45.1, "lng": 143.725, "id": "124128", "name": "Diplopteraster multipes", "sprite": "sp-sea_cucumber.png", "group": "starfish", "rarity": 1}, {"lat": 45.635, "lng": 141.317, "id": "526364", "name": "Lepidepecreum comatum", "sprite": "sp-american_lobster.png", "group": "crab_lobster", "rarity": 1}, {"lat": 48.223, "lng": 144.472, "id": "416573", "name": "Byblis gaimardii", "sprite": "sp-american_lobster.png", "group": "crab_lobster", "rarity": 1}, {"lat": 46.1998, "lng": 142.9234, "id": "274292", "name": "Sakhalin sole", "thumb": "tn_Lisak_u0.jpg", "sprite": "sp-atlantic_halibut.png", "group": "flatfish", "rarity": 1, "waterType": "Saltwater"}, {"lat": 46.2831, "lng": 142.8883, "id": "254561", "name": "Bering flounder", "sprite": "sp-atlantic_halibut.png", "group": "flatfish", "rarity": 1, "waterType": "Saltwater"}, {"lat": 46.1503, "lng": 145.9987, "id": "137858", "name": "Cuspidaria", "sprite": "sp-blue_mussel.png", "group": "clam_mussel", "rarity": 1}, {"lat": 46.3404, "lng": 142.9691, "id": "279477", "name": "Acanthogobius lactipes", "thumb": "tn_Aclac_u0.jpg", "sprite": "sp-eviota_bipunctata.png", "group": "goby", "rarity": 1, "waterType": "Brackish"}, {"lat": 48.5458, "lng": 145.125, "id": "274106", "name": "Lycodes macrolepis", "sprite": "sp-anchoviella_juruasanga.png", "group": "other", "rarity": 1, "waterType": "Saltwater"}, {"lat": 45.425, "lng": 141.85, "id": "1605262", "name": "Myzopsetta punctatissima", "sprite": "sp-atlantic_halibut.png", "group": "flatfish", "rarity": 1}, {"lat": 48.6408, "lng": 145.1036, "id": "158359", "name": "Eualus macilentus", "sprite": "sp-american_lobster.png", "group": "crab_lobster", "rarity": 1}, {"lat": 46.277, "lng": 143.6687, "id": "254725", "name": "Ampelisca birulai", "sprite": "sp-american_lobster.png", "group": "crab_lobster", "rarity": 1}, {"lat": 45.1103, "lng": 144.1294, "id": "271535", "name": "Golden skate", "sprite": "sp-himantura_australis.png", "group": "ray", "rarity": 1, "waterType": "Saltwater"}, {"lat": 46.13, "lng": 146.005, "id": "101", "name": "Gastropoda", "sprite": "sp-cowrie_shell.png", "group": "sea_snail", "rarity": 1}, {"lat": 46.7265, "lng": 143.9167, "id": "107013", "name": "Sclerocrangon", "sprite": "sp-american_lobster.png", "group": "crab_lobster", "rarity": 1}, {"lat": 48.725, "lng": 144.9458, "id": "117922", "name": "Sertularia plumosa", "sprite": "sp-anchoviella_juruasanga.png", "group": "other", "rarity": 1}, {"lat": 45.2332, "lng": 144.4167, "id": "148912", "name": "Thalassiosira", "sprite": "sp-anchoviella_juruasanga.png", "group": "other", "rarity": 1}, {"lat": 46.6944, "lng": 143.9611, "id": "239996", "name": "Nymphon hodgsoni", "sprite": "sp-anchoviella_juruasanga.png", "group": "other", "rarity": 1}, {"lat": 45.967, "lng": 143.772, "id": "102947", "name": "Pardalisca cuspidata", "sprite": "sp-american_lobster.png", "group": "crab_lobster", "rarity": 1}, {"lat": 48.4583, "lng": 145.392, "id": "300735", "name": "Alaska pollock", "thumb": "tn_Thcha_u0.jpg", "sprite": "sp-arctogadus.png", "group": "cod", "rarity": 1, "waterType": "Unknown"}, {"lat": 46.1503, "lng": 145.9987, "id": "506012", "name": "Dacrydium rostriferum", "sprite": "sp-blue_mussel.png", "group": "clam_mussel", "rarity": 1}, {"lat": 46.802, "lng": 143.685, "id": "369094", "name": "Henricia ambigua", "sprite": "sp-sea_cucumber.png", "group": "starfish", "rarity": 1}, {"lat": 45.15, "lng": 144.0722, "id": "274123", "name": "Lycodes soldatovi", "thumb": "tn_Lysol_u0.jpg", "sprite": "sp-anchoviella_juruasanga.png", "group": "other", "rarity": 1, "waterType": "Saltwater"}, {"lat": 46.1248, "lng": 146.0026, "id": "1043791", "name": "Nebaliella ochotica", "sprite": "sp-american_lobster.png", "group": "crab_lobster", "rarity": 1}, {"lat": 48.6824, "lng": 145.0764, "id": "240156", "name": "Nymphon braschnikowi", "sprite": "sp-anchoviella_juruasanga.png", "group": "other", "rarity": 1}, {"lat": 45.1944, "lng": 141.142, "id": "372436", "name": "Neohypophyllum middendorffii", "sprite": "sp-anchoviella_juruasanga.png", "group": "other", "rarity": 1}, {"lat": 45.4722, "lng": 141.8111, "id": "154570", "name": "Steller's sculpin", "thumb": "tn_Myste_u0.jpg", "sprite": "sp-anchoviella_juruasanga.png", "group": "other", "rarity": 1, "waterType": "Brackish"}, {"lat": 46.15, "lng": 146.0, "id": "515583", "name": "Neocrangon abyssorum", "sprite": "sp-american_lobster.png", "group": "crab_lobster", "rarity": 1}, {"lat": 46.1272, "lng": 142.3861, "id": "154781", "name": "Starry flounder", "thumb": "tn_Plste_u1.jpg", "sprite": "sp-atlantic_halibut.png", "group": "flatfish", "rarity": 1, "waterType": "Brackish"}, {"lat": 45.9939, "lng": 141.4556, "id": "254580", "name": "Neozoarces steindachneri", "sprite": "sp-anchoviella_juruasanga.png", "group": "other", "rarity": 1, "waterType": "Saltwater"}, {"lat": 46.3083, "lng": 143.094, "id": "280406", "name": "Cottiusculus gonez", "sprite": "sp-anchoviella_juruasanga.png", "group": "other", "rarity": 1, "waterType": "Saltwater"}, {"lat": 46.4917, "lng": 145.7667, "id": "117860", "name": "Pantachogon haeckeli", "sprite": "sp-anchoviella_juruasanga.png", "group": "other", "rarity": 1}, {"lat": 45.1833, "lng": 141.2333, "id": "367712", "name": "Agonomalus jordani", "sprite": "sp-anchoviella_juruasanga.png", "group": "other", "rarity": 1, "waterType": "Saltwater"}, {"lat": 45.5833, "lng": 140.9167, "id": "1337", "name": "Hydrozoa", "sprite": "sp-anchoviella_juruasanga.png", "group": "other", "rarity": 1}, {"lat": 48.0, "lng": 143.667, "id": "181923", "name": "Diastylis alaskensis", "sprite": "sp-american_lobster.png", "group": "crab_lobster", "rarity": 1}, {"lat": 47.533, "lng": 143.635, "id": "103121", "name": "Metopa clypeata", "sprite": "sp-american_lobster.png", "group": "crab_lobster", "rarity": 1}, {"lat": 45.4639, "lng": 140.9, "id": "291222", "name": "Thyroscyphoides biformis", "sprite": "sp-anchoviella_juruasanga.png", "group": "other", "rarity": 1}, {"lat": 46.375, "lng": 142.8468, "id": "274529", "name": "Liparis ochotensis", "thumb": "tn_Lioch_u0.jpg", "sprite": "sp-anchoviella_juruasanga.png", "group": "other", "rarity": 1, "waterType": "Saltwater"}, {"lat": 45.8392, "lng": 144.9223, "id": "196779", "name": "Paraeuchaeta elongata", "sprite": "sp-anchoviella_juruasanga.png", "group": "other", "rarity": 1}, {"lat": 47.7122, "lng": 142.6827, "id": "159049", "name": "Calidris ferruginea", "sprite": "sp-anchoviella_juruasanga.png", "group": "other", "rarity": 1}, {"lat": 46.2967, "lng": 141.25, "id": "289916", "name": "Errinopora stylifera", "sprite": "sp-anchoviella_juruasanga.png", "group": "other", "rarity": 1}, {"lat": 46.6917, "lng": 143.9611, "id": "243676", "name": "Ophiolebes asaphes", "sprite": "sp-sea_cucumber.png", "group": "starfish", "rarity": 1}, {"lat": 46.815, "lng": 143.846, "id": "242949", "name": "Amphiura inepta", "sprite": "sp-sea_cucumber.png", "group": "starfish", "rarity": 1}, {"lat": 47.547, "lng": 144.1275, "id": "422988", "name": "Ampelisca furcigera", "sprite": "sp-american_lobster.png", "group": "crab_lobster", "rarity": 1}, {"lat": 46.433, "lng": 143.653, "id": "423444", "name": "Hippomedon punctatus", "sprite": "sp-american_lobster.png", "group": "crab_lobster", "rarity": 1}, {"lat": 47.0, "lng": 142.5, "id": "107315", "name": "Chionoecetes opilio", "sprite": "sp-american_lobster.png", "group": "crab_lobster", "rarity": 1}, {"lat": 45.15, "lng": 144.0722, "id": "254351", "name": "Longsnout prickleback", "thumb": "tn_Lulon_u0.jpg", "sprite": "sp-anchoviella_juruasanga.png", "group": "other", "rarity": 1, "waterType": "Saltwater"}, {"lat": 45.517, "lng": 142.9, "id": "759013", "name": "Clinopegma hirsutum", "sprite": "sp-cowrie_shell.png", "group": "sea_snail", "rarity": 1}, {"lat": 45.3556, "lng": 142.05, "id": "278424", "name": "Takifugu porphyreus", "thumb": "tn_Tapor_u0.jpg", "sprite": "sp-fahaka_pufferfish.png", "group": "pufferfish", "rarity": 1, "waterType": "Saltwater"}, {"lat": 47.5353, "lng": 141.747, "id": "282981", "name": "Tilesina gibbosa", "sprite": "sp-anchoviella_juruasanga.png", "group": "other", "rarity": 1, "waterType": "Saltwater"}, {"lat": 45.1672, "lng": 143.8943, "id": "274124", "name": "Lycodes tanakae", "thumb": "tn_Lytan_u0.jpg", "sprite": "sp-anchoviella_juruasanga.png", "group": "other", "rarity": 1, "waterType": "Saltwater"}, {"lat": 46.9943, "lng": 141.3878, "id": "225934", "name": "Numenius madagascariensis", "sprite": "sp-anchoviella_juruasanga.png", "group": "other", "rarity": 1}, {"lat": 47.7535, "lng": 141.4784, "id": "137205", "name": "Caretta caretta", "sprite": "sp-green_sea_turtle.png", "group": "sea_turtle", "rarity": 1}, {"lat": 45.8804, "lng": 142.1867, "id": "275358", "name": "Pseudopleuronectes obscurus", "sprite": "sp-atlantic_halibut.png", "group": "flatfish", "rarity": 1, "waterType": "Saltwater"}, {"lat": 48.375, "lng": 145.725, "id": "274432", "name": "Careproctus homopterus", "sprite": "sp-anchoviella_juruasanga.png", "group": "other", "rarity": 1, "waterType": "Saltwater"}, {"lat": 46.85, "lng": 141.867, "id": "134679", "name": "Boreonymphon robustum", "sprite": "sp-anchoviella_juruasanga.png", "group": "other", "rarity": 1}, {"lat": 48.4233, "lng": 143.1702, "id": "292710", "name": "Crossaster diamesus", "sprite": "sp-sea_cucumber.png", "group": "starfish", "rarity": 1}, {"lat": 46.021, "lng": 142.7777, "id": "422988", "name": "Ampelisca furcigera", "sprite": "sp-american_lobster.png", "group": "crab_lobster", "rarity": 1}, {"lat": 45.55, "lng": 142.5833, "id": "254510", "name": "Pacific sand lance", "thumb": "tn_Amhex_u2.jpg", "sprite": "sp-anchoviella_juruasanga.png", "group": "other", "rarity": 1, "waterType": "Brackish"}, {"lat": 45.1945, "lng": 141.1422, "id": "494858", "name": "Sargassum miyabei", "sprite": "sp-anchoviella_juruasanga.png", "group": "other", "rarity": 1}, {"lat": 45.667, "lng": 144.0, "id": "104196", "name": "Paracalanus", "sprite": "sp-anchoviella_juruasanga.png", "group": "other", "rarity": 1}]}