{"zoom": 6, "x": 57, "y": 37, "points": [{"lat": -27.6967, "lng": 141.0605, "id": "282569", "name": "Australian smelt", "thumb": "tn_Resem_u0.gif", "sprite": "sp-anchoviella_juruasanga.png", "group": "other", "rarity": 1, "waterType": "Brackish"}, {"lat": -29.1972, "lng": 144.8146, "id": "1560882", "name": "Eoleptestheria ticinensis", "sprite": "sp-anchoviella_juruasanga.png", "group": "other", "rarity": 1}, {"lat": -28.7072, "lng": 144.612, "id": "1451043", "name": "Tachybaptus novaehollandiae", "sprite": "sp-anchoviella_juruasanga.png", "group": "other", "rarity": 1}, {"lat": -27.9498, "lng": 145.4568, "id": "281283", "name": "Spangled perch", "thumb": "tn_Leuni_u0.jpg", "sprite": "sp-anchoviella_juruasanga.png", "group": "other", "rarity": 1, "waterType": "Brackish"}, {"lat": -31.2339, "lng": 145.2744, "id": "159053", "name": "Calidris melanotos", "sprite": "sp-anchoviella_juruasanga.png", "group": "other", "rarity": 1}, {"lat": -29.433, "lng": 142.016, "id": "1381954", "name": "Richardsonianus australis", "sprite": "sp-anchoviella_juruasanga.png", "group": "other", "rarity": 1}, {"lat": -27.9467, "lng": 144.7737, "id": "431277", "name": "Austrochiltonia dalhousiensis", "sprite": "sp-american_lobster.png", "group": "crab_lobster", "rarity": 1}, {"lat": -30.083, "lng": 145.933, "id": "1485183", "name": "Melopsittacus undulatus", "sprite": "sp-anchoviella_juruasanga.png", "group": "other", "rarity": 1}, {"lat": -31.5664, "lng": 142.4257, "id": "225947", "name": "Anas gracilis", "sprite": "sp-anchoviella_juruasanga.png", "group": "other", "rarity": 1}, {"lat": -31.616, "lng": 142.7993, "id": "567845", "name": "Egretta novaehollandiae", "sprite": "sp-anchoviella_juruasanga.png", "group": "other", "rarity": 1}, {"lat": -30.8026, "lng": 141.4021, "id": "212601", "name": "Calidris ruficollis", "sprite": "sp-anchoviella_juruasanga.png", "group": "other", "rarity": 1}, {"lat": -29.8208, "lng": 144.1126, "id": "1130", "name": "Decapoda", "sprite": "sp-american_lobster.png", "group": "crab_lobster", "rarity": 1}, {"lat": -29.6865, "lng": 142.52, "id": "816466", "name": "Murrayinella minuta", "sprite": "sp-anchoviella_juruasanga.png", "group": "other", "rarity": 1}, {"lat": -31.003, "lng": 143.8576, "id": "212601", "name": "Calidris ruficollis", "sprite": "sp-anchoviella_juruasanga.png", "group": "other", "rarity": 1}, {"lat": -28.3387, "lng": 144.8254, "id": "567416", "name": "Erythrogonys cinctus", "sprite": "sp-anchoviella_juruasanga.png", "group": "other", "rarity": 1}, {"lat": -29.2, "lng": 144.88, "id": "118307", "name": "Paranthura", "sprite": "sp-american_lobster.png", "group": "crab_lobster", "rarity": 1}, {"lat": -29.7, "lng": 144.233, "id": "1424452", "name": "Leodice australis", "sprite": "sp-anchoviella_juruasanga.png", "group": "other", "rarity": 1}, {"lat": -30.1622, "lng": 142.2495, "id": "276134", "name": "Eastern mosquitofish", "thumb": "tn_Gahol_f0.jpg", "sprite": "sp-anchoviella_juruasanga.png", "group": "other", "rarity": 1, "waterType": "Brackish"}, {"lat": -28.7333, "lng": 144.3167, "id": "148388", "name": "Ilyocryptus", "sprite": "sp-anchoviella_juruasanga.png", "group": "other", "rarity": 1}, {"lat": -27.3401, "lng": 146.0095, "id": "234047", "name": "Cotula coronopifolia", "sprite": "sp-anchoviella_juruasanga.png", "group": "other", "rarity": 1}, {"lat": -30.1227, "lng": 144.692, "id": "115374", "name": "Laophonte", "sprite": "sp-anchoviella_juruasanga.png", "group": "other", "rarity": 1}, {"lat": -31.566, "lng": 143.366, "id": "225938", "name": "Chenonetta jubata", "sprite": "sp-anchoviella_juruasanga.png", "group": "other", "rarity": 1}, {"lat": -28.3223, "lng": 141.9199, "id": "212609", "name": "Himantopus himantopus", "sprite": "sp-anchoviella_juruasanga.png", "group": "other", "rarity": 1}, {"lat": -27.7767, "lng": 141.6833, "id": "818317", "name": "Hyridella", "sprite": "sp-blue_mussel.png", "group": "clam_mussel", "rarity": 1}, {"lat": -29.5785, "lng": 144.8057, "id": "1601375", "name": "Limnadopsis tatei", "sprite": "sp-anchoviella_juruasanga.png", "group": "other", "rarity": 1}, {"lat": -28.6368, "lng": 142.1347, "id": "567416", "name": "Erythrogonys cinctus", "sprite": "sp-anchoviella_juruasanga.png", "group": "other", "rarity": 1}, {"lat": -31.1773, "lng": 142.9662, "id": "567421", "name": "Elseyornis melanops", "sprite": "sp-anchoviella_juruasanga.png", "group": "other", "rarity": 1}, {"lat": -27.4167, "lng": 146.033, "id": "125275", "name": "Gorgoniidae", "sprite": "sp-actiniidae.png", "group": "coral", "rarity": 1}, {"lat": -27.6493, "lng": 140.926, "id": "205500", "name": "Hypseleotris", "sprite": "sp-anchoviella_juruasanga.png", "group": "other", "rarity": 1}, {"lat": -30.2645, "lng": 144.7232, "id": "278454", "name": "Australian river gizzard shad", "thumb": "tn_Neere_j0.jpg", "sprite": "sp-anchoviella_juruasanga.png", "group": "other", "rarity": 1, "waterType": "Brackish"}, {"lat": -30.7735, "lng": 145.1503, "id": "366619", "name": "Poliocephalus poliocephalus", "sprite": "sp-anchoviella_juruasanga.png", "group": "other", "rarity": 1}, {"lat": -28.6133, "lng": 144.5024, "id": "212609", "name": "Himantopus himantopus", "sprite": "sp-anchoviella_juruasanga.png", "group": "other", "rarity": 1}, {"lat": -31.75, "lng": 141.25, "id": "137136", "name": "Chlidonias leucopterus", "sprite": "sp-anchoviella_juruasanga.png", "group": "other", "rarity": 1}, {"lat": -28.88, "lng": 144.32, "id": "1515895", "name": "Gallinula tenebrosa", "sprite": "sp-anchoviella_juruasanga.png", "group": "other", "rarity": 1}, {"lat": -27.7294, "lng": 145.0996, "id": "269833", "name": "Melanotaenia", "sprite": "sp-anchoviella_juruasanga.png", "group": "other", "rarity": 1}, {"lat": -28.65, "lng": 144.38, "id": "1821", "name": "Chordata", "sprite": "sp-anchoviella_juruasanga.png", "group": "other", "rarity": 1}, {"lat": -28.216, "lng": 144.633, "id": "160008", "name": "Glossiphoniidae", "sprite": "sp-anchoviella_juruasanga.png", "group": "other", "rarity": 1}, {"lat": -28.213, "lng": 145.0366, "id": "225955", "name": "Calidris acuminata", "sprite": "sp-anchoviella_juruasanga.png", "group": "other", "rarity": 1}, {"lat": -31.116, "lng": 145.833, "id": "1516532", "name": "Podargus strigoides", "sprite": "sp-anchoviella_juruasanga.png", "group": "other", "rarity": 1}, {"lat": -29.516, "lng": 144.933, "id": "1290366", "name": "Australobranchipus parooensis", "sprite": "sp-anchoviella_juruasanga.png", "group": "other", "rarity": 1}, {"lat": -28.0913, "lng": 145.3067, "id": "225983", "name": "Phalacrocorax melanoleucos", "sprite": "sp-anchoviella_juruasanga.png", "group": "other", "rarity": 1}, {"lat": -31.3, "lng": 144.4, "id": "255395", "name": "Apanthura isotoma", "sprite": "sp-american_lobster.png", "group": "crab_lobster", "rarity": 1}, {"lat": -29.516, "lng": 144.8955, "id": "1290472", "name": "Branchinella (Branchinella) campbelli", "sprite": "sp-anchoviella_juruasanga.png", "group": "other", "rarity": 1}, {"lat": -30.0833, "lng": 145.9333, "id": "147434", "name": "Charadriidae", "sprite": "sp-anchoviella_juruasanga.png", "group": "other", "rarity": 1}, {"lat": -28.1064, "lng": 141.9434, "id": "137182", "name": "Podiceps cristatus", "sprite": "sp-anchoviella_juruasanga.png", "group": "other", "rarity": 1}, {"lat": -27.733, "lng": 140.766, "id": "1485183", "name": "Melopsittacus undulatus", "sprite": "sp-anchoviella_juruasanga.png", "group": "other", "rarity": 1}, {"lat": -31.566, "lng": 143.383, "id": "505866", "name": "Corbula ovalina", "sprite": "sp-blue_mussel.png", "group": "clam_mussel", "rarity": 1}, {"lat": -31.37, "lng": 143.2888, "id": "135596", "name": "Brachiella", "sprite": "sp-anchoviella_juruasanga.png", "group": "other", "rarity": 1}, {"lat": -30.1227, "lng": 144.692, "id": "115446", "name": "Syngastes", "sprite": "sp-anchoviella_juruasanga.png", "group": "other", "rarity": 1}, {"lat": -28.4719, "lng": 141.8911, "id": "366777", "name": "Recurvirostra novaehollandiae", "sprite": "sp-anchoviella_juruasanga.png", "group": "other", "rarity": 1}, {"lat": -28.0902, "lng": 144.1427, "id": "234031", "name": "Ruppia maritima", "sprite": "sp-anchoviella_juruasanga.png", "group": "other", "rarity": 1}, {"lat": -31.4337, "lng": 143.0593, "id": "446494", "name": "Haliaeetus leucogaster", "sprite": "sp-anchoviella_juruasanga.png", "group": "other", "rarity": 1}, {"lat": -27.952, "lng": 144.7692, "id": "1599553", "name": "Candonocypris novaezelandiae", "sprite": "sp-anchoviella_juruasanga.png", "group": "other", "rarity": 1}, {"lat": -28.7765, "lng": 142.0008, "id": "225955", "name": "Calidris acuminata", "sprite": "sp-anchoviella_juruasanga.png", "group": "other", "rarity": 1}, {"lat": -28.0627, "lng": 145.5253, "id": "1494898", "name": "Haliastur sphenurus", "sprite": "sp-anchoviella_juruasanga.png", "group": "other", "rarity": 1}, {"lat": -31.2199, "lng": 143.4698, "id": "1290456", "name": "Branchinella (Branchinella) affinis", "sprite": "sp-anchoviella_juruasanga.png", "group": "other", "rarity": 1}, {"lat": -29.516, "lng": 144.933, "id": "1290471", "name": "Branchinella (Branchinella) budjiti", "sprite": "sp-anchoviella_juruasanga.png", "group": "other", "rarity": 1}, {"lat": -28.0641, "lng": 141.7648, "id": "278454", "name": "Australian river gizzard shad", "thumb": "tn_Neere_j0.jpg", "sprite": "sp-anchoviella_juruasanga.png", "group": "other", "rarity": 1, "waterType": "Brackish"}, {"lat": -30.5251, "lng": 142.0787, "id": "366847", "name": "Charadrius ruficapillus", "sprite": "sp-anchoviella_juruasanga.png", "group": "other", "rarity": 1}, {"lat": -28.5796, "lng": 142.33, "id": "158968", "name": "Tringa nebularia", "sprite": "sp-anchoviella_juruasanga.png", "group": "other", "rarity": 1}, {"lat": -29.55, "lng": 144.866, "id": "1290509", "name": "Branchinella (Branchinella) wellardi", "sprite": "sp-anchoviella_juruasanga.png", "group": "other", "rarity": 1}, {"lat": -27.8101, "lng": 145.6909, "id": "154298", "name": "Goldfish", "thumb": "tn_Caaurau1.jpg", "sprite": "sp-enteromius.png", "group": "carp_minnow", "rarity": 1, "waterType": "Brackish"}, {"lat": -30.5482, "lng": 144.6976, "id": "137179", "name": "Phalacrocorax carbo", "sprite": "sp-anchoviella_juruasanga.png", "group": "other", "rarity": 1}, {"lat": -29.7359, "lng": 144.9496, "id": "1069", "name": "Branchiopoda", "sprite": "sp-anchoviella_juruasanga.png", "group": "other", "rarity": 1}, {"lat": -28.47, "lng": 144.3332, "id": "148798", "name": "Gelochelidon nilotica", "sprite": "sp-anchoviella_juruasanga.png", "group": "other", "rarity": 1}, {"lat": -28.7091, "lng": 141.9195, "id": "137135", "name": "Chlidonias hybrida", "sprite": "sp-anchoviella_juruasanga.png", "group": "other", "rarity": 1}, {"lat": -27.6235, "lng": 141.0929, "id": "246823", "name": "Euphorbia", "sprite": "sp-anchoviella_juruasanga.png", "group": "other", "rarity": 1}, {"lat": -31.005, "lng": 143.155, "id": "278454", "name": "Australian river gizzard shad", "thumb": "tn_Neere_j0.jpg", "sprite": "sp-anchoviella_juruasanga.png", "group": "other", "rarity": 1, "waterType": "Brackish"}, {"lat": -29.533, "lng": 145.015, "id": "1290509", "name": "Branchinella (Branchinella) wellardi", "sprite": "sp-anchoviella_juruasanga.png", "group": "other", "rarity": 1}, {"lat": -28.178, "lng": 145.1043, "id": "343955", "name": "Phalacrocorax sulcirostris", "sprite": "sp-anchoviella_juruasanga.png", "group": "other", "rarity": 1}, {"lat": -30.3789, "lng": 144.6205, "id": "154582", "name": "Common carp", "thumb": "tn_Cycar_ua.jpg", "sprite": "sp-enteromius.png", "group": "carp_minnow", "rarity": 1, "waterType": "Brackish"}, {"lat": -27.6, "lng": 144.3333, "id": "277067", "name": "Pempheris rapa", "sprite": "sp-anchoviella_juruasanga.png", "group": "other", "rarity": 1, "waterType": "Saltwater"}, {"lat": -31.583, "lng": 141.8995, "id": "1484507", "name": "Nymphicus hollandicus", "sprite": "sp-anchoviella_juruasanga.png", "group": "other", "rarity": 1}, {"lat": -28.7089, "lng": 144.7853, "id": "135596", "name": "Brachiella", "sprite": "sp-anchoviella_juruasanga.png", "group": "other", "rarity": 1}, {"lat": -28.6163, "lng": 145.158, "id": "1290463", "name": "Branchinella (Branchinella) australiensis", "sprite": "sp-anchoviella_juruasanga.png", "group": "other", "rarity": 1}, {"lat": -31.2721, "lng": 141.7989, "id": "366619", "name": "Poliocephalus poliocephalus", "sprite": "sp-anchoviella_juruasanga.png", "group": "other", "rarity": 1}, {"lat": -28.3127, "lng": 144.7815, "id": "212623", "name": "Tringa stagnatilis", "sprite": "sp-anchoviella_juruasanga.png", "group": "other", "rarity": 1}, {"lat": -31.5134, "lng": 145.833, "id": "212603", "name": "Actitis hypoleucos", "sprite": "sp-anchoviella_juruasanga.png", "group": "other", "rarity": 1}, {"lat": -30.3815, "lng": 145.3665, "id": "156892", "name": "Macrobrachium", "sprite": "sp-american_lobster.png", "group": "crab_lobster", "rarity": 1}, {"lat": -30.3589, "lng": 142.731, "id": "281283", "name": "Spangled perch", "thumb": "tn_Leuni_u0.jpg", "sprite": "sp-anchoviella_juruasanga.png", "group": "other", "rarity": 1, "waterType": "Brackish"}, {"lat": -31.1296, "lng": 142.0561, "id": "225940", "name": "Phalacrocorax varius", "sprite": "sp-anchoviella_juruasanga.png", "group": "other", "rarity": 1}, {"lat": -28.8111, "lng": 144.2537, "id": "225947", "name": "Anas gracilis", "sprite": "sp-anchoviella_juruasanga.png", "group": "other", "rarity": 1}, {"lat": -30.083, "lng": 145.933, "id": "1459989", "name": "Zapornia pusilla", "sprite": "sp-anchoviella_juruasanga.png", "group": "other", "rarity": 1}, {"lat": -30.8027, "lng": 141.2772, "id": "159049", "name": "Calidris ferruginea", "sprite": "sp-anchoviella_juruasanga.png", "group": "other", "rarity": 1}, {"lat": -31.1744, "lng": 141.6219, "id": "147434", "name": "Charadriidae", "sprite": "sp-anchoviella_juruasanga.png", "group": "other", "rarity": 1}, {"lat": -30.8826, "lng": 144.5779, "id": "137182", "name": "Podiceps cristatus", "sprite": "sp-anchoviella_juruasanga.png", "group": "other", "rarity": 1}, {"lat": -31.0591, "lng": 142.0533, "id": "148798", "name": "Gelochelidon nilotica", "sprite": "sp-anchoviella_juruasanga.png", "group": "other", "rarity": 1}, {"lat": -28.2833, "lng": 142.189, "id": "343934", "name": "Pelecanus conspicillatus", "sprite": "sp-anchoviella_juruasanga.png", "group": "other", "rarity": 1}, {"lat": -30.4411, "lng": 144.7343, "id": "225940", "name": "Phalacrocorax varius", "sprite": "sp-anchoviella_juruasanga.png", "group": "other", "rarity": 1}, {"lat": -28.5514, "lng": 144.4937, "id": "158968", "name": "Tringa nebularia", "sprite": "sp-anchoviella_juruasanga.png", "group": "other", "rarity": 1}, {"lat": -28.6829, "lng": 144.5143, "id": "366777", "name": "Recurvirostra novaehollandiae", "sprite": "sp-anchoviella_juruasanga.png", "group": "other", "rarity": 1}, {"lat": -30.533, "lng": 145.116, "id": "225938", "name": "Chenonetta jubata", "sprite": "sp-anchoviella_juruasanga.png", "group": "other", "rarity": 1}, {"lat": -30.5394, "lng": 145.6362, "id": "799", "name": "Nematoda", "sprite": "sp-anchoviella_juruasanga.png", "group": "other", "rarity": 1}, {"lat": -31.9447, "lng": 141.497, "id": "147431", "name": "Arenaria interpres", "sprite": "sp-anchoviella_juruasanga.png", "group": "other", "rarity": 1}, {"lat": -30.233, "lng": 144.583, "id": "338323", "name": "Ditrupa gracillima", "sprite": "sp-anchoviella_juruasanga.png", "group": "other", "rarity": 1}, {"lat": -31.75, "lng": 142.417, "id": "212603", "name": "Actitis hypoleucos", "sprite": "sp-anchoviella_juruasanga.png", "group": "other", "rarity": 1}, {"lat": -28.5281, "lng": 144.3061, "id": "343915", "name": "Larus novaehollandiae", "sprite": "sp-anchoviella_juruasanga.png", "group": "other", "rarity": 1}, {"lat": -28.5256, "lng": 144.5665, "id": "567421", "name": "Elseyornis melanops", "sprite": "sp-anchoviella_juruasanga.png", "group": "other", "rarity": 1}, {"lat": -28.5168, "lng": 144.2488, "id": "366847", "name": "Charadrius ruficapillus", "sprite": "sp-anchoviella_juruasanga.png", "group": "other", "rarity": 1}, {"lat": -30.4922, "lng": 144.3502, "id": "343934", "name": "Pelecanus conspicillatus", "sprite": "sp-anchoviella_juruasanga.png", "group": "other", "rarity": 1}, {"lat": -27.8214, "lng": 142.5899, "id": "158977", "name": "Plegadis falcinellus", "sprite": "sp-anchoviella_juruasanga.png", "group": "other", "rarity": 1}, {"lat": -29.0165, "lng": 144.92, "id": "505866", "name": "Corbula ovalina", "sprite": "sp-blue_mussel.png", "group": "clam_mussel", "rarity": 1}, {"lat": -29.3815, "lng": 145.0306, "id": "181085", "name": "Lienardia", "sprite": "sp-cowrie_shell.png", "group": "sea_snail", "rarity": 1}, {"lat": -28.881, "lng": 144.317, "id": "225997", "name": "Aythya australis", "sprite": "sp-anchoviella_juruasanga.png", "group": "other", "rarity": 1}, {"lat": -29.5388, "lng": 144.8685, "id": "1601373", "name": "Limnadopsis parvispinus", "sprite": "sp-anchoviella_juruasanga.png", "group": "other", "rarity": 1}, {"lat": -28.0728, "lng": 143.9317, "id": "205500", "name": "Hypseleotris", "sprite": "sp-anchoviella_juruasanga.png", "group": "other", "rarity": 1}, {"lat": -28.5225, "lng": 144.553, "id": "137135", "name": "Chlidonias hybrida", "sprite": "sp-anchoviella_juruasanga.png", "group": "other", "rarity": 1}, {"lat": -27.9879, "lng": 145.609, "id": "137169", "name": "Phalaropus lobatus", "sprite": "sp-anchoviella_juruasanga.png", "group": "other", "rarity": 1}, {"lat": -30.8084, "lng": 142.0335, "id": "212623", "name": "Tringa stagnatilis", "sprite": "sp-anchoviella_juruasanga.png", "group": "other", "rarity": 1}, {"lat": -29.2083, "lng": 144.883, "id": "205305", "name": "Mesanthura", "sprite": "sp-american_lobster.png", "group": "crab_lobster", "rarity": 1}, {"lat": -28.0672, "lng": 144.1747, "id": "147431", "name": "Arenaria interpres", "sprite": "sp-anchoviella_juruasanga.png", "group": "other", "rarity": 1}, {"lat": -28.8196, "lng": 144.3616, "id": "137047", "name": "Sterna", "sprite": "sp-anchoviella_juruasanga.png", "group": "other", "rarity": 1}, {"lat": -30.5598, "lng": 144.0219, "id": "567825", "name": "Hydroprogne caspia", "sprite": "sp-anchoviella_juruasanga.png", "group": "other", "rarity": 1}, {"lat": -29.0, "lng": 141.03, "id": "1601361", "name": "Limnadopsis birchii", "sprite": "sp-anchoviella_juruasanga.png", "group": "other", "rarity": 1}, {"lat": -30.1227, "lng": 144.692, "id": "115481", "name": "Scutellidium", "sprite": "sp-anchoviella_juruasanga.png", "group": "other", "rarity": 1}, {"lat": -31.5, "lng": 145.066, "id": "213594", "name": "Stephanometra indica", "sprite": "sp-sea_cucumber.png", "group": "starfish", "rarity": 1}, {"lat": -30.5439, "lng": 145.6275, "id": "367238", "name": "Spinicaudata", "sprite": "sp-anchoviella_juruasanga.png", "group": "other", "rarity": 1}, {"lat": -27.7259, "lng": 140.7762, "id": "505866", "name": "Corbula ovalina", "sprite": "sp-blue_mussel.png", "group": "clam_mussel", "rarity": 1}, {"lat": -31.0344, "lng": 141.9574, "id": "137182", "name": "Podiceps cristatus", "sprite": "sp-anchoviella_juruasanga.png", "group": "other", "rarity": 1}, {"lat": -31.2403, "lng": 141.8856, "id": "1485183", "name": "Melopsittacus undulatus", "sprite": "sp-anchoviella_juruasanga.png", "group": "other", "rarity": 1}]}