{"zoom": 6, "x": 59, "y": 34, "points": [{"lat": -12.4715, "lng": 153.8375, "id": "215612", "name": "Cookie cutter shark", "thumb": "tn_Isbra_f1.jpg", "sprite": "sp-great_white_shark.png", "group": "shark", "rarity": 1, "waterType": "Saltwater"}, {"lat": -15.9365, "lng": 152.188, "id": "1026364", "name": "Dentoglobigerina altispira", "sprite": "sp-anchoviella_juruasanga.png", "group": "other", "rarity": 1}, {"lat": -11.3, "lng": 153.25, "id": "207675", "name": "Tridacna maxima", "sprite": "sp-blue_mussel.png", "group": "clam_mussel", "rarity": 1}, {"lat": -11.3, "lng": 153.25, "id": "215120", "name": "Rhinoclavis aspera", "sprite": "sp-cowrie_shell.png", "group": "sea_snail", "rarity": 1}, {"lat": -11.2667, "lng": 152.3167, "id": "205519", "name": "Echinopora", "sprite": "sp-actiniidae.png", "group": "coral", "rarity": 1}, {"lat": -12.075, "lng": 154.0955, "id": "127306", "name": "Lovely hatchetfish", "thumb": "tn_Aracu_u4.jpg", "sprite": "sp-anchoviella_juruasanga.png", "group": "other", "rarity": 1, "waterType": "Saltwater"}, {"lat": -12.5, "lng": 152.4, "id": "212594", "name": "Phaethon lepturus", "sprite": "sp-anchoviella_juruasanga.png", "group": "other", "rarity": 1}, {"lat": -15.0943, "lng": 155.533, "id": "418110", "name": "Candeina nitida", "sprite": "sp-anchoviella_juruasanga.png", "group": "other", "rarity": 1}, {"lat": -11.3, "lng": 153.25, "id": "889354", "name": "Moerchiella artensis", "sprite": "sp-cowrie_shell.png", "group": "sea_snail", "rarity": 1}, {"lat": -11.5, "lng": 154.233, "id": "125522", "name": "Callionymidae", "sprite": "sp-anchoviella_juruasanga.png", "group": "other", "rarity": 1}, {"lat": -15.939, "lng": 154.911, "id": "221249", "name": "Globigerina falconensis", "sprite": "sp-anchoviella_juruasanga.png", "group": "other", "rarity": 1}, {"lat": -15.9086, "lng": 152.1957, "id": "113460", "name": "Orbulina universa", "sprite": "sp-anchoviella_juruasanga.png", "group": "other", "rarity": 1}, {"lat": -11.4134, "lng": 153.3534, "id": "737507", "name": "Clithon", "sprite": "sp-cowrie_shell.png", "group": "sea_snail", "rarity": 1}, {"lat": -12.0055, "lng": 153.2725, "id": "272666", "name": "Dana lanternfish", "sprite": "sp-anchoviella_juruasanga.png", "group": "other", "rarity": 1, "waterType": "Saltwater"}, {"lat": -12.908, "lng": 157.0335, "id": "113460", "name": "Orbulina universa", "sprite": "sp-anchoviella_juruasanga.png", "group": "other", "rarity": 1}, {"lat": -11.7233, "lng": 154.0158, "id": "105816", "name": "Scalloped hammerhead", "thumb": "tn_Splew_u0.jpg", "sprite": "sp-great_white_shark.png", "group": "shark", "rarity": 1, "waterType": "Brackish"}, {"lat": -12.2165, "lng": 153.7365, "id": "125435", "name": "Serrivomeridae", "sprite": "sp-electric_eel.png", "group": "eel", "rarity": 1}, {"lat": -11.3465, "lng": 153.3743, "id": "131731", "name": "Leucetta", "sprite": "sp-barrel_sponge.png", "group": "sponge", "rarity": 1}, {"lat": -12.111, "lng": 153.6675, "id": "126862", "name": "Snake mackerel", "thumb": "tn_Geser_u1.jpg", "sprite": "sp-anchoviella_juruasanga.png", "group": "other", "rarity": 1, "waterType": "Saltwater"}, {"lat": -11.3465, "lng": 153.3743, "id": "746513", "name": "Melithaea rubeola", "sprite": "sp-actiniidae.png", "group": "coral", "rarity": 1}, {"lat": -12.908, "lng": 157.0335, "id": "113450", "name": "Globorotalia menardii", "sprite": "sp-anchoviella_juruasanga.png", "group": "other", "rarity": 1}, {"lat": -11.4411, "lng": 153.4305, "id": "206410", "name": "Septaria", "sprite": "sp-cowrie_shell.png", "group": "sea_snail", "rarity": 1}, {"lat": -11.432, "lng": 153.4463, "id": "117246", "name": "Stylaster", "sprite": "sp-anchoviella_juruasanga.png", "group": "other", "rarity": 1}, {"lat": -15.7899, "lng": 152.2285, "id": "418107", "name": "Globigerinoides tenellus", "sprite": "sp-anchoviella_juruasanga.png", "group": "other", "rarity": 1}, {"lat": -11.9083, "lng": 152.697, "id": "241911", "name": "Molpadia dissimilis", "sprite": "sp-sea_cucumber.png", "group": "starfish", "rarity": 1}, {"lat": -12.4535, "lng": 153.8305, "id": "126848", "name": "Live sharksucker", "thumb": "tn_Rerem_u5.jpg", "sprite": "sp-anchoviella_juruasanga.png", "group": "other", "rarity": 1, "waterType": "Brackish"}, {"lat": -12.5417, "lng": 153.7354, "id": "125601", "name": "Gonostomatidae", "sprite": "sp-anchoviella_juruasanga.png", "group": "other", "rarity": 1}, {"lat": -11.432, "lng": 153.4463, "id": "131794", "name": "Myrmekioderma", "sprite": "sp-barrel_sponge.png", "group": "sponge", "rarity": 1}, {"lat": -12.2165, "lng": 153.7365, "id": "125501", "name": "Notacanthidae", "sprite": "sp-anchoviella_juruasanga.png", "group": "other", "rarity": 1}, {"lat": -11.3, "lng": 153.25, "id": "476491", "name": "Distorsomina pusilla", "sprite": "sp-cowrie_shell.png", "group": "sea_snail", "rarity": 1}, {"lat": -13.7665, "lng": 152.896, "id": "1027274", "name": "Globoturborotalita woodi", "sprite": "sp-anchoviella_juruasanga.png", "group": "other", "rarity": 1}, {"lat": -11.4373, "lng": 153.4463, "id": "205863", "name": "Cladiella", "sprite": "sp-actiniidae.png", "group": "coral", "rarity": 1}, {"lat": -15.35, "lng": 152.35, "id": "113473", "name": "Neogloboquadrina dutertrei", "sprite": "sp-anchoviella_juruasanga.png", "group": "other", "rarity": 1}, {"lat": -12.118, "lng": 153.654, "id": "158575", "name": "Kaupichthys", "sprite": "sp-electric_eel.png", "group": "eel", "rarity": 1}, {"lat": -11.3, "lng": 153.25, "id": "216859", "name": "Erronea errones", "sprite": "sp-cowrie_shell.png", "group": "sea_snail", "rarity": 1}, {"lat": -11.5, "lng": 154.333, "id": "398440", "name": "Painted pipefish", "sprite": "sp-cosmocampus_coccineus.png", "group": "seahorse", "rarity": 1, "waterType": "Saltwater"}, {"lat": -15.3332, "lng": 152.1663, "id": "221417", "name": "Bigtooth pomfret", "thumb": "tn_Brorc_u1.jpg", "sprite": "sp-anchoviella_juruasanga.png", "group": "other", "rarity": 1, "waterType": "Saltwater"}, {"lat": -15.35, "lng": 152.35, "id": "113448", "name": "Globorotalia hirsuta", "sprite": "sp-anchoviella_juruasanga.png", "group": "other", "rarity": 1}, {"lat": -11.7111, "lng": 152.7611, "id": "212597", "name": "Sula leucogaster", "sprite": "sp-anchoviella_juruasanga.png", "group": "other", "rarity": 1}, {"lat": -11.3709, "lng": 153.3893, "id": "125277", "name": "Plexauridae", "sprite": "sp-actiniidae.png", "group": "coral", "rarity": 1}, {"lat": -15.9365, "lng": 152.188, "id": "1026283", "name": "Sphaeroidinellopsis seminulina", "sprite": "sp-anchoviella_juruasanga.png", "group": "other", "rarity": 1}, {"lat": -15.8835, "lng": 154.8665, "id": "1026286", "name": "Trilobatus sacculifer", "sprite": "sp-anchoviella_juruasanga.png", "group": "other", "rarity": 1}, {"lat": -11.8178, "lng": 154.1655, "id": "125518", "name": "Apogonidae", "sprite": "sp-anchoviella_juruasanga.png", "group": "other", "rarity": 1}, {"lat": -11.3, "lng": 153.2417, "id": "216874", "name": "Monetaria moneta", "sprite": "sp-cowrie_shell.png", "group": "sea_snail", "rarity": 1}, {"lat": -15.4433, "lng": 155.2931, "id": "113444", "name": "Globigerinoides ruber", "sprite": "sp-anchoviella_juruasanga.png", "group": "other", "rarity": 1}, {"lat": -11.4167, "lng": 153.25, "id": "344003", "name": "Anous minutus", "sprite": "sp-anchoviella_juruasanga.png", "group": "other", "rarity": 1}, {"lat": -11.432, "lng": 153.4463, "id": "166654", "name": "Amphimedon", "sprite": "sp-barrel_sponge.png", "group": "sponge", "rarity": 1}, {"lat": -11.5, "lng": 154.333, "id": "125565", "name": "Sphyraenidae", "sprite": "sp-european_barracuda.png", "group": "barracuda", "rarity": 1}, {"lat": -12.7855, "lng": 153.894, "id": "271655", "name": "Smalleye pygmy shark", "thumb": "tn_Sqali_u0.jpg", "sprite": "sp-great_white_shark.png", "group": "shark", "rarity": 1, "waterType": "Saltwater"}, {"lat": -11.3, "lng": 153.25, "id": "215746", "name": "Nassarius albescens", "sprite": "sp-cowrie_shell.png", "group": "sea_snail", "rarity": 1}, {"lat": -15.3332, "lng": 155.3997, "id": "112200", "name": "Globorotalia", "sprite": "sp-anchoviella_juruasanga.png", "group": "other", "rarity": 1}, {"lat": -11.3, "lng": 153.25, "id": "140349", "name": "Atactodea striata", "sprite": "sp-blue_mussel.png", "group": "clam_mussel", "rarity": 1}, {"lat": -12.003, "lng": 153.403, "id": "159830", "name": "Symphysanodon", "sprite": "sp-anchoviella_juruasanga.png", "group": "other", "rarity": 1}, {"lat": -12.3549, "lng": 155.6239, "id": "712905", "name": "Black marlin", "thumb": "tn_Maind_u2.jpg", "sprite": "sp-blue_marlin.png", "group": "swordfish", "rarity": 1, "waterType": "Saltwater"}, {"lat": -12.8532, "lng": 153.9216, "id": "158899", "name": "Lobianchia", "sprite": "sp-anchoviella_juruasanga.png", "group": "other", "rarity": 1}, {"lat": -11.432, "lng": 153.4463, "id": "165315", "name": "Fascaplysinopsis reticulata", "sprite": "sp-barrel_sponge.png", "group": "sponge", "rarity": 1}, {"lat": -11.3, "lng": 153.25, "id": "505802", "name": "Davila plana", "sprite": "sp-blue_mussel.png", "group": "clam_mussel", "rarity": 1}, {"lat": -11.3465, "lng": 153.3743, "id": "205239", "name": "Stereonephthya", "sprite": "sp-actiniidae.png", "group": "coral", "rarity": 1}, {"lat": -15.9365, "lng": 152.188, "id": "735216", "name": "Paragloborotalia mayeri", "sprite": "sp-anchoviella_juruasanga.png", "group": "other", "rarity": 1}, {"lat": -11.3465, "lng": 153.3742, "id": "1608941", "name": "Sclerophytum rigidum", "sprite": "sp-actiniidae.png", "group": "coral", "rarity": 1}, {"lat": -11.3, "lng": 153.25, "id": "876772", "name": "Tellinella cruciata", "sprite": "sp-blue_mussel.png", "group": "clam_mussel", "rarity": 1}, {"lat": -15.5167, "lng": 155.222, "id": "113440", "name": "Globigerinella siphonifera", "sprite": "sp-anchoviella_juruasanga.png", "group": "other", "rarity": 1}, {"lat": -12.8336, "lng": 152.0347, "id": "213291", "name": "Acanthaster brevispinus", "sprite": "sp-sea_cucumber.png", "group": "starfish", "rarity": 1}, {"lat": -15.9365, "lng": 152.188, "id": "1026393", "name": "Globorotalia multicamerata", "sprite": "sp-anchoviella_juruasanga.png", "group": "other", "rarity": 1}, {"lat": -12.003, "lng": 153.403, "id": "126036", "name": "Upeneus", "sprite": "sp-anchoviella_juruasanga.png", "group": "other", "rarity": 1}, {"lat": -11.3, "lng": 153.25, "id": "370551", "name": "Notocochlis gualteriana", "sprite": "sp-cowrie_shell.png", "group": "sea_snail", "rarity": 1}, {"lat": -11.3, "lng": 153.25, "id": "571873", "name": "Mammilla maura", "sprite": "sp-cowrie_shell.png", "group": "sea_snail", "rarity": 1}, {"lat": -12.003, "lng": 153.403, "id": "219997", "name": "Mottled fusilier", "thumb": "tn_Dibal_u0.jpg", "sprite": "sp-anchoviella_juruasanga.png", "group": "other", "rarity": 1, "waterType": "Saltwater"}, {"lat": -12.0055, "lng": 153.2725, "id": "125691", "name": "Cheilopogon", "sprite": "sp-flying_fish.png", "group": "flying_fish", "rarity": 1}, {"lat": -11.3, "lng": 153.25, "id": "216872", "name": "Mauritia arabica", "sprite": "sp-cowrie_shell.png", "group": "sea_snail", "rarity": 1}, {"lat": -11.3, "lng": 153.25, "id": "216368", "name": "Turbo chrysostomus", "sprite": "sp-cowrie_shell.png", "group": "sea_snail", "rarity": 1}, {"lat": -11.432, "lng": 153.4463, "id": "103302", "name": "Antipathes", "sprite": "sp-actiniidae.png", "group": "coral", "rarity": 1}, {"lat": -12.3985, "lng": 153.801, "id": "271710", "name": "Pacific shortfinned eel", "thumb": "tn_Anobs_u0.jpg", "sprite": "sp-electric_eel.png", "group": "eel", "rarity": 1, "waterType": "Brackish"}, {"lat": -11.7597, "lng": 153.9022, "id": "125595", "name": "Scorpaenidae", "sprite": "sp-parascorpaena_moultoni.png", "group": "scorpionfish", "rarity": 1}, {"lat": -11.27, "lng": 152.32, "id": "207083", "name": "Acropora abrotanoides", "sprite": "sp-actiniidae.png", "group": "coral", "rarity": 1}, {"lat": -11.5833, "lng": 154.4, "id": "212654", "name": "Fregata minor", "sprite": "sp-anchoviella_juruasanga.png", "group": "other", "rarity": 1}, {"lat": -12.376, "lng": 153.7825, "id": "126037", "name": "Cubiceps", "sprite": "sp-anchoviella_juruasanga.png", "group": "other", "rarity": 1}, {"lat": -11.3, "lng": 153.25, "id": "216921", "name": "Polinices flemingianus", "sprite": "sp-cowrie_shell.png", "group": "sea_snail", "rarity": 1}, {"lat": -12.0055, "lng": 153.2725, "id": "125468", "name": "Bregmacerotidae", "sprite": "sp-anchoviella_juruasanga.png", "group": "other", "rarity": 1}, {"lat": -11.3, "lng": 153.25, "id": "208470", "name": "Isognomon perna", "sprite": "sp-blue_mussel.png", "group": "clam_mussel", "rarity": 1}, {"lat": -12.908, "lng": 157.0335, "id": "113473", "name": "Neogloboquadrina dutertrei", "sprite": "sp-anchoviella_juruasanga.png", "group": "other", "rarity": 1}, {"lat": -11.3, "lng": 153.25, "id": "527772", "name": "Erronea caurica caurica", "sprite": "sp-cowrie_shell.png", "group": "sea_snail", "rarity": 1}, {"lat": -11.3, "lng": 153.25, "id": "598013", "name": "Phosinella", "sprite": "sp-cowrie_shell.png", "group": "sea_snail", "rarity": 1}, {"lat": -15.9072, "lng": 152.1961, "id": "113441", "name": "Globigerinoides conglobatus", "sprite": "sp-anchoviella_juruasanga.png", "group": "other", "rarity": 1}, {"lat": -11.366, "lng": 154.166, "id": "430596", "name": "Margovula pyriformis", "sprite": "sp-cowrie_shell.png", "group": "sea_snail", "rarity": 1}, {"lat": -11.25, "lng": 152.1, "id": "196046", "name": "Fregatidae", "sprite": "sp-anchoviella_juruasanga.png", "group": "other", "rarity": 1}, {"lat": -15.8835, "lng": 154.8665, "id": "580633", "name": "Globorotalia crassaformis subsp. imbricata", "sprite": "sp-anchoviella_juruasanga.png", "group": "other", "rarity": 1}, {"lat": -12.908, "lng": 157.0335, "id": "221331", "name": "Pulleniatina obliquiloculata", "sprite": "sp-anchoviella_juruasanga.png", "group": "other", "rarity": 1}, {"lat": -11.9767, "lng": 154.0817, "id": "205230", "name": "Naso", "sprite": "sp-acanthurus_albimento.png", "group": "surgeonfish", "rarity": 1}, {"lat": -11.432, "lng": 153.4463, "id": "592536", "name": "Axinyssa terpnis", "sprite": "sp-barrel_sponge.png", "group": "sponge", "rarity": 1}, {"lat": -11.3, "lng": 153.25, "id": "216485", "name": "Donax faba", "sprite": "sp-blue_mussel.png", "group": "clam_mussel", "rarity": 1}, {"lat": -11.366, "lng": 154.166, "id": "530902", "name": "Eclogavena", "sprite": "sp-cowrie_shell.png", "group": "sea_snail", "rarity": 1}, {"lat": -11.3, "lng": 153.25, "id": "865355", "name": "Hiloa variabilis", "sprite": "sp-cowrie_shell.png", "group": "sea_snail", "rarity": 1}, {"lat": -11.2689, "lng": 152.3189, "id": "207032", "name": "Acropora yongei", "sprite": "sp-actiniidae.png", "group": "coral", "rarity": 1}, {"lat": -13.283, "lng": 156.85, "id": "113433", "name": "Beella digitata", "sprite": "sp-anchoviella_juruasanga.png", "group": "other", "rarity": 1}, {"lat": -13.283, "lng": 156.85, "id": "418114", "name": "Globorotalia tumida", "sprite": "sp-anchoviella_juruasanga.png", "group": "other", "rarity": 1}, {"lat": -15.35, "lng": 152.35, "id": "1026286", "name": "Trilobatus sacculifer", "sprite": "sp-anchoviella_juruasanga.png", "group": "other", "rarity": 1}, {"lat": -13.287, "lng": 157.035, "id": "127289", "name": "Slender bristlemouth", "thumb": "tn_Cypse_u1.gif", "sprite": "sp-anchoviella_juruasanga.png", "group": "other", "rarity": 1, "waterType": "Saltwater"}, {"lat": -11.1852, "lng": 152.0042, "id": "273845", "name": "Speckled blue grouper", "thumb": "tn_Epcya_u7.jpg", "sprite": "sp-chelidoperca_santosi.png", "group": "grouper", "rarity": 1, "waterType": "Saltwater"}, {"lat": -14.4469, "lng": 155.8023, "id": "1474565", "name": "Lycopodina coralseaensis", "sprite": "sp-barrel_sponge.png", "group": "sponge", "rarity": 1}, {"lat": -11.5, "lng": 154.333, "id": "218434", "name": "Doublespotted queenfish", "thumb": "tn_Sclys_u3.jpg", "sprite": "sp-anchoviella_juruasanga.png", "group": "other", "rarity": 1, "waterType": "Brackish"}, {"lat": -12.2222, "lng": 153.2, "id": "212596", "name": "Sula sula", "sprite": "sp-anchoviella_juruasanga.png", "group": "other", "rarity": 1}, {"lat": -11.3, "lng": 153.25, "id": "547187", "name": "Diala albugo", "sprite": "sp-cowrie_shell.png", "group": "sea_snail", "rarity": 1}, {"lat": -11.369, "lng": 153.3498, "id": "131849", "name": "Xestospongia", "sprite": "sp-barrel_sponge.png", "group": "sponge", "rarity": 1}, {"lat": -11.366, "lng": 154.333, "id": "515530", "name": "Thalassocaris crinita", "sprite": "sp-american_lobster.png", "group": "crab_lobster", "rarity": 1}, {"lat": -12.6952, "lng": 153.87, "id": "154226", "name": "Chauliodontinae", "sprite": "sp-anchoviella_juruasanga.png", "group": "other", "rarity": 1}, {"lat": -11.5, "lng": 154.333, "id": "204304", "name": "Zanclus", "sprite": "sp-anchoviella_juruasanga.png", "group": "other", "rarity": 1}, {"lat": -12.003, "lng": 153.403, "id": "126811", "name": "Pilotfish", "thumb": "tn_Naduc_u1.jpg", "sprite": "sp-anchoviella_juruasanga.png", "group": "other", "rarity": 1, "waterType": "Saltwater"}, {"lat": -13.287, "lng": 157.035, "id": "127293", "name": "Atlantic fangjaw", "thumb": "tn_Goatl_u0.gif", "sprite": "sp-anchoviella_juruasanga.png", "group": "other", "rarity": 1, "waterType": "Saltwater"}, {"lat": -11.6167, "lng": 155.0833, "id": "567827", "name": "Onychoprion fuscatus", "sprite": "sp-anchoviella_juruasanga.png", "group": "other", "rarity": 1}, {"lat": -11.4035, "lng": 153.4223, "id": "520689", "name": "Heliania spinescens", "sprite": "sp-actiniidae.png", "group": "coral", "rarity": 1}, {"lat": -11.4343, "lng": 153.5339, "id": "206842", "name": "Neritina", "sprite": "sp-cowrie_shell.png", "group": "sea_snail", "rarity": 1}, {"lat": -11.3, "lng": 153.25, "id": "138022", "name": "Fossarus", "sprite": "sp-cowrie_shell.png", "group": "sea_snail", "rarity": 1}, {"lat": -11.4146, "lng": 153.4142, "id": "206153", "name": "Lobophytum", "sprite": "sp-actiniidae.png", "group": "coral", "rarity": 1}, {"lat": -16.05, "lng": 155.0, "id": "113462", "name": "Turborotalita quinqueloba", "sprite": "sp-anchoviella_juruasanga.png", "group": "other", "rarity": 1}, {"lat": -11.3, "lng": 153.25, "id": "215518", "name": "Conus flavidus", "sprite": "sp-cowrie_shell.png", "group": "sea_snail", "rarity": 1}, {"lat": -15.9365, "lng": 152.188, "id": "911507", "name": "Globigerinoides mitra", "sprite": "sp-anchoviella_juruasanga.png", "group": "other", "rarity": 1}, {"lat": -11.2833, "lng": 152.15, "id": "217439", "name": "Spotted sardinella", "thumb": "tn_Amsir_u0.jpg", "sprite": "sp-anchoviella_juruasanga.png", "group": "other", "rarity": 1, "waterType": "Brackish"}, {"lat": -15.8835, "lng": 154.8665, "id": "113434", "name": "Globigerina bulloides", "sprite": "sp-anchoviella_juruasanga.png", "group": "other", "rarity": 1}, {"lat": -13.7665, "lng": 152.896, "id": "418110", "name": "Candeina nitida", "sprite": "sp-anchoviella_juruasanga.png", "group": "other", "rarity": 1}]}