{"zoom": 6, "x": 59, "y": 48, "points": [{"lat": -66.876, "lng": 153.927, "id": "137165", "name": "Sterna paradisaea", "sprite": "sp-anchoviella_juruasanga.png", "group": "other", "rarity": 1}, {"lat": -66.7662, "lng": 153.8528, "id": "212583", "name": "Diomedea exulans", "sprite": "sp-anchoviella_juruasanga.png", "group": "other", "rarity": 1}, {"lat": -68.4104, "lng": 157.1189, "id": "225773", "name": "Aptenodytes forsteri", "sprite": "sp-anchoviella_juruasanga.png", "group": "other", "rarity": 1}, {"lat": -66.6158, "lng": 154.2565, "id": "236217", "name": "Euphausia superba", "sprite": "sp-antarctic_krill.png", "group": "shrimp", "rarity": 1}, {"lat": -66.7978, "lng": 153.2237, "id": "225773", "name": "Aptenodytes forsteri", "sprite": "sp-anchoviella_juruasanga.png", "group": "other", "rarity": 1}, {"lat": -67.3106, "lng": 156.6057, "id": "236217", "name": "Euphausia superba", "sprite": "sp-antarctic_krill.png", "group": "shrimp", "rarity": 1}, {"lat": -66.826, "lng": 155.9646, "id": "212583", "name": "Diomedea exulans", "sprite": "sp-anchoviella_juruasanga.png", "group": "other", "rarity": 1}, {"lat": -67.7486, "lng": 157.1794, "id": "236217", "name": "Euphausia superba", "sprite": "sp-antarctic_krill.png", "group": "shrimp", "rarity": 1}, {"lat": -67.2083, "lng": 155.35, "id": "173736", "name": "Exochella rogickae", "sprite": "sp-anchoviella_juruasanga.png", "group": "other", "rarity": 1}, {"lat": -67.412, "lng": 153.513, "id": "212631", "name": "Phoebetria palpebrata", "sprite": "sp-anchoviella_juruasanga.png", "group": "other", "rarity": 1}, {"lat": -67.4229, "lng": 155.701, "id": "212631", "name": "Phoebetria palpebrata", "sprite": "sp-anchoviella_juruasanga.png", "group": "other", "rarity": 1}, {"lat": -67.36, "lng": 155.35, "id": "283449", "name": "Actinostola chilensis", "sprite": "sp-actiniidae.png", "group": "coral", "rarity": 1}, {"lat": -67.127, "lng": 153.3154, "id": "343995", "name": "Thalassarche melanophris", "sprite": "sp-anchoviella_juruasanga.png", "group": "other", "rarity": 1}, {"lat": -67.3614, "lng": 155.3514, "id": "172941", "name": "Actinostola crassicornis", "sprite": "sp-actiniidae.png", "group": "coral", "rarity": 1}, {"lat": -66.5667, "lng": 155.35, "id": "172104", "name": "Rossella racovitzae", "sprite": "sp-barrel_sponge.png", "group": "sponge", "rarity": 1}, {"lat": -67.146, "lng": 155.283, "id": "234800", "name": "Ploughfish", "thumb": "tn_Gyacu_e0.jpg", "sprite": "sp-anchoviella_juruasanga.png", "group": "other", "rarity": 1, "waterType": "Saltwater"}, {"lat": -67.3628, "lng": 155.3528, "id": "174207", "name": "Lacerna watersi", "sprite": "sp-anchoviella_juruasanga.png", "group": "other", "rarity": 1}]}