{"zoom": 6, "x": 60, "y": 20, "points": [{"lat": 54.5, "lng": 158.5, "id": "137202", "name": "Puffinus griseus", "sprite": "sp-anchoviella_juruasanga.png", "group": "other", "rarity": 1}, {"lat": 53.483, "lng": 160.05, "id": "124943", "name": "Stegophiura nodosa", "sprite": "sp-sea_cucumber.png", "group": "starfish", "rarity": 1}, {"lat": 53.356, "lng": 158.52, "id": "137202", "name": "Puffinus griseus", "sprite": "sp-anchoviella_juruasanga.png", "group": "other", "rarity": 1}, {"lat": 52.961, "lng": 158.6867, "id": "102866", "name": "Aceroides (Aceroides) latipes", "sprite": "sp-american_lobster.png", "group": "crab_lobster", "rarity": 1}, {"lat": 52.7839, "lng": 158.7417, "id": "159459", "name": "Alligatorfish", "thumb": "tn_Asmon_u0.jpg", "sprite": "sp-anchoviella_juruasanga.png", "group": "other", "rarity": 1, "waterType": "Saltwater"}, {"lat": 52.7833, "lng": 158.7417, "id": "254896", "name": "Hippasteria leiopelta", "sprite": "sp-sea_cucumber.png", "group": "starfish", "rarity": 1}, {"lat": 52.8642, "lng": 158.7453, "id": "231788", "name": "Karenia", "sprite": "sp-anchoviella_juruasanga.png", "group": "other", "rarity": 1}, {"lat": 52.7889, "lng": 158.7417, "id": "423366", "name": "Eualus suckleyi", "sprite": "sp-american_lobster.png", "group": "crab_lobster", "rarity": 1}, {"lat": 53.1333, "lng": 163.117, "id": "798747", "name": "Parakanthophoreus longiremis", "sprite": "sp-american_lobster.png", "group": "crab_lobster", "rarity": 1}, {"lat": 52.9203, "lng": 158.9444, "id": "242652", "name": "Amphiodia craterodmeta", "sprite": "sp-sea_cucumber.png", "group": "starfish", "rarity": 1}, {"lat": 52.625, "lng": 158.833, "id": "153063", "name": "Galiteuthis armata", "sprite": "sp-giant_pacific_octopus.png", "group": "octopus_squid", "rarity": 1}, {"lat": 52.7853, "lng": 158.7355, "id": "107044", "name": "Pandalus", "sprite": "sp-american_lobster.png", "group": "crab_lobster", "rarity": 1}, {"lat": 52.7847, "lng": 158.7417, "id": "158359", "name": "Eualus macilentus", "sprite": "sp-american_lobster.png", "group": "crab_lobster", "rarity": 1}, {"lat": 53.0178, "lng": 158.6392, "id": "281916", "name": "Ocellated blenny", "sprite": "sp-anchoviella_juruasanga.png", "group": "other", "rarity": 1, "waterType": "Saltwater"}, {"lat": 52.9498, "lng": 158.9193, "id": "102514", "name": "Anonyx nugax", "sprite": "sp-american_lobster.png", "group": "crab_lobster", "rarity": 1}, {"lat": 52.985, "lng": 158.5893, "id": "1307579", "name": "Alamprops quadriplicatus", "sprite": "sp-american_lobster.png", "group": "crab_lobster", "rarity": 1}, {"lat": 52.625, "lng": 158.833, "id": "243915", "name": "Ophiopholis japonica", "sprite": "sp-sea_cucumber.png", "group": "starfish", "rarity": 1}, {"lat": 52.7806, "lng": 158.7417, "id": "254565", "name": "Smoothcheek sculpin", "thumb": "tn_Eugyr_u0.jpg", "sprite": "sp-anchoviella_juruasanga.png", "group": "other", "rarity": 1, "waterType": "Saltwater"}, {"lat": 52.98, "lng": 158.55, "id": "283423", "name": "Cribrinopsis olegi", "sprite": "sp-actiniidae.png", "group": "coral", "rarity": 1}, {"lat": 52.625, "lng": 158.8333, "id": "272460", "name": "Finescale mora", "thumb": "tn_Anmic_u2.gif", "sprite": "sp-anchoviella_juruasanga.png", "group": "other", "rarity": 1, "waterType": "Saltwater"}, {"lat": 52.88, "lng": 158.7, "id": "274503", "name": "Liparis brashnikovi", "sprite": "sp-anchoviella_juruasanga.png", "group": "other", "rarity": 1, "waterType": "Saltwater"}, {"lat": 52.9761, "lng": 159.0546, "id": "125125", "name": "Ophiopholis aculeata", "sprite": "sp-sea_cucumber.png", "group": "starfish", "rarity": 1}, {"lat": 52.783, "lng": 158.717, "id": "107052", "name": "Pasiphaea", "sprite": "sp-american_lobster.png", "group": "crab_lobster", "rarity": 1}, {"lat": 53.75, "lng": 161.167, "id": "242652", "name": "Amphiodia craterodmeta", "sprite": "sp-sea_cucumber.png", "group": "starfish", "rarity": 1}, {"lat": 52.567, "lng": 158.6, "id": "547011", "name": "Bathymedon gorneri", "sprite": "sp-american_lobster.png", "group": "crab_lobster", "rarity": 1}, {"lat": 54.233, "lng": 160.334, "id": "124934", "name": "Ophiura sarsii", "sprite": "sp-sea_cucumber.png", "group": "starfish", "rarity": 1}, {"lat": 54.0, "lng": 160.833, "id": "124943", "name": "Stegophiura nodosa", "sprite": "sp-sea_cucumber.png", "group": "starfish", "rarity": 1}, {"lat": 53.0, "lng": 158.5, "id": "423166", "name": "Asterias microdiscus", "sprite": "sp-sea_cucumber.png", "group": "starfish", "rarity": 1}, {"lat": 55.037, "lng": 158.9689, "id": "254570", "name": "Dolly varden", "thumb": "tn_Samal_m0.jpg", "sprite": "sp-atlantic_salmon.png", "group": "salmon_trout", "rarity": 1, "waterType": "Brackish"}, {"lat": 52.625, "lng": 158.4, "id": "272354", "name": "Coryphaenoides spinulosus", "sprite": "sp-anchoviella_juruasanga.png", "group": "other", "rarity": 1, "waterType": "Saltwater"}, {"lat": 53.9783, "lng": 162.8467, "id": "282289", "name": "Atka mackerel", "thumb": "tn_Plmon_u3.jpg", "sprite": "sp-anchoviella_juruasanga.png", "group": "other", "rarity": 1, "waterType": "Saltwater"}, {"lat": 52.8667, "lng": 160.1, "id": "271520", "name": "White-blotched skate", "thumb": "tn_Bamac_u6.jpg", "sprite": "sp-himantura_australis.png", "group": "ray", "rarity": 1, "waterType": "Saltwater"}, {"lat": 53.1398, "lng": 161.5883, "id": "254974", "name": "Eubalaena japonica", "sprite": "sp-blue_whale.png", "group": "whale", "rarity": 1}, {"lat": 53.0, "lng": 158.0, "id": "378819", "name": "Aphelasterias japonica", "sprite": "sp-sea_cucumber.png", "group": "starfish", "rarity": 1}, {"lat": 53.0161, "lng": 158.6393, "id": "254537", "name": "Saffron cod", "thumb": "tn_Elgra_u0.jpg", "sprite": "sp-arctogadus.png", "group": "cod", "rarity": 1, "waterType": "Brackish"}, {"lat": 52.88, "lng": 158.7, "id": "274526", "name": "Liparis miostomus", "sprite": "sp-anchoviella_juruasanga.png", "group": "other", "rarity": 1, "waterType": "Saltwater"}, {"lat": 52.578, "lng": 159.652, "id": "124978", "name": "Ophiacantha bidentata", "sprite": "sp-sea_cucumber.png", "group": "starfish", "rarity": 1}, {"lat": 53.0161, "lng": 158.6393, "id": "127188", "name": "Arctic char", "thumb": "tn_Saalp_f0.jpg", "sprite": "sp-atlantic_salmon.png", "group": "salmon_trout", "rarity": 1, "waterType": "Brackish"}, {"lat": 52.6667, "lng": 159.0, "id": "1080", "name": "Copepoda", "sprite": "sp-anchoviella_juruasanga.png", "group": "other", "rarity": 1}, {"lat": 52.758, "lng": 161.683, "id": "1507964", "name": "Peniagone mus", "sprite": "sp-sea_cucumber.png", "group": "starfish", "rarity": 1}, {"lat": 52.9523, "lng": 160.4622, "id": "1131", "name": "Isopoda", "sprite": "sp-american_lobster.png", "group": "crab_lobster", "rarity": 1}, {"lat": 52.7806, "lng": 158.7417, "id": "284249", "name": "Garveia annulata", "sprite": "sp-anchoviella_juruasanga.png", "group": "other", "rarity": 1}, {"lat": 52.6912, "lng": 158.7082, "id": "254987", "name": "Phocoenoides dalli", "sprite": "sp-bottlenose_dolphin.png", "group": "dolphin", "rarity": 1}, {"lat": 52.7889, "lng": 158.7417, "id": "254485", "name": "Spirontocaris arcuata", "sprite": "sp-american_lobster.png", "group": "crab_lobster", "rarity": 1}, {"lat": 53.392, "lng": 159.9378, "id": "244365", "name": "Stegophiura brachyactis", "sprite": "sp-sea_cucumber.png", "group": "starfish", "rarity": 1}, {"lat": 52.625, "lng": 158.8333, "id": "117860", "name": "Pantachogon haeckeli", "sprite": "sp-anchoviella_juruasanga.png", "group": "other", "rarity": 1}, {"lat": 54.4661, "lng": 161.6956, "id": "137092", "name": "Megaptera novaeangliae", "sprite": "sp-blue_whale.png", "group": "whale", "rarity": 1}, {"lat": 52.625, "lng": 158.66, "id": "279480", "name": "Spiny snailfish", "thumb": "tn_Acope_u0.gif", "sprite": "sp-anchoviella_juruasanga.png", "group": "other", "rarity": 1, "waterType": "Saltwater"}, {"lat": 52.803, "lng": 158.9, "id": "416573", "name": "Byblis gaimardii", "sprite": "sp-american_lobster.png", "group": "crab_lobster", "rarity": 1}, {"lat": 52.769, "lng": 159.0959, "id": "137092", "name": "Megaptera novaeangliae", "sprite": "sp-blue_whale.png", "group": "whale", "rarity": 1}, {"lat": 53.2309, "lng": 159.8011, "id": "254974", "name": "Eubalaena japonica", "sprite": "sp-blue_whale.png", "group": "whale", "rarity": 1}, {"lat": 52.7833, "lng": 158.7167, "id": "1360", "name": "Actiniaria", "sprite": "sp-actiniidae.png", "group": "coral", "rarity": 1}, {"lat": 52.7853, "lng": 158.7355, "id": "422850", "name": "Mesocrangon", "sprite": "sp-american_lobster.png", "group": "crab_lobster", "rarity": 1}, {"lat": 52.8407, "lng": 159.3333, "id": "124934", "name": "Ophiura sarsii", "sprite": "sp-sea_cucumber.png", "group": "starfish", "rarity": 1}, {"lat": 53.0293, "lng": 158.6306, "id": "126735", "name": "Capelin", "thumb": "tn_Mavil_f0.jpg", "sprite": "sp-anchoviella_juruasanga.png", "group": "other", "rarity": 1, "waterType": "Brackish"}, {"lat": 53.0263, "lng": 158.6363, "id": "240731", "name": "Hexagrammos", "sprite": "sp-anchoviella_juruasanga.png", "group": "other", "rarity": 1}, {"lat": 52.7889, "lng": 158.7417, "id": "117399", "name": "Rhizocaulus verticillatus", "sprite": "sp-anchoviella_juruasanga.png", "group": "other", "rarity": 1}, {"lat": 52.625, "lng": 158.8333, "id": "117617", "name": "Halicreas minimum", "sprite": "sp-anchoviella_juruasanga.png", "group": "other", "rarity": 1}, {"lat": 52.6667, "lng": 159.0, "id": "163782", "name": "Tintinnopsis beroidea", "sprite": "sp-anchoviella_juruasanga.png", "group": "other", "rarity": 1}, {"lat": 53.0755, "lng": 159.3667, "id": "101908", "name": "Ampelisca macrocephala", "sprite": "sp-american_lobster.png", "group": "crab_lobster", "rarity": 1}, {"lat": 53.307, "lng": 159.9032, "id": "2", "name": "Animalia", "sprite": "sp-anchoviella_juruasanga.png", "group": "other", "rarity": 1}, {"lat": 54.306, "lng": 162.1407, "id": "1128", "name": "Euphausiacea", "sprite": "sp-antarctic_krill.png", "group": "shrimp", "rarity": 1}, {"lat": 52.5314, "lng": 158.5462, "id": "137112", "name": "Eschrichtius robustus", "sprite": "sp-blue_whale.png", "group": "whale", "rarity": 1}, {"lat": 52.7806, "lng": 158.7417, "id": "254525", "name": "Thorny sculpin", "thumb": "tn_Icspi_u1.jpg", "sprite": "sp-anchoviella_juruasanga.png", "group": "other", "rarity": 1, "waterType": "Saltwater"}, {"lat": 55.037, "lng": 158.9689, "id": "154781", "name": "Starry flounder", "thumb": "tn_Plste_u1.jpg", "sprite": "sp-atlantic_halibut.png", "group": "flatfish", "rarity": 1, "waterType": "Brackish"}, {"lat": 52.68, "lng": 159.2167, "id": "254594", "name": "Lycenchelys ratmanovi", "sprite": "sp-anchoviella_juruasanga.png", "group": "other", "rarity": 1, "waterType": "Saltwater"}, {"lat": 52.7847, "lng": 158.7417, "id": "107007", "name": "Crangon", "sprite": "sp-american_lobster.png", "group": "crab_lobster", "rarity": 1}, {"lat": 52.7806, "lng": 158.7417, "id": "423437", "name": "Heptacarpus flexus", "sprite": "sp-american_lobster.png", "group": "crab_lobster", "rarity": 1}, {"lat": 53.602, "lng": 160.117, "id": "125100", "name": "Amphiura sundevalli", "sprite": "sp-sea_cucumber.png", "group": "starfish", "rarity": 1}, {"lat": 52.9271, "lng": 158.8724, "id": "137075", "name": "Somateria spectabilis", "sprite": "sp-anchoviella_juruasanga.png", "group": "other", "rarity": 1}, {"lat": 53.05, "lng": 158.717, "id": "119034", "name": "Saduria entomon", "sprite": "sp-american_lobster.png", "group": "crab_lobster", "rarity": 1}, {"lat": 54.405, "lng": 157.5961, "id": "254363", "name": "Northern lampfish", "thumb": "tn_Stleu_u3.gif", "sprite": "sp-anchoviella_juruasanga.png", "group": "other", "rarity": 1, "waterType": "Saltwater"}, {"lat": 52.7833, "lng": 158.7167, "id": "100655", "name": "Actinostolidae", "sprite": "sp-actiniidae.png", "group": "coral", "rarity": 1}, {"lat": 55.0, "lng": 158.0, "id": "126735", "name": "Capelin", "thumb": "tn_Mavil_f0.jpg", "sprite": "sp-anchoviella_juruasanga.png", "group": "other", "rarity": 1, "waterType": "Brackish"}, {"lat": 52.7833, "lng": 158.7354, "id": "513714", "name": "Echinarachnius parma obesus", "sprite": "sp-sea_cucumber.png", "group": "starfish", "rarity": 1}, {"lat": 52.9667, "lng": 158.6, "id": "254561", "name": "Bering flounder", "sprite": "sp-atlantic_halibut.png", "group": "flatfish", "rarity": 1, "waterType": "Saltwater"}, {"lat": 52.8665, "lng": 158.6665, "id": "124321", "name": "Strongylocentrotus droebachiensis", "sprite": "sp-sea_cucumber.png", "group": "starfish", "rarity": 1}, {"lat": 52.758, "lng": 161.683, "id": "243793", "name": "Ophiomonas protecta", "sprite": "sp-sea_cucumber.png", "group": "starfish", "rarity": 1}, {"lat": 52.7331, "lng": 158.5331, "id": "148905", "name": "Cyclotella", "sprite": "sp-anchoviella_juruasanga.png", "group": "other", "rarity": 1}, {"lat": 53.0195, "lng": 158.6704, "id": "154570", "name": "Steller's sculpin", "thumb": "tn_Myste_u0.jpg", "sprite": "sp-anchoviella_juruasanga.png", "group": "other", "rarity": 1, "waterType": "Brackish"}, {"lat": 52.7833, "lng": 158.7167, "id": "254566", "name": "Tadpole sculpin", "thumb": "tn_Pspar_u6.jpg", "sprite": "sp-anchoviella_juruasanga.png", "group": "other", "rarity": 1, "waterType": "Saltwater"}, {"lat": 52.7847, "lng": 158.7417, "id": "556967", "name": "Margarites avachensis", "sprite": "sp-cowrie_shell.png", "group": "sea_snail", "rarity": 1}, {"lat": 52.6634, "lng": 163.0695, "id": "148912", "name": "Thalassiosira", "sprite": "sp-anchoviella_juruasanga.png", "group": "other", "rarity": 1}, {"lat": 55.0, "lng": 158.0, "id": "274782", "name": "Dusky rockfish", "thumb": "tn_Secil_u0.jpg", "sprite": "sp-anchoviella_juruasanga.png", "group": "other", "rarity": 1, "waterType": "Saltwater"}, {"lat": 52.625, "lng": 158.8333, "id": "221207", "name": "Protiaropsis anonyma", "sprite": "sp-anchoviella_juruasanga.png", "group": "other", "rarity": 1}, {"lat": 53.3392, "lng": 161.2487, "id": "344104", "name": "Phoebastria immutabilis", "sprite": "sp-anchoviella_juruasanga.png", "group": "other", "rarity": 1}, {"lat": 54.306, "lng": 162.1407, "id": "1100", "name": "Calanoida", "sprite": "sp-anchoviella_juruasanga.png", "group": "other", "rarity": 1}, {"lat": 52.783, "lng": 158.717, "id": "440405", "name": "Erimacrus isenbeckii", "sprite": "sp-american_lobster.png", "group": "crab_lobster", "rarity": 1}, {"lat": 54.0, "lng": 158.0, "id": "254299", "name": "Smooth lumpsucker", "thumb": "tn_Apven_u1.jpg", "sprite": "sp-anchoviella_juruasanga.png", "group": "other", "rarity": 1, "waterType": "Saltwater"}, {"lat": 54.306, "lng": 162.1407, "id": "104152", "name": "Calanus", "sprite": "sp-anchoviella_juruasanga.png", "group": "other", "rarity": 1}, {"lat": 53.75, "lng": 161.167, "id": "101908", "name": "Ampelisca macrocephala", "sprite": "sp-american_lobster.png", "group": "crab_lobster", "rarity": 1}, {"lat": 52.793, "lng": 158.7915, "id": "102419", "name": "Ischyrocerus latipes", "sprite": "sp-american_lobster.png", "group": "crab_lobster", "rarity": 1}, {"lat": 52.7, "lng": 158.73, "id": "290456", "name": "Neohalcampa sheikoi", "sprite": "sp-actiniidae.png", "group": "coral", "rarity": 1}, {"lat": 54.3485, "lng": 161.125, "id": "242652", "name": "Amphiodia craterodmeta", "sprite": "sp-sea_cucumber.png", "group": "starfish", "rarity": 1}, {"lat": 52.7843, "lng": 158.7333, "id": "124324", "name": "Strongylocentrotus pallidus", "sprite": "sp-sea_cucumber.png", "group": "starfish", "rarity": 1}, {"lat": 53.0161, "lng": 158.6393, "id": "275844", "name": "Arctic flounder", "thumb": "tn_Ligla_u0.gif", "sprite": "sp-atlantic_halibut.png", "group": "flatfish", "rarity": 1, "waterType": "Brackish"}, {"lat": 52.7861, "lng": 158.7292, "id": "19494", "name": "Hydroidolina", "sprite": "sp-anchoviella_juruasanga.png", "group": "other", "rarity": 1}, {"lat": 52.625, "lng": 158.8333, "id": "274421", "name": "Falcate snailfish", "thumb": "tn_Cacyp_u0.gif", "sprite": "sp-anchoviella_juruasanga.png", "group": "other", "rarity": 1, "waterType": "Saltwater"}, {"lat": 54.197, "lng": 161.0, "id": "102224", "name": "Rhachotropis aculeata", "sprite": "sp-american_lobster.png", "group": "crab_lobster", "rarity": 1}, {"lat": 53.0667, "lng": 160.2333, "id": "172496", "name": "Metaconchoecia alta", "sprite": "sp-anchoviella_juruasanga.png", "group": "other", "rarity": 1}, {"lat": 54.4107, "lng": 157.5894, "id": "126040", "name": "Howella", "sprite": "sp-anchoviella_juruasanga.png", "group": "other", "rarity": 1}, {"lat": 52.783, "lng": 158.717, "id": "254498", "name": "Evasterias echinosoma", "sprite": "sp-sea_cucumber.png", "group": "starfish", "rarity": 1}, {"lat": 54.405, "lng": 157.5961, "id": "254364", "name": "Garnet lanternfish", "thumb": "tn_Stnan_u0.gif", "sprite": "sp-anchoviella_juruasanga.png", "group": "other", "rarity": 1, "waterType": "Saltwater"}, {"lat": 52.7847, "lng": 158.7417, "id": "174574", "name": "Sertularella gigantea", "sprite": "sp-anchoviella_juruasanga.png", "group": "other", "rarity": 1}, {"lat": 53.25, "lng": 159.95, "id": "181930", "name": "Diastylis aspera", "sprite": "sp-american_lobster.png", "group": "crab_lobster", "rarity": 1}, {"lat": 53.0293, "lng": 158.6306, "id": "279417", "name": "Silverspotted sculpin", "thumb": "tn_Blcir_u0.jpg", "sprite": "sp-anchoviella_juruasanga.png", "group": "other", "rarity": 1, "waterType": "Saltwater"}, {"lat": 54.8333, "lng": 162.1667, "id": "344104", "name": "Phoebastria immutabilis", "sprite": "sp-anchoviella_juruasanga.png", "group": "other", "rarity": 1}, {"lat": 53.1872, "lng": 159.703, "id": "102415", "name": "Ischyrocerus commensalis", "sprite": "sp-american_lobster.png", "group": "crab_lobster", "rarity": 1}, {"lat": 52.9625, "lng": 158.6083, "id": "127070", "name": "Stout eelblenny", "thumb": "tn_Anmed_u0.jpg", "sprite": "sp-anchoviella_juruasanga.png", "group": "other", "rarity": 1, "waterType": "Saltwater"}, {"lat": 52.6634, "lng": 163.0695, "id": "104152", "name": "Calanus", "sprite": "sp-anchoviella_juruasanga.png", "group": "other", "rarity": 1}, {"lat": 52.7889, "lng": 158.7417, "id": "515240", "name": "Eualus townsendi", "sprite": "sp-american_lobster.png", "group": "crab_lobster", "rarity": 1}, {"lat": 52.6634, "lng": 163.0695, "id": "1100", "name": "Calanoida", "sprite": "sp-anchoviella_juruasanga.png", "group": "other", "rarity": 1}, {"lat": 52.9953, "lng": 158.9575, "id": "840689", "name": "Levanderina fissa", "sprite": "sp-anchoviella_juruasanga.png", "group": "other", "rarity": 1}, {"lat": 55.0, "lng": 158.0, "id": "282959", "name": "Eulachon", "thumb": "tn_Thpac_u0.gif", "sprite": "sp-anchoviella_juruasanga.png", "group": "other", "rarity": 1, "waterType": "Brackish"}, {"lat": 53.5, "lng": 163.0, "id": "300735", "name": "Alaska pollock", "thumb": "tn_Thcha_u0.jpg", "sprite": "sp-arctogadus.png", "group": "cod", "rarity": 1, "waterType": "Unknown"}, {"lat": 55.037, "lng": 158.9689, "id": "254556", "name": "Pond smelt", "thumb": "tn_Hyoli_u1.jpg", "sprite": "sp-anchoviella_juruasanga.png", "group": "other", "rarity": 1, "waterType": "Brackish"}, {"lat": 53.0029, "lng": 158.648, "id": "154781", "name": "Starry flounder", "thumb": "tn_Plste_u1.jpg", "sprite": "sp-atlantic_halibut.png", "group": "flatfish", "rarity": 1, "waterType": "Brackish"}, {"lat": 54.243, "lng": 160.283, "id": "2", "name": "Animalia", "sprite": "sp-anchoviella_juruasanga.png", "group": "other", "rarity": 1}, {"lat": 52.975, "lng": 158.625, "id": "11707", "name": "Cephalopoda", "sprite": "sp-giant_pacific_octopus.png", "group": "octopus_squid", "rarity": 1}, {"lat": 52.9523, "lng": 160.4622, "id": "163030", "name": "Phaeoceros", "sprite": "sp-anchoviella_juruasanga.png", "group": "other", "rarity": 1}]}