{"zoom": 6, "x": 60, "y": 43, "points": [{"lat": -53.4833, "lng": 158.9333, "id": "234813", "name": "Eaton's skate", "thumb": "tn_Baeat_u0.gif", "sprite": "sp-himantura_australis.png", "group": "ray", "rarity": 1, "waterType": "Saltwater"}, {"lat": -54.8447, "lng": 159.571, "id": "176588", "name": "Pseudoconchoecia serrulata", "sprite": "sp-anchoviella_juruasanga.png", "group": "other", "rarity": 1}, {"lat": -55.0635, "lng": 158.7043, "id": "220837", "name": "Rhincalanus gigas", "sprite": "sp-anchoviella_juruasanga.png", "group": "other", "rarity": 1}, {"lat": -53.7152, "lng": 159.1305, "id": "1839", "name": "Ascidiacea", "sprite": "sp-anchoviella_juruasanga.png", "group": "other", "rarity": 1}, {"lat": -54.8103, "lng": 158.4071, "id": "217616", "name": "Black dragonfish", "thumb": "tn_Idatl_u0.jpg", "sprite": "sp-anchoviella_juruasanga.png", "group": "other", "rarity": 1, "waterType": "Saltwater"}, {"lat": -54.5507, "lng": 158.9057, "id": "137779", "name": "Chiton", "sprite": "sp-anchoviella_juruasanga.png", "group": "other", "rarity": 1}, {"lat": -55.0793, "lng": 158.6463, "id": "110671", "name": "Euphausiidae", "sprite": "sp-antarctic_krill.png", "group": "shrimp", "rarity": 1}, {"lat": -54.5039, "lng": 158.9396, "id": "600500", "name": "Sinezona subantarctica", "sprite": "sp-cowrie_shell.png", "group": "sea_snail", "rarity": 1}, {"lat": -53.5347, "lng": 159.4421, "id": "234642", "name": "Brauer’s lanternfish", "thumb": "tn_Gybra_u0.gif", "sprite": "sp-anchoviella_juruasanga.png", "group": "other", "rarity": 1, "waterType": "Saltwater"}, {"lat": -53.7211, "lng": 159.1305, "id": "184559", "name": "Abyssocladia", "sprite": "sp-barrel_sponge.png", "group": "sponge", "rarity": 1}, {"lat": -53.6617, "lng": 159.3001, "id": "234657", "name": "Fraser’s lanternfish", "thumb": "tn_Gyfra_u1.gif", "sprite": "sp-anchoviella_juruasanga.png", "group": "other", "rarity": 1, "waterType": "Saltwater"}, {"lat": -54.6491, "lng": 158.73, "id": "234664", "name": "Southern opah", "thumb": "tn_Laimm_u0.jpg", "sprite": "sp-anchoviella_juruasanga.png", "group": "other", "rarity": 1, "waterType": "Saltwater"}, {"lat": -54.595, "lng": 158.94, "id": "113171", "name": "Rosalina globularis", "sprite": "sp-anchoviella_juruasanga.png", "group": "other", "rarity": 1}, {"lat": -55.3663, "lng": 158.4067, "id": "284800", "name": "Hydrodendron tottoni", "sprite": "sp-anchoviella_juruasanga.png", "group": "other", "rarity": 1}, {"lat": -53.7274, "lng": 159.1359, "id": "231644", "name": "Latrunculia (Latrunculia) basalis", "sprite": "sp-barrel_sponge.png", "group": "sponge", "rarity": 1}, {"lat": -53.7179, "lng": 159.1404, "id": "134405", "name": "Regadrella phoenix", "sprite": "sp-barrel_sponge.png", "group": "sponge", "rarity": 1}, {"lat": -52.5167, "lng": 160.5167, "id": "1131", "name": "Isopoda", "sprite": "sp-american_lobster.png", "group": "crab_lobster", "rarity": 1}, {"lat": -53.7152, "lng": 159.1305, "id": "125270", "name": "Clavulariidae", "sprite": "sp-actiniidae.png", "group": "coral", "rarity": 1}, {"lat": -54.59, "lng": 158.8457, "id": "138281", "name": "Todarodes", "sprite": "sp-giant_pacific_octopus.png", "group": "octopus_squid", "rarity": 1}, {"lat": -54.4865, "lng": 158.953, "id": "129642", "name": "Spirorbis", "sprite": "sp-anchoviella_juruasanga.png", "group": "other", "rarity": 1}, {"lat": -52.502, "lng": 160.4658, "id": "235675", "name": "Gyrothyris mawsoni", "sprite": "sp-anchoviella_juruasanga.png", "group": "other", "rarity": 1}, {"lat": -53.7244, "lng": 159.1142, "id": "1131", "name": "Isopoda", "sprite": "sp-american_lobster.png", "group": "crab_lobster", "rarity": 1}, {"lat": -53.6317, "lng": 159.1581, "id": "231623", "name": "Halecium ovatum", "sprite": "sp-anchoviella_juruasanga.png", "group": "other", "rarity": 1}, {"lat": -54.5833, "lng": 158.917, "id": "237502", "name": "Paramoera macquariae", "sprite": "sp-american_lobster.png", "group": "crab_lobster", "rarity": 1}, {"lat": -54.4833, "lng": 158.95, "id": "1551315", "name": "Meridiosignum macquariensis", "sprite": "sp-american_lobster.png", "group": "crab_lobster", "rarity": 1}, {"lat": -55.4201, "lng": 158.9128, "id": "746007", "name": "Pleuromamma robusta robusta", "sprite": "sp-anchoviella_juruasanga.png", "group": "other", "rarity": 1}, {"lat": -55.4833, "lng": 158.525, "id": "231552", "name": "Lepidotheca", "sprite": "sp-anchoviella_juruasanga.png", "group": "other", "rarity": 1}, {"lat": -55.3533, "lng": 158.4368, "id": "123310", "name": "Odontaster", "sprite": "sp-sea_cucumber.png", "group": "starfish", "rarity": 1}, {"lat": -54.483, "lng": 158.966, "id": "225971", "name": "Eudyptes pachyrhynchus", "sprite": "sp-anchoviella_juruasanga.png", "group": "other", "rarity": 1}, {"lat": -54.766, "lng": 158.8, "id": "385893", "name": "Callochiton mortenseni", "sprite": "sp-anchoviella_juruasanga.png", "group": "other", "rarity": 1}, {"lat": -54.6, "lng": 158.8, "id": "1390906", "name": "Notholca jugosa", "sprite": "sp-anchoviella_juruasanga.png", "group": "other", "rarity": 1}, {"lat": -54.483, "lng": 158.95, "id": "237470", "name": "Atyloella magellanica", "sprite": "sp-american_lobster.png", "group": "crab_lobster", "rarity": 1}, {"lat": -54.4968, "lng": 158.9185, "id": "129609", "name": "Boccardia", "sprite": "sp-anchoviella_juruasanga.png", "group": "other", "rarity": 1}, {"lat": -53.738, "lng": 159.1142, "id": "125321", "name": "Primnoa", "sprite": "sp-actiniidae.png", "group": "coral", "rarity": 1}, {"lat": -55.6672, "lng": 159.417, "id": "735535", "name": "Gyroidinoides zelandica", "sprite": "sp-anchoviella_juruasanga.png", "group": "other", "rarity": 1}, {"lat": -53.9317, "lng": 159.098, "id": "125305", "name": "Isidella", "sprite": "sp-actiniidae.png", "group": "coral", "rarity": 1}, {"lat": -54.0, "lng": 158.0, "id": "236216", "name": "Euphausia crystallorophias", "sprite": "sp-antarctic_krill.png", "group": "shrimp", "rarity": 1}, {"lat": -53.3468, "lng": 160.8722, "id": "1571884", "name": "Sagmatias australis", "sprite": "sp-bottlenose_dolphin.png", "group": "dolphin", "rarity": 1}, {"lat": -54.4167, "lng": 159.0333, "id": "291574", "name": "Henricia aucklandiae", "sprite": "sp-sea_cucumber.png", "group": "starfish", "rarity": 1}, {"lat": -53.869, "lng": 159.072, "id": "205276", "name": "Gymnoscopelus", "sprite": "sp-anchoviella_juruasanga.png", "group": "other", "rarity": 1}, {"lat": -53.77, "lng": 158.98, "id": "1080", "name": "Copepoda", "sprite": "sp-anchoviella_juruasanga.png", "group": "other", "rarity": 1}, {"lat": -55.406, "lng": 158.9113, "id": "104434", "name": "Haloptilus oxycephalus", "sprite": "sp-anchoviella_juruasanga.png", "group": "other", "rarity": 1}, {"lat": -54.636, "lng": 158.8722, "id": "212631", "name": "Phoebetria palpebrata", "sprite": "sp-anchoviella_juruasanga.png", "group": "other", "rarity": 1}, {"lat": -55.3713, "lng": 158.4133, "id": "170263", "name": "Poecillastra laminaris", "sprite": "sp-barrel_sponge.png", "group": "sponge", "rarity": 1}, {"lat": -54.7037, "lng": 158.8359, "id": "342435", "name": "Calanus propinquus", "sprite": "sp-anchoviella_juruasanga.png", "group": "other", "rarity": 1}, {"lat": -54.6, "lng": 158.8, "id": "431954", "name": "Rotaria rotatoria", "sprite": "sp-anchoviella_juruasanga.png", "group": "other", "rarity": 1}, {"lat": -54.813, "lng": 158.7423, "id": "152391", "name": "Nemertea", "sprite": "sp-anchoviella_juruasanga.png", "group": "other", "rarity": 1}, {"lat": -54.5909, "lng": 158.8584, "id": "212642", "name": "Pterodroma lessonii", "sprite": "sp-anchoviella_juruasanga.png", "group": "other", "rarity": 1}, {"lat": -53.75, "lng": 159.125, "id": "135112", "name": "Enallopsammia", "sprite": "sp-actiniidae.png", "group": "coral", "rarity": 1}, {"lat": -54.5, "lng": 158.0, "id": "197430", "name": "Puncturella conica", "sprite": "sp-cowrie_shell.png", "group": "sea_snail", "rarity": 1}, {"lat": -53.4489, "lng": 159.527, "id": "127278", "name": "Bean's bigscale", "thumb": "tn_Scbea_u0.gif", "sprite": "sp-anchoviella_juruasanga.png", "group": "other", "rarity": 1, "waterType": "Saltwater"}, {"lat": -54.5326, "lng": 159.0076, "id": "291473", "name": "Parasterope micrommata", "sprite": "sp-anchoviella_juruasanga.png", "group": "other", "rarity": 1}, {"lat": -54.9668, "lng": 157.9937, "id": "850801", "name": "Metridia lucens lucens", "sprite": "sp-anchoviella_juruasanga.png", "group": "other", "rarity": 1}, {"lat": -54.5666, "lng": 158.9081, "id": "123121", "name": "Asteriidae", "sprite": "sp-sea_cucumber.png", "group": "starfish", "rarity": 1}, {"lat": -54.847, "lng": 158.7861, "id": "172560", "name": "Smilasterias", "sprite": "sp-sea_cucumber.png", "group": "starfish", "rarity": 1}, {"lat": -53.5731, "lng": 159.3817, "id": "234737", "name": "Andriashev’s lanternfish", "thumb": "tn_Prand_u1.gif", "sprite": "sp-anchoviella_juruasanga.png", "group": "other", "rarity": 1, "waterType": "Saltwater"}, {"lat": -53.9089, "lng": 159.0555, "id": "126643", "name": "Snubnosed spiny eel", "thumb": "tn_Noche_u0.jpg", "sprite": "sp-anchoviella_juruasanga.png", "group": "other", "rarity": 1, "waterType": "Saltwater"}, {"lat": -53.7245, "lng": 159.1405, "id": "22805", "name": "Stylasteridae", "sprite": "sp-anchoviella_juruasanga.png", "group": "other", "rarity": 1}, {"lat": -55.1292, "lng": 158.6348, "id": "220007", "name": "Silver lightfish", "thumb": "tn_Pharg_u0.jpg", "sprite": "sp-anchoviella_juruasanga.png", "group": "other", "rarity": 1, "waterType": "Saltwater"}, {"lat": -54.533, "lng": 159.033, "id": "167605", "name": "Clathria (Microciona)", "sprite": "sp-barrel_sponge.png", "group": "sponge", "rarity": 1}, {"lat": -55.3782, "lng": 160.5981, "id": "105409", "name": "Pseudosagitta", "sprite": "sp-anchoviella_juruasanga.png", "group": "other", "rarity": 1}, {"lat": -53.7152, "lng": 159.1305, "id": "137858", "name": "Cuspidaria", "sprite": "sp-blue_mussel.png", "group": "clam_mussel", "rarity": 1}, {"lat": -54.5633, "lng": 158.7517, "id": "272913", "name": "Bathylagichthys problematicus", "sprite": "sp-anchoviella_juruasanga.png", "group": "other", "rarity": 1, "waterType": "Saltwater"}, {"lat": -54.467, "lng": 159.65, "id": "127846", "name": "Paraconchoecia spinifera", "sprite": "sp-anchoviella_juruasanga.png", "group": "other", "rarity": 1}, {"lat": -54.4667, "lng": 158.967, "id": "237130", "name": "Aurometopa aurorae", "sprite": "sp-american_lobster.png", "group": "crab_lobster", "rarity": 1}, {"lat": -54.408, "lng": 159.008, "id": "101365", "name": "Amphilochidae", "sprite": "sp-american_lobster.png", "group": "crab_lobster", "rarity": 1}, {"lat": -53.7152, "lng": 159.1305, "id": "129296", "name": "Glycera", "sprite": "sp-anchoviella_juruasanga.png", "group": "other", "rarity": 1}, {"lat": -54.7658, "lng": 158.8723, "id": "284931", "name": "Acryptolaria operculata", "sprite": "sp-anchoviella_juruasanga.png", "group": "other", "rarity": 1}, {"lat": -54.6272, "lng": 158.8491, "id": "1452502", "name": "Moroteuthopsis ingens", "sprite": "sp-giant_pacific_octopus.png", "group": "octopus_squid", "rarity": 1}, {"lat": -54.683, "lng": 158.9, "id": "584329", "name": "Friginatica", "sprite": "sp-cowrie_shell.png", "group": "sea_snail", "rarity": 1}, {"lat": -52.4873, "lng": 160.415, "id": "285806", "name": "Errina cheilopora", "sprite": "sp-anchoviella_juruasanga.png", "group": "other", "rarity": 1}, {"lat": -53.1517, "lng": 157.51, "id": "125683", "name": "Scopelarchus", "sprite": "sp-anchoviella_juruasanga.png", "group": "other", "rarity": 1}, {"lat": -53.46, "lng": 159.5375, "id": "290987", "name": "Rhodelinda gardineri", "sprite": "sp-actiniidae.png", "group": "coral", "rarity": 1}, {"lat": -52.497, "lng": 160.4892, "id": "1803", "name": "Brachiopoda", "sprite": "sp-anchoviella_juruasanga.png", "group": "other", "rarity": 1}, {"lat": -54.4833, "lng": 158.95, "id": "1551005", "name": "Austrosignum pilosum", "sprite": "sp-american_lobster.png", "group": "crab_lobster", "rarity": 1}, {"lat": -54.7583, "lng": 158.8667, "id": "291664", "name": "Hoplaster kupe", "sprite": "sp-sea_cucumber.png", "group": "starfish", "rarity": 1}, {"lat": -53.77, "lng": 158.98, "id": "103357", "name": "Appendicularia", "sprite": "sp-anchoviella_juruasanga.png", "group": "other", "rarity": 1}, {"lat": -54.867, "lng": 159.033, "id": "369647", "name": "Falklandiella", "sprite": "sp-anchoviella_juruasanga.png", "group": "other", "rarity": 1}, {"lat": -54.5, "lng": 158.95, "id": "101411", "name": "Talitridae", "sprite": "sp-american_lobster.png", "group": "crab_lobster", "rarity": 1}, {"lat": -52.497, "lng": 160.4892, "id": "231637", "name": "Latrunculia (Latrunculia)", "sprite": "sp-barrel_sponge.png", "group": "sponge", "rarity": 1}, {"lat": -54.7396, "lng": 158.6887, "id": "234747", "name": "Temperate snaggletooth", "sprite": "sp-anchoviella_juruasanga.png", "group": "other", "rarity": 1, "waterType": "Saltwater"}, {"lat": -54.715, "lng": 158.701, "id": "209381", "name": "Robust cardinalfish", "thumb": "tn_Eprob_u0.jpg", "sprite": "sp-anchoviella_juruasanga.png", "group": "other", "rarity": 1, "waterType": "Saltwater"}, {"lat": -53.7152, "lng": 159.1305, "id": "231639", "name": "Latrunculia (Biannulata)", "sprite": "sp-barrel_sponge.png", "group": "sponge", "rarity": 1}, {"lat": -54.7103, "lng": 158.7694, "id": "832080", "name": "Ischnochiton circumvallatus", "sprite": "sp-anchoviella_juruasanga.png", "group": "other", "rarity": 1}, {"lat": -55.103, "lng": 158.5819, "id": "1302", "name": "Pycnogonida", "sprite": "sp-anchoviella_juruasanga.png", "group": "other", "rarity": 1}, {"lat": -54.531, "lng": 158.7844, "id": "225770", "name": "Puffinus tenuirostris", "sprite": "sp-anchoviella_juruasanga.png", "group": "other", "rarity": 1}, {"lat": -54.7702, "lng": 158.8804, "id": "225760", "name": "Thalassarche chrysostoma", "sprite": "sp-anchoviella_juruasanga.png", "group": "other", "rarity": 1}, {"lat": -54.639, "lng": 158.7203, "id": "138484", "name": "Stoloteuthis", "sprite": "sp-giant_pacific_octopus.png", "group": "octopus_squid", "rarity": 1}, {"lat": -54.4916, "lng": 158.9562, "id": "256323", "name": "Paramunna macquariensis", "sprite": "sp-american_lobster.png", "group": "crab_lobster", "rarity": 1}, {"lat": -54.4954, "lng": 158.9107, "id": "1656968", "name": "Neoechiniscoides horningi", "sprite": "sp-anchoviella_juruasanga.png", "group": "other", "rarity": 1}, {"lat": -53.5977, "lng": 159.3479, "id": "126220", "name": "Stomias", "sprite": "sp-anchoviella_juruasanga.png", "group": "other", "rarity": 1}, {"lat": -55.67, "lng": 159.42, "id": "127632", "name": "Krithe", "sprite": "sp-anchoviella_juruasanga.png", "group": "other", "rarity": 1}, {"lat": -54.0, "lng": 158.0, "id": "236217", "name": "Euphausia superba", "sprite": "sp-antarctic_krill.png", "group": "shrimp", "rarity": 1}, {"lat": -53.4833, "lng": 158.9333, "id": "234840", "name": "Marbled rockcod", "thumb": "tn_Noros_u1.jpg", "sprite": "sp-anchoviella_juruasanga.png", "group": "other", "rarity": 1, "waterType": "Saltwater"}, {"lat": -54.6714, "lng": 158.7178, "id": "217761", "name": "Longrayed whiptail", "thumb": "tn_Cosub_u5.jpg", "sprite": "sp-anchoviella_juruasanga.png", "group": "other", "rarity": 1, "waterType": "Saltwater"}, {"lat": -54.553, "lng": 158.865, "id": "952", "name": "Glyceridae", "sprite": "sp-anchoviella_juruasanga.png", "group": "other", "rarity": 1}, {"lat": -54.8333, "lng": 157.9, "id": "325374", "name": "Chuneola paradoxa", "sprite": "sp-american_lobster.png", "group": "crab_lobster", "rarity": 1}, {"lat": -54.0, "lng": 158.0, "id": "234802", "name": "Emerald rockcod", "thumb": "tn_Trber_u0.jpg", "sprite": "sp-anchoviella_juruasanga.png", "group": "other", "rarity": 1, "waterType": "Saltwater"}, {"lat": -54.483, "lng": 158.95, "id": "1730", "name": "Scissurellidae", "sprite": "sp-cowrie_shell.png", "group": "sea_snail", "rarity": 1}, {"lat": -52.5029, "lng": 160.4853, "id": "267809", "name": "Rhodelinda", "sprite": "sp-actiniidae.png", "group": "coral", "rarity": 1}, {"lat": -54.5419, "lng": 158.918, "id": "411074", "name": "Meridiosignum minidenticulatum", "sprite": "sp-american_lobster.png", "group": "crab_lobster", "rarity": 1}, {"lat": -54.45, "lng": 159.067, "id": "536010", "name": "Rotundoecia teretivalvata", "sprite": "sp-anchoviella_juruasanga.png", "group": "other", "rarity": 1}, {"lat": -54.85, "lng": 158.6333, "id": "197228", "name": "Limatula ovalis", "sprite": "sp-blue_mussel.png", "group": "clam_mussel", "rarity": 1}, {"lat": -54.5233, "lng": 158.847, "id": "138074", "name": "Histioteuthis", "sprite": "sp-giant_pacific_octopus.png", "group": "octopus_squid", "rarity": 1}, {"lat": -54.8233, "lng": 158.6633, "id": "240812", "name": "Notostomus auriculatus", "sprite": "sp-american_lobster.png", "group": "crab_lobster", "rarity": 1}, {"lat": -54.5, "lng": 158.8, "id": "234836", "name": "Antarctic toothfish", "thumb": "tn_Dimaw_u1.jpg", "sprite": "sp-anchoviella_juruasanga.png", "group": "other", "rarity": 1, "waterType": "Saltwater"}, {"lat": -54.7, "lng": 158.75, "id": "123143", "name": "Solasteridae", "sprite": "sp-sea_cucumber.png", "group": "starfish", "rarity": 1}, {"lat": -54.5745, "lng": 158.9415, "id": "129246", "name": "Dodecaceria", "sprite": "sp-anchoviella_juruasanga.png", "group": "other", "rarity": 1}, {"lat": -54.7571, "lng": 158.8315, "id": "123083", "name": "Holothuroidea", "sprite": "sp-sea_cucumber.png", "group": "starfish", "rarity": 1}, {"lat": -53.4718, "lng": 158.7741, "id": "212631", "name": "Phoebetria palpebrata", "sprite": "sp-anchoviella_juruasanga.png", "group": "other", "rarity": 1}, {"lat": -52.4938, "lng": 160.4644, "id": "170263", "name": "Poecillastra laminaris", "sprite": "sp-barrel_sponge.png", "group": "sponge", "rarity": 1}, {"lat": -54.5, "lng": 158.95, "id": "176949", "name": "Atyloella", "sprite": "sp-american_lobster.png", "group": "crab_lobster", "rarity": 1}, {"lat": -53.3969, "lng": 158.6719, "id": "212642", "name": "Pterodroma lessonii", "sprite": "sp-anchoviella_juruasanga.png", "group": "other", "rarity": 1}, {"lat": -54.5, "lng": 158.95, "id": "852317", "name": "Sphaerodoropsis heteropapillata", "sprite": "sp-anchoviella_juruasanga.png", "group": "other", "rarity": 1}, {"lat": -54.5613, "lng": 158.9007, "id": "237496", "name": "Apohyale hirtipalma", "sprite": "sp-american_lobster.png", "group": "crab_lobster", "rarity": 1}, {"lat": -54.6199, "lng": 158.861, "id": "293140", "name": "Tigriopus californicus", "sprite": "sp-anchoviella_juruasanga.png", "group": "other", "rarity": 1}, {"lat": -55.199, "lng": 159.6866, "id": "103357", "name": "Appendicularia", "sprite": "sp-anchoviella_juruasanga.png", "group": "other", "rarity": 1}, {"lat": -52.4967, "lng": 160.6317, "id": "217708", "name": "Southern lanternfish", "thumb": "tn_Laaus_u4.jpg", "sprite": "sp-anchoviella_juruasanga.png", "group": "other", "rarity": 1, "waterType": "Saltwater"}, {"lat": -54.6651, "lng": 158.9079, "id": "290987", "name": "Rhodelinda gardineri", "sprite": "sp-actiniidae.png", "group": "coral", "rarity": 1}, {"lat": -54.05, "lng": 158.98, "id": "291473", "name": "Parasterope micrommata", "sprite": "sp-anchoviella_juruasanga.png", "group": "other", "rarity": 1}]}