{"zoom": 6, "x": 62, "y": 21, "points": [{"lat": 51.1802, "lng": 170.4282, "id": "370366", "name": "Chaetoceros (Hyalochaete)", "sprite": "sp-anchoviella_juruasanga.png", "group": "other", "rarity": 1}, {"lat": 51.7733, "lng": 170.2904, "id": "148917", "name": "Coscinodiscus", "sprite": "sp-anchoviella_juruasanga.png", "group": "other", "rarity": 1}, {"lat": 52.3301, "lng": 174.1263, "id": "342286", "name": "Berryteuthis magister", "sprite": "sp-giant_pacific_octopus.png", "group": "octopus_squid", "rarity": 1}, {"lat": 51.8212, "lng": 173.0283, "id": "196813", "name": "Neodenticula seminae", "sprite": "sp-anchoviella_juruasanga.png", "group": "other", "rarity": 1}, {"lat": 52.4073, "lng": 174.2673, "id": "171875", "name": "Regadrella okinoseana", "sprite": "sp-barrel_sponge.png", "group": "sponge", "rarity": 1}, {"lat": 52.4227, "lng": 173.5831, "id": "282255", "name": "Ribbon prickleback", "thumb": "tn_Phchi_u0.gif", "sprite": "sp-anchoviella_juruasanga.png", "group": "other", "rarity": 1, "waterType": "Saltwater"}, {"lat": 52.2417, "lng": 174.217, "id": "257927", "name": "Antarcturus hirsutus", "sprite": "sp-american_lobster.png", "group": "crab_lobster", "rarity": 1}, {"lat": 52.3006, "lng": 173.7326, "id": "125278", "name": "Primnoidae", "sprite": "sp-actiniidae.png", "group": "coral", "rarity": 1}, {"lat": 52.4086, "lng": 174.2712, "id": "134035", "name": "Geodia mesotriaena", "sprite": "sp-barrel_sponge.png", "group": "sponge", "rarity": 1}, {"lat": 52.2417, "lng": 174.2167, "id": "489643", "name": "Dulichiopsis barnardi", "sprite": "sp-american_lobster.png", "group": "crab_lobster", "rarity": 1}, {"lat": 49.9833, "lng": 170.0, "id": "271620", "name": "Highfin dogfish", "sprite": "sp-great_white_shark.png", "group": "shark", "rarity": 1, "waterType": "Saltwater"}, {"lat": 52.4638, "lng": 173.373, "id": "254385", "name": "Whitebarred prickleback", "sprite": "sp-anchoviella_juruasanga.png", "group": "other", "rarity": 1, "waterType": "Saltwater"}, {"lat": 52.4067, "lng": 173.2733, "id": "128495", "name": "Pennatula", "sprite": "sp-actiniidae.png", "group": "coral", "rarity": 1}, {"lat": 52.395, "lng": 173.588, "id": "143853", "name": "Polysiphonia", "sprite": "sp-anchoviella_juruasanga.png", "group": "other", "rarity": 1}, {"lat": 52.3393, "lng": 174.2394, "id": "1341", "name": "Octocorallia", "sprite": "sp-actiniidae.png", "group": "coral", "rarity": 1}, {"lat": 52.1933, "lng": 173.94, "id": "135220", "name": "Scyphozoa", "sprite": "sp-box_jellyfish.png", "group": "jellyfish", "rarity": 1}, {"lat": 52.2417, "lng": 174.2167, "id": "117970", "name": "Modeeria rotunda", "sprite": "sp-anchoviella_juruasanga.png", "group": "other", "rarity": 1}, {"lat": 52.286, "lng": 173.9029, "id": "254525", "name": "Thorny sculpin", "thumb": "tn_Icspi_u1.jpg", "sprite": "sp-anchoviella_juruasanga.png", "group": "other", "rarity": 1, "waterType": "Saltwater"}, {"lat": 52.2953, "lng": 173.6924, "id": "125589", "name": "Cottidae", "sprite": "sp-anchoviella_juruasanga.png", "group": "other", "rarity": 1}, {"lat": 51.7601, "lng": 170.4478, "id": "254974", "name": "Eubalaena japonica", "sprite": "sp-blue_whale.png", "group": "whale", "rarity": 1}, {"lat": 52.42, "lng": 170.88, "id": "255850", "name": "Hydroniscus vitjazi", "sprite": "sp-american_lobster.png", "group": "crab_lobster", "rarity": 1}, {"lat": 52.3582, "lng": 174.1483, "id": "254360", "name": "Telmessus cheiragonus", "sprite": "sp-american_lobster.png", "group": "crab_lobster", "rarity": 1}, {"lat": 51.6622, "lng": 169.5775, "id": "841746", "name": "Tripos pentagonus", "sprite": "sp-anchoviella_juruasanga.png", "group": "other", "rarity": 1}, {"lat": 52.2417, "lng": 174.217, "id": "243915", "name": "Ophiopholis japonica", "sprite": "sp-sea_cucumber.png", "group": "starfish", "rarity": 1}, {"lat": 52.395, "lng": 173.588, "id": "143918", "name": "Odonthalia", "sprite": "sp-anchoviella_juruasanga.png", "group": "other", "rarity": 1}, {"lat": 52.285, "lng": 173.6838, "id": "282289", "name": "Atka mackerel", "thumb": "tn_Plmon_u3.jpg", "sprite": "sp-anchoviella_juruasanga.png", "group": "other", "rarity": 1, "waterType": "Saltwater"}, {"lat": 52.3944, "lng": 169.2465, "id": "148992", "name": "Coscinodiscus concinnus", "sprite": "sp-anchoviella_juruasanga.png", "group": "other", "rarity": 1}, {"lat": 52.3, "lng": 173.16, "id": "101163", "name": "Petromyzontidae", "sprite": "sp-pacific_lamprey.png", "group": "lamprey", "rarity": 1}, {"lat": 52.2508, "lng": 173.9733, "id": "254406", "name": "Darkfin sculpin", "thumb": "tn_Mazon_u0.jpg", "sprite": "sp-anchoviella_juruasanga.png", "group": "other", "rarity": 1, "waterType": "Saltwater"}, {"lat": 50.483, "lng": 168.902, "id": "156509", "name": "Ceratium arcticum", "sprite": "sp-anchoviella_juruasanga.png", "group": "other", "rarity": 1}, {"lat": 52.263, "lng": 172.974, "id": "923", "name": "Maldanidae", "sprite": "sp-anchoviella_juruasanga.png", "group": "other", "rarity": 1}, {"lat": 52.2417, "lng": 174.217, "id": "489645", "name": "Dulichiopsis remis", "sprite": "sp-american_lobster.png", "group": "crab_lobster", "rarity": 1}, {"lat": 52.2467, "lng": 173.6067, "id": "409549", "name": "Primnoa pacifica var. willeyi", "sprite": "sp-actiniidae.png", "group": "coral", "rarity": 1}, {"lat": 52.3126, "lng": 173.8712, "id": "254513", "name": "Searcher", "thumb": "tn_Basig_u0.jpg", "sprite": "sp-anchoviella_juruasanga.png", "group": "other", "rarity": 1, "waterType": "Saltwater"}, {"lat": 52.3393, "lng": 173.6822, "id": "1609643", "name": "Malacalcyonacea incertae sedis", "sprite": "sp-actiniidae.png", "group": "coral", "rarity": 1}, {"lat": 52.14, "lng": 173.83, "id": "271520", "name": "White-blotched skate", "thumb": "tn_Bamac_u6.jpg", "sprite": "sp-himantura_australis.png", "group": "ray", "rarity": 1, "waterType": "Saltwater"}, {"lat": 52.3733, "lng": 173.3444, "id": "168470", "name": "Isodictya rigida", "sprite": "sp-barrel_sponge.png", "group": "sponge", "rarity": 1}, {"lat": 52.3913, "lng": 173.641, "id": "103456", "name": "Didemnum", "sprite": "sp-anchoviella_juruasanga.png", "group": "other", "rarity": 1}, {"lat": 52.4331, "lng": 173.5667, "id": "1264222", "name": "Gnorimosphaeroma oregonense", "sprite": "sp-american_lobster.png", "group": "crab_lobster", "rarity": 1}, {"lat": 52.2417, "lng": 174.217, "id": "106989", "name": "Lebbeus", "sprite": "sp-american_lobster.png", "group": "crab_lobster", "rarity": 1}, {"lat": 52.0, "lng": 173.0, "id": "254383", "name": "Pored sculpin", "sprite": "sp-anchoviella_juruasanga.png", "group": "other", "rarity": 1, "waterType": "Saltwater"}, {"lat": 52.4638, "lng": 173.3732, "id": "515583", "name": "Neocrangon abyssorum", "sprite": "sp-american_lobster.png", "group": "crab_lobster", "rarity": 1}, {"lat": 52.395, "lng": 173.588, "id": "145309", "name": "Desmarestia ligulata", "sprite": "sp-anchoviella_juruasanga.png", "group": "other", "rarity": 1}, {"lat": 52.4714, "lng": 173.703, "id": "225434", "name": "Tedania (Tedania) kagalaskai", "sprite": "sp-barrel_sponge.png", "group": "sponge", "rarity": 1}, {"lat": 52.4309, "lng": 169.2411, "id": "149629", "name": "Rhizosolenia styliformis", "sprite": "sp-anchoviella_juruasanga.png", "group": "other", "rarity": 1}, {"lat": 52.376, "lng": 174.2025, "id": "170169", "name": "Geodia robusta", "sprite": "sp-barrel_sponge.png", "group": "sponge", "rarity": 1}, {"lat": 52.14, "lng": 173.83, "id": "11717", "name": "Vampyromorpha", "sprite": "sp-giant_pacific_octopus.png", "group": "octopus_squid", "rarity": 1}, {"lat": 51.5017, "lng": 172.075, "id": "506289", "name": "Bathyspinula calcarella", "sprite": "sp-blue_mussel.png", "group": "clam_mussel", "rarity": 1}, {"lat": 52.3586, "lng": 173.2523, "id": "271515", "name": "Sandpaper skate", "thumb": "tn_Baint_u1.jpg", "sprite": "sp-himantura_australis.png", "group": "ray", "rarity": 1, "waterType": "Saltwater"}, {"lat": 51.4062, "lng": 170.2149, "id": "1128", "name": "Euphausiacea", "sprite": "sp-antarctic_krill.png", "group": "shrimp", "rarity": 1}, {"lat": 52.2417, "lng": 174.2167, "id": "1567760", "name": "Callistephanus pacificus", "sprite": "sp-actiniidae.png", "group": "coral", "rarity": 1}, {"lat": 52.2125, "lng": 173.3542, "id": "274505", "name": "Spotted snailfish", "thumb": "tn_Lical_u0.gif", "sprite": "sp-anchoviella_juruasanga.png", "group": "other", "rarity": 1, "waterType": "Saltwater"}, {"lat": 50.615, "lng": 169.383, "id": "10194", "name": "Actinopterygii", "sprite": "sp-anchoviella_juruasanga.png", "group": "other", "rarity": 1}, {"lat": 52.4232, "lng": 174.1609, "id": "254348", "name": "Docked snailfish", "thumb": "tn_Lemut_u0.gif", "sprite": "sp-anchoviella_juruasanga.png", "group": "other", "rarity": 1, "waterType": "Saltwater"}, {"lat": 52.299, "lng": 173.8291, "id": "137043", "name": "Larus", "sprite": "sp-anchoviella_juruasanga.png", "group": "other", "rarity": 1}, {"lat": 52.4577, "lng": 174.3324, "id": "125321", "name": "Primnoa", "sprite": "sp-actiniidae.png", "group": "coral", "rarity": 1}, {"lat": 52.332, "lng": 174.14, "id": "163224", "name": "Lauderia confervacea", "sprite": "sp-anchoviella_juruasanga.png", "group": "other", "rarity": 1}, {"lat": 51.1457, "lng": 169.7873, "id": "160595", "name": "Pterosperma", "sprite": "sp-anchoviella_juruasanga.png", "group": "other", "rarity": 1}, {"lat": 52.266, "lng": 174.101, "id": "169022", "name": "Monanchora pulchra", "sprite": "sp-barrel_sponge.png", "group": "sponge", "rarity": 1}, {"lat": 52.2787, "lng": 173.696, "id": "248338", "name": "Hemilepidotus", "sprite": "sp-anchoviella_juruasanga.png", "group": "other", "rarity": 1}, {"lat": 51.8625, "lng": 173.1013, "id": "1080", "name": "Copepoda", "sprite": "sp-anchoviella_juruasanga.png", "group": "other", "rarity": 1}, {"lat": 52.2417, "lng": 174.217, "id": "423365", "name": "Eualus biunguis", "sprite": "sp-american_lobster.png", "group": "crab_lobster", "rarity": 1}, {"lat": 52.14, "lng": 173.83, "id": "125590", "name": "Cyclopteridae", "sprite": "sp-anchoviella_juruasanga.png", "group": "other", "rarity": 1}, {"lat": 52.0, "lng": 173.0, "id": "274051", "name": "Aleutian pout", "sprite": "sp-anchoviella_juruasanga.png", "group": "other", "rarity": 1, "waterType": "Saltwater"}, {"lat": 49.5, "lng": 169.0833, "id": "1468871", "name": "Okutania anonycha", "sprite": "sp-giant_pacific_octopus.png", "group": "octopus_squid", "rarity": 1}, {"lat": 52.4235, "lng": 173.6249, "id": "282788", "name": "Kelp sculpin", "thumb": "tn_Sicau_u0.gif", "sprite": "sp-anchoviella_juruasanga.png", "group": "other", "rarity": 1, "waterType": "Saltwater"}, {"lat": 52.2417, "lng": 174.2167, "id": "387412", "name": "Nematomenia platypoda", "sprite": "sp-anchoviella_juruasanga.png", "group": "other", "rarity": 1}, {"lat": 52.14, "lng": 173.83, "id": "280690", "name": "Petrale sole", "thumb": "tn_Eojor_u0.jpg", "sprite": "sp-atlantic_halibut.png", "group": "flatfish", "rarity": 1, "waterType": "Saltwater"}, {"lat": 52.2417, "lng": 174.2167, "id": "117939", "name": "Thuiaria obsoleta", "sprite": "sp-anchoviella_juruasanga.png", "group": "other", "rarity": 1}, {"lat": 51.8589, "lng": 173.1414, "id": "148917", "name": "Coscinodiscus", "sprite": "sp-anchoviella_juruasanga.png", "group": "other", "rarity": 1}, {"lat": 51.2466, "lng": 170.1034, "id": "104190", "name": "Metridia", "sprite": "sp-anchoviella_juruasanga.png", "group": "other", "rarity": 1}, {"lat": 52.46, "lng": 174.16, "id": "106738", "name": "Paguridae", "sprite": "sp-american_lobster.png", "group": "crab_lobster", "rarity": 1}, {"lat": 50.7333, "lng": 174.3333, "id": "125825", "name": "Lampanyctus", "sprite": "sp-anchoviella_juruasanga.png", "group": "other", "rarity": 1}, {"lat": 52.395, "lng": 173.588, "id": "143922", "name": "Pterosiphonia", "sprite": "sp-anchoviella_juruasanga.png", "group": "other", "rarity": 1}, {"lat": 49.5, "lng": 169.5, "id": "344106", "name": "Phoebastria nigripes", "sprite": "sp-anchoviella_juruasanga.png", "group": "other", "rarity": 1}, {"lat": 52.3, "lng": 173.16, "id": "274817", "name": "Black rockfish", "thumb": "tn_Semel_u9.jpg", "sprite": "sp-anchoviella_juruasanga.png", "group": "other", "rarity": 1, "waterType": "Saltwater"}, {"lat": 52.14, "lng": 173.83, "id": "271517", "name": "Commander skate", "thumb": "tn_Balin_f0.jpg", "sprite": "sp-himantura_australis.png", "group": "ray", "rarity": 1, "waterType": "Saltwater"}, {"lat": 52.14, "lng": 173.83, "id": "298834", "name": "Mud skate", "thumb": "tn_Rhtar_u0.jpg", "sprite": "sp-himantura_australis.png", "group": "ray", "rarity": 1, "waterType": "Brackish"}, {"lat": 52.43, "lng": 170.8983, "id": "266720", "name": "Alomasoma nordpacificum", "sprite": "sp-anchoviella_juruasanga.png", "group": "other", "rarity": 1}, {"lat": 52.2417, "lng": 174.1, "id": "274568", "name": "Red snailfish", "sprite": "sp-anchoviella_juruasanga.png", "group": "other", "rarity": 1, "waterType": "Saltwater"}, {"lat": 52.4431, "lng": 174.3032, "id": "125284", "name": "Alcyonium", "sprite": "sp-actiniidae.png", "group": "coral", "rarity": 1}, {"lat": 52.46, "lng": 174.16, "id": "107315", "name": "Chionoecetes opilio", "sprite": "sp-american_lobster.png", "group": "crab_lobster", "rarity": 1}, {"lat": 52.4818, "lng": 173.3908, "id": "167374", "name": "Cornulum clathriata", "sprite": "sp-barrel_sponge.png", "group": "sponge", "rarity": 1}, {"lat": 52.2417, "lng": 174.2167, "id": "244297", "name": "Ophiura quadrispina", "sprite": "sp-sea_cucumber.png", "group": "starfish", "rarity": 1}, {"lat": 52.4459, "lng": 174.3029, "id": "872416", "name": "Raspailia (Hymeraphiopsis) septentrionalis", "sprite": "sp-barrel_sponge.png", "group": "sponge", "rarity": 1}, {"lat": 52.3646, "lng": 174.105, "id": "22612", "name": "Hexactinellida", "sprite": "sp-barrel_sponge.png", "group": "sponge", "rarity": 1}, {"lat": 52.2417, "lng": 174.2167, "id": "117870", "name": "Abietinaria abietina", "sprite": "sp-anchoviella_juruasanga.png", "group": "other", "rarity": 1}, {"lat": 52.2417, "lng": 174.217, "id": "134659", "name": "Colossendeis angusta", "sprite": "sp-anchoviella_juruasanga.png", "group": "other", "rarity": 1}, {"lat": 52.0, "lng": 174.0, "id": "274451", "name": "Careproctus opisthotremus", "sprite": "sp-anchoviella_juruasanga.png", "group": "other", "rarity": 1, "waterType": "Saltwater"}, {"lat": 49.6728, "lng": 170.4845, "id": "344104", "name": "Phoebastria immutabilis", "sprite": "sp-anchoviella_juruasanga.png", "group": "other", "rarity": 1}, {"lat": 52.295, "lng": 173.6734, "id": "10216", "name": "Rajiformes", "sprite": "sp-himantura_australis.png", "group": "ray", "rarity": 1}, {"lat": 52.4608, "lng": 173.7853, "id": "283043", "name": "Pacific sandfish", "thumb": "tn_Trtri_u0.gif", "sprite": "sp-anchoviella_juruasanga.png", "group": "other", "rarity": 1, "waterType": "Saltwater"}, {"lat": 50.3, "lng": 173.766, "id": "2682", "name": "Charadriiformes", "sprite": "sp-anchoviella_juruasanga.png", "group": "other", "rarity": 1}, {"lat": 50.5, "lng": 172.333, "id": "159463", "name": "Sablefish", "thumb": "tn_Anfim_u1.jpg", "sprite": "sp-anchoviella_juruasanga.png", "group": "other", "rarity": 1, "waterType": "Saltwater"}, {"lat": 52.353, "lng": 174.0899, "id": "117246", "name": "Stylaster", "sprite": "sp-anchoviella_juruasanga.png", "group": "other", "rarity": 1}, {"lat": 52.2417, "lng": 174.2169, "id": "244054", "name": "Ophiosemnotes paucispina", "sprite": "sp-sea_cucumber.png", "group": "starfish", "rarity": 1}, {"lat": 52.1053, "lng": 173.8118, "id": "11743", "name": "Gonatidae", "sprite": "sp-giant_pacific_octopus.png", "group": "octopus_squid", "rarity": 1}, {"lat": 51.2404, "lng": 170.6576, "id": "149023", "name": "Ditylum brightwellii", "sprite": "sp-anchoviella_juruasanga.png", "group": "other", "rarity": 1}, {"lat": 52.42, "lng": 174.1705, "id": "165789", "name": "Halichondria (Eumastia) sitiens", "sprite": "sp-barrel_sponge.png", "group": "sponge", "rarity": 1}, {"lat": 52.42, "lng": 174.2254, "id": "280488", "name": "Spinyhead sculpin", "thumb": "tn_Daset_u0.jpg", "sprite": "sp-anchoviella_juruasanga.png", "group": "other", "rarity": 1, "waterType": "Saltwater"}, {"lat": 51.3074, "lng": 171.1122, "id": "149093", "name": "Thalassionema nitzschioides", "sprite": "sp-anchoviella_juruasanga.png", "group": "other", "rarity": 1}, {"lat": 52.395, "lng": 173.588, "id": "845", "name": "Laminariales", "sprite": "sp-anchoviella_juruasanga.png", "group": "other", "rarity": 1}, {"lat": 52.3, "lng": 173.16, "id": "271654", "name": "Pacific sleeper shark", "thumb": "tn_Sopac_j0.jpg", "sprite": "sp-great_white_shark.png", "group": "shark", "rarity": 1, "waterType": "Saltwater"}, {"lat": 52.1894, "lng": 174.0605, "id": "254510", "name": "Pacific sand lance", "thumb": "tn_Amhex_u2.jpg", "sprite": "sp-anchoviella_juruasanga.png", "group": "other", "rarity": 1, "waterType": "Brackish"}, {"lat": 52.3964, "lng": 173.7754, "id": "128488", "name": "Virgulariidae", "sprite": "sp-actiniidae.png", "group": "coral", "rarity": 1}, {"lat": 52.4108, "lng": 173.6042, "id": "274392", "name": "Warthead sculpin", "thumb": "tn_Mynig_u0.gif", "sprite": "sp-anchoviella_juruasanga.png", "group": "other", "rarity": 1, "waterType": "Saltwater"}, {"lat": 52.416, "lng": 174.2154, "id": "123335", "name": "Pteraster", "sprite": "sp-sea_cucumber.png", "group": "starfish", "rarity": 1}, {"lat": 52.3655, "lng": 169.0695, "id": "139178", "name": "Clione limacina", "sprite": "sp-cowrie_shell.png", "group": "sea_snail", "rarity": 1}, {"lat": 52.3582, "lng": 174.1483, "id": "883", "name": "Polychaeta", "sprite": "sp-anchoviella_juruasanga.png", "group": "other", "rarity": 1}, {"lat": 52.425, "lng": 173.7083, "id": "254545", "name": "Whitespotted greenling", "thumb": "tn_Heste_u8.jpg", "sprite": "sp-anchoviella_juruasanga.png", "group": "other", "rarity": 1, "waterType": "Saltwater"}, {"lat": 50.5, "lng": 172.333, "id": "280216", "name": "Roughscale sole", "thumb": "tn_Clasp_u1.jpg", "sprite": "sp-atlantic_halibut.png", "group": "flatfish", "rarity": 1, "waterType": "Saltwater"}, {"lat": 52.2417, "lng": 174.2167, "id": "243348", "name": "Ophiacantha enneactis", "sprite": "sp-sea_cucumber.png", "group": "starfish", "rarity": 1}, {"lat": 52.2883, "lng": 173.7958, "id": "343911", "name": "Larus glaucescens", "sprite": "sp-anchoviella_juruasanga.png", "group": "other", "rarity": 1}, {"lat": 52.2417, "lng": 174.2167, "id": "281641", "name": "Tadpole snailfish", "sprite": "sp-anchoviella_juruasanga.png", "group": "other", "rarity": 1, "waterType": "Saltwater"}, {"lat": 52.3956, "lng": 173.5919, "id": "371993", "name": "Laminaria yezoensis", "sprite": "sp-anchoviella_juruasanga.png", "group": "other", "rarity": 1}, {"lat": 52.4257, "lng": 173.6528, "id": "137156", "name": "Rissa tridactyla", "sprite": "sp-anchoviella_juruasanga.png", "group": "other", "rarity": 1}, {"lat": 51.8946, "lng": 173.5319, "id": "119270", "name": "Nitzschia", "sprite": "sp-anchoviella_juruasanga.png", "group": "other", "rarity": 1}, {"lat": 51.1016, "lng": 169.6147, "id": "104108", "name": "Acartia", "sprite": "sp-anchoviella_juruasanga.png", "group": "other", "rarity": 1}, {"lat": 52.3956, "lng": 173.5919, "id": "437982", "name": "Pleurophomopsis", "sprite": "sp-anchoviella_juruasanga.png", "group": "other", "rarity": 1}, {"lat": 52.2952, "lng": 173.6782, "id": "274290", "name": "Pacific halibut", "thumb": "tn_Histe_u3.jpg", "sprite": "sp-atlantic_halibut.png", "group": "flatfish", "rarity": 1, "waterType": "Saltwater"}]}