{"zoom": 6, "x": 62, "y": 35, "points": [{"lat": -19.3668, "lng": 169.4561, "id": "1609133", "name": "Trapezionida leptitis", "sprite": "sp-american_lobster.png", "group": "crab_lobster", "rarity": 1}, {"lat": -19.3593, "lng": 169.4668, "id": "242714", "name": "Amphiophiura liberata", "sprite": "sp-sea_cucumber.png", "group": "starfish", "rarity": 1}, {"lat": -18.7403, "lng": 169.2114, "id": "276976", "name": "Redfin sweeper", "sprite": "sp-anchoviella_juruasanga.png", "group": "other", "rarity": 1, "waterType": "Saltwater"}, {"lat": -19.533, "lng": 169.266, "id": "511639", "name": "Zafra troglodytes", "sprite": "sp-cowrie_shell.png", "group": "sea_snail", "rarity": 1}, {"lat": -21.1443, "lng": 171.295, "id": "1369369", "name": "Euduboscquella", "sprite": "sp-anchoviella_juruasanga.png", "group": "other", "rarity": 1}, {"lat": -18.9428, "lng": 168.9928, "id": "277188", "name": "Brock's pipefish", "thumb": "tn_Habro_u3.jpg", "sprite": "sp-cosmocampus_coccineus.png", "group": "seahorse", "rarity": 1, "waterType": "Saltwater"}, {"lat": -18.9428, "lng": 168.9928, "id": "278587", "name": "Barred dwarfgoby", "thumb": "tn_Evspp_ue.jpg", "sprite": "sp-eviota_bipunctata.png", "group": "goby", "rarity": 1, "waterType": "Saltwater"}, {"lat": -18.8318, "lng": 168.95, "id": "135190", "name": "Enallopsammia rostrata", "sprite": "sp-actiniidae.png", "group": "coral", "rarity": 1}, {"lat": -21.1443, "lng": 171.295, "id": "562964", "name": "Blastodinium contortum", "sprite": "sp-anchoviella_juruasanga.png", "group": "other", "rarity": 1}, {"lat": -19.3629, "lng": 169.4652, "id": "243397", "name": "Ophiacantha placida", "sprite": "sp-sea_cucumber.png", "group": "starfish", "rarity": 1}, {"lat": -18.8447, "lng": 168.9167, "id": "276868", "name": "Lined conger", "sprite": "sp-electric_eel.png", "group": "eel", "rarity": 1, "waterType": "Saltwater"}, {"lat": -21.1443, "lng": 171.295, "id": "562006", "name": "Marinoscillum", "sprite": "sp-anchoviella_juruasanga.png", "group": "other", "rarity": 1}, {"lat": -18.8658, "lng": 168.8795, "id": "392486", "name": "Munidopsis bispinoculata", "sprite": "sp-american_lobster.png", "group": "crab_lobster", "rarity": 1}, {"lat": -18.8488, "lng": 168.9143, "id": "869791", "name": "Enixotrophon plicilaminatus", "sprite": "sp-cowrie_shell.png", "group": "sea_snail", "rarity": 1}, {"lat": -18.8415, "lng": 169.1021, "id": "219905", "name": "Whitespotted boxfish", "thumb": "tn_Osmel_m0.jpg", "sprite": "sp-anchoviella_juruasanga.png", "group": "other", "rarity": 1, "waterType": "Saltwater"}, {"lat": -18.3, "lng": 168.8916, "id": "218192", "name": "Chelidoperca pleurospilus", "thumb": "tn_Chple_u6.jpg", "sprite": "sp-chelidoperca_santosi.png", "group": "grouper", "rarity": 1, "waterType": "Saltwater"}, {"lat": -18.795, "lng": 168.915, "id": "514306", "name": "Nematocarcinus combensis", "sprite": "sp-american_lobster.png", "group": "crab_lobster", "rarity": 1}, {"lat": -19.3875, "lng": 169.4819, "id": "1606152", "name": "Gonionida congesta", "sprite": "sp-american_lobster.png", "group": "crab_lobster", "rarity": 1}, {"lat": -19.3463, "lng": 169.4542, "id": "550057", "name": "Mipus matsumotoi", "sprite": "sp-cowrie_shell.png", "group": "sea_snail", "rarity": 1}, {"lat": -21.1443, "lng": 171.295, "id": "570896", "name": "Acetobacter", "sprite": "sp-anchoviella_juruasanga.png", "group": "other", "rarity": 1}, {"lat": -18.125, "lng": 170.025, "id": "882", "name": "Annelida", "sprite": "sp-anchoviella_juruasanga.png", "group": "other", "rarity": 1}, {"lat": -19.3602, "lng": 169.4627, "id": "1298930", "name": "Uroptychus megistos", "sprite": "sp-american_lobster.png", "group": "crab_lobster", "rarity": 1}, {"lat": -19.4355, "lng": 169.3711, "id": "219562", "name": "Red-tailed goby", "thumb": "tn_Silag_m0.jpg", "sprite": "sp-eviota_bipunctata.png", "group": "goby", "rarity": 1, "waterType": "Brackish"}, {"lat": -20.166, "lng": 169.666, "id": "203924", "name": "Chrysiptera", "sprite": "sp-chrysiptera_caesifrons.png", "group": "clownfish", "rarity": 1}, {"lat": -18.7981, "lng": 169.0747, "id": "218754", "name": "Vagabond butterflyfish", "thumb": "tn_Chvag_u4.jpg", "sprite": "sp-chaetodon.png", "group": "butterflyfish", "rarity": 1, "waterType": "Saltwater"}, {"lat": -18.8418, "lng": 169.1021, "id": "218113", "name": "Darkspotted scorpionfish", "thumb": "tn_Setin_u4.jpg", "sprite": "sp-parascorpaena_moultoni.png", "group": "scorpionfish", "rarity": 1, "waterType": "Saltwater"}, {"lat": -17.8169, "lng": 170.0, "id": "126616", "name": "Lampanyctus lineatus", "thumb": "tn_Lalin_m0.gif", "sprite": "sp-anchoviella_juruasanga.png", "group": "other", "rarity": 1, "waterType": "Saltwater"}, {"lat": -21.1443, "lng": 171.295, "id": "246943", "sprite": "sp-american_lobster.png", "group": "crab_lobster", "rarity": 1}, {"lat": -20.52, "lng": 169.02, "id": "841203", "name": "Tripos deflexus", "sprite": "sp-anchoviella_juruasanga.png", "group": "other", "rarity": 1}, {"lat": -20.5568, "lng": 169.5992, "id": "440966", "name": "Menoplax longispinosa", "sprite": "sp-american_lobster.png", "group": "crab_lobster", "rarity": 1}, {"lat": -19.916, "lng": 170.0, "id": "217871", "name": "Bigwing halfbeak", "thumb": "tn_Oxmic_u0.jpg", "sprite": "sp-anchoviella_juruasanga.png", "group": "other", "rarity": 1, "waterType": "Saltwater"}, {"lat": -20.335, "lng": 169.818, "id": "243902", "name": "Ophiopallas valens", "sprite": "sp-sea_cucumber.png", "group": "starfish", "rarity": 1}, {"lat": -21.1443, "lng": 171.295, "id": "559876", "name": "Cytophagales", "sprite": "sp-anchoviella_juruasanga.png", "group": "other", "rarity": 1}, {"lat": -20.3325, "lng": 169.814, "id": "442200", "name": "Parapalicus armatus", "sprite": "sp-american_lobster.png", "group": "crab_lobster", "rarity": 1}, {"lat": -18.7336, "lng": 169.1958, "id": "282911", "name": "Fringelip flathead", "thumb": "tn_Suota_u1.jpg", "sprite": "sp-anchoviella_juruasanga.png", "group": "other", "rarity": 1, "waterType": "Saltwater"}, {"lat": -18.9428, "lng": 168.9928, "id": "218181", "name": "Darkfin hind", "thumb": "tn_Ceuro_u9.jpg", "sprite": "sp-chelidoperca_santosi.png", "group": "grouper", "rarity": 1, "waterType": "Saltwater"}, {"lat": -19.9349, "lng": 169.5771, "id": "125553", "name": "Pomacentridae", "sprite": "sp-chrysiptera_caesifrons.png", "group": "clownfish", "rarity": 1}, {"lat": -18.7839, "lng": 169.1089, "id": "204406", "name": "Alticus", "sprite": "sp-helcogramma_ascensionis.png", "group": "blenny", "rarity": 1}, {"lat": -21.1443, "lng": 171.295, "id": "564757", "name": "Paenibacillus", "sprite": "sp-anchoviella_juruasanga.png", "group": "other", "rarity": 1}, {"lat": -18.9225, "lng": 169.0175, "id": "440000", "name": "Krangalangia orstom", "sprite": "sp-american_lobster.png", "group": "crab_lobster", "rarity": 1}, {"lat": -18.01, "lng": 168.8, "id": "442861", "name": "Charybdis (Charybdis) rufodactylus", "sprite": "sp-american_lobster.png", "group": "crab_lobster", "rarity": 1}, {"lat": -20.55, "lng": 169.583, "id": "205276", "name": "Gymnoscopelus", "sprite": "sp-anchoviella_juruasanga.png", "group": "other", "rarity": 1}, {"lat": -19.48, "lng": 169.4139, "id": "205945", "name": "Gazza", "sprite": "sp-anchoviella_juruasanga.png", "group": "other", "rarity": 1}, {"lat": -18.8882, "lng": 168.8775, "id": "368026", "name": "Oncopagurus minutus", "sprite": "sp-american_lobster.png", "group": "crab_lobster", "rarity": 1}, {"lat": -19.433, "lng": 169.333, "id": "206842", "name": "Neritina", "sprite": "sp-cowrie_shell.png", "group": "sea_snail", "rarity": 1}, {"lat": -21.1379, "lng": 169.2831, "id": "137104", "name": "Pseudorca crassidens", "sprite": "sp-bottlenose_dolphin.png", "group": "dolphin", "rarity": 1}, {"lat": -21.1443, "lng": 171.295, "id": "394106", "name": "Piscirickettsiaceae", "sprite": "sp-anchoviella_juruasanga.png", "group": "other", "rarity": 1}, {"lat": -18.8, "lng": 168.9, "id": "278809", "name": "Halieutopsis vermicularis", "sprite": "sp-deep_sea_anglerfish.png", "group": "anglerfish", "rarity": 1, "waterType": "Saltwater"}, {"lat": -20.3385, "lng": 169.811, "id": "1149649", "name": "Ophiomusa luetkeni", "sprite": "sp-sea_cucumber.png", "group": "starfish", "rarity": 1}, {"lat": -21.1443, "lng": 171.295, "id": "562524", "name": "Bizionia", "sprite": "sp-anchoviella_juruasanga.png", "group": "other", "rarity": 1}, {"lat": -21.1443, "lng": 171.295, "id": "567793", "name": "Nautella", "sprite": "sp-anchoviella_juruasanga.png", "group": "other", "rarity": 1}, {"lat": -19.7705, "lng": 169.625, "id": "718604", "name": "Aliculastrum", "sprite": "sp-cowrie_shell.png", "group": "sea_snail", "rarity": 1}, {"lat": -20.3079, "lng": 169.8467, "id": "1607124", "name": "Trapezionida clinata", "sprite": "sp-american_lobster.png", "group": "crab_lobster", "rarity": 1}, {"lat": -19.35, "lng": 169.433, "id": "125656", "name": "Synaphobranchus", "sprite": "sp-electric_eel.png", "group": "eel", "rarity": 1}, {"lat": -21.1443, "lng": 171.295, "id": "571439", "name": "Magnetospirillum", "sprite": "sp-anchoviella_juruasanga.png", "group": "other", "rarity": 1}, {"lat": -18.9656, "lng": 169.1207, "id": "287080", "name": "Fungiacyathus (Fungiacyathus) paliferus", "sprite": "sp-actiniidae.png", "group": "coral", "rarity": 1}, {"lat": -20.33, "lng": 169.83, "id": "506953", "name": "Spondylus occidens", "sprite": "sp-blue_mussel.png", "group": "clam_mussel", "rarity": 1}, {"lat": -19.3587, "lng": 169.4503, "id": "243590", "name": "Ophiocopa spatula", "sprite": "sp-sea_cucumber.png", "group": "starfish", "rarity": 1}, {"lat": -20.166, "lng": 169.666, "id": "218976", "name": "Green birdmouth wrasse", "thumb": "tn_Gocae_u1.jpg", "sprite": "sp-cleaner_wrasse.png", "group": "wrasse", "rarity": 1, "waterType": "Saltwater"}, {"lat": -21.1443, "lng": 171.295, "id": "567961", "name": "Ruegeria", "sprite": "sp-anchoviella_juruasanga.png", "group": "other", "rarity": 1}, {"lat": -21.867, "lng": 168.767, "id": "126306", "name": "Slender snipe eel", "thumb": "tn_Nesco_u3.jpg", "sprite": "sp-electric_eel.png", "group": "eel", "rarity": 1, "waterType": "Saltwater"}, {"lat": -21.1443, "lng": 171.295, "id": "109390", "name": "Dinophysiales", "sprite": "sp-anchoviella_juruasanga.png", "group": "other", "rarity": 1}, {"lat": -21.7, "lng": 172.2, "id": "1026286", "name": "Trilobatus sacculifer", "sprite": "sp-anchoviella_juruasanga.png", "group": "other", "rarity": 1}, {"lat": -19.4203, "lng": 169.4455, "id": "395796", "name": "Tokoyo cirrata", "sprite": "sp-american_lobster.png", "group": "crab_lobster", "rarity": 1}, {"lat": -20.317, "lng": 169.85, "id": "389371", "name": "Bullhead scorpionfish", "sprite": "sp-parascorpaena_moultoni.png", "group": "scorpionfish", "rarity": 1, "waterType": "Saltwater"}, {"lat": -20.242, "lng": 169.7984, "id": "209383", "name": "Perdix cardinalfish", "thumb": "tn_Apper_u5.jpg", "sprite": "sp-anchoviella_juruasanga.png", "group": "other", "rarity": 1, "waterType": "Saltwater"}, {"lat": -21.1443, "lng": 171.295, "id": "571124", "name": "Peptococcaceae", "sprite": "sp-anchoviella_juruasanga.png", "group": "other", "rarity": 1}, {"lat": -21.1443, "lng": 171.295, "id": "570107", "name": "Pelobacter", "sprite": "sp-anchoviella_juruasanga.png", "group": "other", "rarity": 1}, {"lat": -20.3, "lng": 169.883, "id": "1019532", "name": "Round scorpionfish", "thumb": "tn_Nerot_u1.jpg", "sprite": "sp-parascorpaena_moultoni.png", "group": "scorpionfish", "rarity": 1, "waterType": "Saltwater"}, {"lat": -20.3339, "lng": 169.8163, "id": "392150", "name": "Agononida alisae", "sprite": "sp-american_lobster.png", "group": "crab_lobster", "rarity": 1}, {"lat": -18.86, "lng": 168.91, "id": "377564", "name": "Penaeopsis challengeri", "sprite": "sp-american_lobster.png", "group": "crab_lobster", "rarity": 1}, {"lat": -20.2, "lng": 169.816, "id": "570723", "name": "Nucleolaria nucleus", "sprite": "sp-cowrie_shell.png", "group": "sea_snail", "rarity": 1}, {"lat": -21.1443, "lng": 171.295, "id": "393040", "name": "Shewanella", "sprite": "sp-anchoviella_juruasanga.png", "group": "other", "rarity": 1}, {"lat": -20.9983, "lng": 170.28, "id": "208847", "name": "Thalamita spinifera", "sprite": "sp-american_lobster.png", "group": "crab_lobster", "rarity": 1}, {"lat": -20.1232, "lng": 169.7706, "id": "207501", "name": "Heteropsammia cochlea", "sprite": "sp-actiniidae.png", "group": "coral", "rarity": 1}, {"lat": -18.7268, "lng": 169.1805, "id": "440241", "name": "Notosceles serratifrons", "sprite": "sp-american_lobster.png", "group": "crab_lobster", "rarity": 1}, {"lat": -21.1443, "lng": 171.295, "id": "416248", "name": "Methanobacteriaceae", "sprite": "sp-anchoviella_juruasanga.png", "group": "other", "rarity": 1}, {"lat": -20.9717, "lng": 170.0617, "id": "287443", "name": "Gardineria hawaiiensis", "sprite": "sp-actiniidae.png", "group": "coral", "rarity": 1}, {"lat": -19.9524, "lng": 169.61, "id": "205119", "name": "Uropterygius", "sprite": "sp-anarchias.png", "group": "moray", "rarity": 1}, {"lat": -21.1443, "lng": 171.295, "id": "567871", "name": "Pseudovibrio", "sprite": "sp-anchoviella_juruasanga.png", "group": "other", "rarity": 1}, {"lat": -21.1443, "lng": 171.295, "id": "392751", "name": "Rhodospirillales", "sprite": "sp-anchoviella_juruasanga.png", "group": "other", "rarity": 1}, {"lat": -18.939, "lng": 168.9928, "id": "204323", "name": "Aesopia", "sprite": "sp-atlantic_halibut.png", "group": "flatfish", "rarity": 1}, {"lat": -19.4843, "lng": 169.4863, "id": "287076", "name": "Fungiacyathus (Bathyactis) granulosus", "sprite": "sp-actiniidae.png", "group": "coral", "rarity": 1}, {"lat": -18.6796, "lng": 169.1662, "id": "286962", "name": "Dendrophyllia alcocki", "sprite": "sp-actiniidae.png", "group": "coral", "rarity": 1}, {"lat": -20.3177, "lng": 169.8839, "id": "410860", "name": "Babelomurex nakamigawai", "sprite": "sp-cowrie_shell.png", "group": "sea_snail", "rarity": 1}, {"lat": -18.7406, "lng": 169.2114, "id": "219286", "name": "Leopard blenny", "thumb": "tn_Exbre_u0.jpg", "sprite": "sp-helcogramma_ascensionis.png", "group": "blenny", "rarity": 1, "waterType": "Saltwater"}, {"lat": -20.242, "lng": 169.7984, "id": "219340", "name": "Jewelled blenny", "thumb": "tn_Safas_u0.jpg", "sprite": "sp-helcogramma_ascensionis.png", "group": "blenny", "rarity": 1, "waterType": "Brackish"}, {"lat": -18.8, "lng": 169.083, "id": "215471", "name": "Conus aulicus", "sprite": "sp-cowrie_shell.png", "group": "sea_snail", "rarity": 1}, {"lat": -19.1, "lng": 174.3, "id": "290193", "name": "Isactinernus quadrilobatus", "sprite": "sp-actiniidae.png", "group": "coral", "rarity": 1}, {"lat": -20.9942, "lng": 170.2733, "id": "444153", "name": "Medaeops gemini", "sprite": "sp-american_lobster.png", "group": "crab_lobster", "rarity": 1}, {"lat": -20.166, "lng": 169.666, "id": "212811", "name": "Blue green damselfish", "thumb": "tn_Chvir_u2.jpg", "sprite": "sp-chrysiptera_caesifrons.png", "group": "clownfish", "rarity": 1, "waterType": "Saltwater"}, {"lat": -18.84, "lng": 168.8967, "id": "388852", "name": "Glyphocrangon similior", "sprite": "sp-american_lobster.png", "group": "crab_lobster", "rarity": 1}, {"lat": -20.31, "lng": 169.86, "id": "393009", "name": "Raymunida elegantissima", "sprite": "sp-american_lobster.png", "group": "crab_lobster", "rarity": 1}, {"lat": -21.1443, "lng": 171.295, "id": "414903", "name": "Thermotogaceae", "sprite": "sp-anchoviella_juruasanga.png", "group": "other", "rarity": 1}, {"lat": -20.52, "lng": 169.02, "id": "163056", "name": "Chaetoceros difficilis", "sprite": "sp-anchoviella_juruasanga.png", "group": "other", "rarity": 1}, {"lat": -21.1443, "lng": 171.295, "id": "564755", "name": "Paenibacillaceae", "sprite": "sp-anchoviella_juruasanga.png", "group": "other", "rarity": 1}, {"lat": -19.7292, "lng": 169.5324, "id": "218781", "name": "Sapphire devil", "thumb": "tn_Chcya_u9.jpg", "sprite": "sp-chrysiptera_caesifrons.png", "group": "clownfish", "rarity": 1, "waterType": "Saltwater"}, {"lat": -19.35, "lng": 169.467, "id": "205509", "name": "Macrorhamphosodes", "sprite": "sp-anchoviella_juruasanga.png", "group": "other", "rarity": 1}, {"lat": -18.8275, "lng": 169.0064, "id": "277659", "name": "Blackstriped combtooth blenny", "thumb": "tn_Ecfou_u0.jpg", "sprite": "sp-helcogramma_ascensionis.png", "group": "blenny", "rarity": 1, "waterType": "Saltwater"}, {"lat": -21.1443, "lng": 171.295, "id": "393616", "name": "Oceanicaulis", "sprite": "sp-anchoviella_juruasanga.png", "group": "other", "rarity": 1}, {"lat": -18.8415, "lng": 169.1021, "id": "212216", "name": "Bluntheaded wrasse", "thumb": "tn_Thamb_m2.jpg", "sprite": "sp-cleaner_wrasse.png", "group": "wrasse", "rarity": 1, "waterType": "Saltwater"}, {"lat": -19.5258, "lng": 169.4972, "id": "279762", "name": "Blue devilfish", "thumb": "tn_Asmac_u3.jpg", "sprite": "sp-anchoviella_juruasanga.png", "group": "other", "rarity": 1, "waterType": "Saltwater"}, {"lat": -21.7, "lng": 172.2, "id": "418106", "name": "Globigerinella calida", "sprite": "sp-anchoviella_juruasanga.png", "group": "other", "rarity": 1}, {"lat": -21.7873, "lng": 169.374, "id": "206812", "name": "Anous", "sprite": "sp-anchoviella_juruasanga.png", "group": "other", "rarity": 1}, {"lat": -19.4728, "lng": 169.3994, "id": "125541", "name": "Labridae", "sprite": "sp-cleaner_wrasse.png", "group": "wrasse", "rarity": 1}, {"lat": -18.8267, "lng": 169.0063, "id": "126071", "name": "Siganus", "sprite": "sp-anchoviella_juruasanga.png", "group": "other", "rarity": 1}, {"lat": -18.7403, "lng": 169.2114, "id": "279230", "name": "Little hooded triplefin", "thumb": "tn_Hechi_u1.jpg", "sprite": "sp-helcogramma_ascensionis.png", "group": "blenny", "rarity": 1, "waterType": "Saltwater"}, {"lat": -21.1443, "lng": 171.295, "id": "567520", "name": "Methylobacteriaceae", "sprite": "sp-anchoviella_juruasanga.png", "group": "other", "rarity": 1}, {"lat": -18.06, "lng": 168.9, "id": "436258", "name": "Spergo sibogae", "sprite": "sp-cowrie_shell.png", "group": "sea_snail", "rarity": 1}, {"lat": -20.2, "lng": 169.816, "id": "433696", "name": "Eucithara caledonica", "sprite": "sp-cowrie_shell.png", "group": "sea_snail", "rarity": 1}, {"lat": -21.1443, "lng": 171.295, "id": "571458", "name": "Hydrocarboniphaga", "sprite": "sp-anchoviella_juruasanga.png", "group": "other", "rarity": 1}, {"lat": -20.9717, "lng": 170.0617, "id": "286808", "name": "Deltocyathus taiwanicus", "sprite": "sp-actiniidae.png", "group": "coral", "rarity": 1}, {"lat": -20.342, "lng": 169.804, "id": "135119", "name": "Fungiacyathus", "sprite": "sp-actiniidae.png", "group": "coral", "rarity": 1}, {"lat": -21.1443, "lng": 171.295, "id": "393621", "name": "Thiocapsa", "sprite": "sp-anchoviella_juruasanga.png", "group": "other", "rarity": 1}, {"lat": -21.1443, "lng": 171.295, "id": "493846", "sprite": "sp-anchoviella_juruasanga.png", "group": "other", "rarity": 1}, {"lat": -19.3657, "lng": 169.4678, "id": "244082", "name": "Ophiothamnus biocal", "sprite": "sp-sea_cucumber.png", "group": "starfish", "rarity": 1}, {"lat": -17.8169, "lng": 170.0, "id": "158897", "name": "Noble lampfish", "thumb": "tn_Lanob_u0.jpg", "sprite": "sp-anchoviella_juruasanga.png", "group": "other", "rarity": 1, "waterType": "Saltwater"}, {"lat": -21.1443, "lng": 171.295, "id": "566342", "name": "Spirochaeta", "sprite": "sp-anchoviella_juruasanga.png", "group": "other", "rarity": 1}, {"lat": -16.9898, "lng": 173.9158, "id": "449966", "name": "Ifremeria nautilei", "sprite": "sp-cowrie_shell.png", "group": "sea_snail", "rarity": 1}, {"lat": -20.325, "lng": 169.81, "id": "210402", "name": "Parapenaeus sextuberculatus", "sprite": "sp-american_lobster.png", "group": "crab_lobster", "rarity": 1}]}